#----------------------------------------------------------------------------
~VERSION INFORMATION
VERS.            2.0                  :CWLS LOG ASCII STANDARD -VERSION 2.0
WRAP.            NO                   :ONE LINE PER DEPTH STEP
#
#--------------------------------------------------------------------
~WELL INFORMATION
#MNEM .UNIT      DATA                 :DESCRIPTION OF MNEMONIC
#----------      ------------         -------------------------------
STRT  .m         1900.0               :START DEPTH
STEP  .m         0.1524               :STEP DEPTH
STOP  .m         2100.0               :STOP DEPTH
NULL  .          -999.25              :NULL VALUE
COMP  .                               :COMPANY
WELL  .          Grana2018            :WELL
LOC   .                               :LOCATION - AREA
FLD   .                               :FIELD
CTRY  .                               :COUNTRY
DATE  .                               :WELL DATE

XWELL .m          0                    :X POS
YWELL .m          0                    :Y POS
EDF   .          0.0                  :DERRICK FLOOR ELEVATION
#
#----------------------------------------------------------------------------
~CURVE INFORMATION
#MNEM.UNIT                                  : CURVE DESCRIPTION
#----------                                 -------------------------------
DEPT        .m                              : 1      DEPTH
VCL         .fract                          : 2      Volume
PHIT        .fract                          : 3      Por
SW          .fract                          : 4      Sat
VP          .m/s                            : 5      Vp
VS          .m/s                            : 6      Vs
RHOB        .g/cm3                          : 7      Rho
#
#----------------------------------------------------------------------------
~A          VOL_CLAY    PHI         SW          VP          VS          RHOB        
# ...
1979.0956   0.0081      0.2731      0.0864      3933.0608   2132.0022   2.0382      
1979.248    0.0081      0.2707      0.0928      3953.4684   2135.3851   2.0446      
1979.4004   0.0081      0.2701      0.0934      3969.0279   2141.6398   2.0566      
1979.5528   0.0081      0.2701      0.0829      3995.6235   2148.6452   2.0594      
1979.7052   0.0081      0.2731      0.0659      4011.8141   2160.8627   2.0568      
1979.8576   0.0081      0.274       0.0557      4010.4403   2168.8134   2.0545      
1980.01     0.0081      0.275       0.0461      3964.7722   2181.3365   2.0511      
1980.1624   0.0081      0.2744      0.0465      3928.5087   2169.3679   2.0533      
1980.3148   0.0081      0.2755      0.0524      3890.2229   2122.9859   2.0538      
1980.4672   0.0081      0.2767      0.0573      3888.2711   2096.8346   2.0539      
1980.6196   0.0081      0.2804      0.0717      3881.1889   2107.2192   2.0516      
1980.772    0.0081      0.2822      0.0788      3878.8215   2129.4751   2.0481      
1980.9244   0.0082      0.2792      0.0902      3867.5961   2135.7285   2.0543      
1981.0768   0.0089      0.2763      0.0937      3857.243    2121.9699   2.0601      
1981.2292   0.0127      0.2711      0.1081      3846.498    2104.5877   2.0718      
1981.3816   0.0161      0.2666      0.1346      3846.5552   2098.7354   2.0779      
1981.534    0.0403      0.2483      0.2424      3862.2664   2090.2088   2.1054      
1981.6864   0.0619      0.2313      0.3196      3869.4997   2086.2296   2.1384      
1981.8388   0.1028      0.2108      0.3885      3865.1919   2078.9009   2.1845      
1981.9912   0.1754      0.1719      0.5242      3824.773    2060.3821   2.2786      
1982.1436   0.2173      0.1544      0.6228      3804.005    2039.4746   2.3286      
1982.296    0.2805      0.1353      0.8042      3778.0135   2018.1486   2.3998      
1982.4484   0.3237      0.1325      0.8954      3757.7368   1996.5021   2.4353      
1982.6008   0.3867      0.1357      0.9945      3715.4404   1965.4274   2.48        
1982.7532   0.4197      0.1451      0.9951      3688.6824   1943.9233   2.4972      
1982.9056   0.4591      0.1616      0.9808      3655.1394   1894.5142   2.511       
1983.058    0.4599      0.1703      0.9333      3648.1232   1870.3379   2.5163      
1983.2104   0.4409      0.182       0.8203      3633.7736   1868.0396   2.5154      
1983.3628   0.4216      0.1878      0.7281      3662.4772   1886.5822   2.5033      
1983.5152   0.3995      0.1924      0.6653      3720.5886   1944.4956   2.4726      
1983.6676   0.3991      0.1927      0.6719      3774.2887   1984.1716   2.4519      
1983.82     0.4205      0.1689      0.8019      3873.4537   2051.7475   2.4473      
1983.9724   0.4364      0.1427      0.8855      3941.0554   2075.3276   2.4695      
1984.1248   0.4424      0.0991      0.9753      4064.6306   2116.1178   2.5472      
1984.2772   0.4309      0.0775      0.9913      4148.7958   2147.1726   2.6039      
1984.4296   0.3982      0.0713      0.9938      4253.1819   2201.0959   2.6508      
1984.582    0.3789      0.0758      0.9951      4307.1121   2241.0314   2.6572      
1984.7344   0.37        0.0903      0.9939      4373.9036   2307.113    2.6335      
1984.8868   0.3686      0.0971      0.9933      4405.7615   2345.8165   2.6119      
1985.0392   0.3697      0.0971      0.9927      4416.8272   2373.9438   2.5916      
1985.1916   0.3678      0.0947      0.9832      4379.0321   2414.7336   2.579       
1985.344    0.3646      0.0987      0.9347      4299.3108   2437.188    2.5754      
1985.4964   0.3571      0.1135      0.8322      4180.9043   2462.4638   2.5548      
1985.6488   0.3578      0.1292      0.7578      4111.8379   2464.4239   2.5259      
1985.8012   0.3739      0.1593      0.664       3992.1669   2411.3241   2.4564      
1985.9536   0.3924      0.1741      0.644       3916.042    2346.5306   2.4166      
1986.106    0.4319      0.2026      0.6072      3766.4683   2169.0392   2.3607      
1986.2584   0.4603      0.2183      0.5877      3667.2817   2055.343    2.3304      
1986.4108   0.4944      0.2285      0.5865      3375.0703   1842.5414   2.3217      
1986.5632   0.5067      0.2262      0.6155      3339.5764   1791.6999   2.3427      
1986.7156   0.5308      0.1989      0.7154      3096.591    1645.54     2.4096      
1986.868    0.5419      0.1787      0.7917      3094.2783   1629.4343   2.4617      
1987.0204   0.5585      0.1487      0.9074      3132.579    1630.1921   2.5408      
1987.1728   0.5632      0.1377      0.966       3165.0163   1648.9208   2.5768      
1987.3252   0.5525      0.1354      0.9917      3213.3977   1686.7313   2.5804      
1987.4776   0.54        0.1374      0.9921      3241.9504   1711.8136   2.5796      
1987.63     0.5402      0.1411      0.9948      3271.1213   1720.3547   2.5685      
1987.7824   0.5483      0.1427      0.9949      3287.0526   1722.6184   2.5556      
1987.9348   0.5653      0.1411      0.9949      3288.2925   1719.2839   2.5488      
1988.0872   0.5691      0.1406      0.9949      3288.3      1714.1919   2.5446      
1988.2396   0.5691      0.1402      0.9949      3288.3      1709.9564   2.5471      
1988.392    0.5689      0.141       0.9949      3288.298    1708.414    2.5461      
1988.5444   0.5748      0.1423      0.9949      3288.2229   1708.4      2.5417      
1988.6968   0.5863      0.145       0.9949      3295.264    1708.4      2.5334      
1988.8492   0.5885      0.1452      0.9949      3308.1701   1708.4      2.5327      
1989.0016   0.5894      0.1453      0.9949      3314.9642   1712.6149   2.5409      
1989.154    0.5894      0.1453      0.9949      3333.2035   1719.9458   2.5483      
1989.3064   0.5889      0.143       0.9949      3368.7797   1732.6894   2.5571      
1989.4588   0.5847      0.1392      0.9949      3414.9246   1747.0967   2.5624      
1989.6112   0.5701      0.1317      0.9949      3492.3703   1777.8823   2.5629      
1989.7636   0.559       0.1284      0.9949      3535.7566   1806.9514   2.5607      
1989.916    0.5457      0.1261      0.9922      3541.1214   1860.46     2.5561      
1990.0684   0.5379      0.1267      0.9923      3541.9716   1893.1901   2.5493      
1990.2208   0.5129      0.1316      0.9837      3657.0052   1965.5439   2.5304      
1990.3732   0.4841      0.1355      0.9441      3811.1502   2024.4549   2.5147      
1990.5256   0.4171      0.1492      0.8191      4008.2102   2094.1932   2.4701      
1990.678    0.3799      0.1596      0.73        4107.8207   2132.1291   2.4425      
1990.8304   0.2974      0.1812      0.5479      4075.5235   2148.4249   2.3909      
1990.9828   0.26        0.1934      0.4818      3999.4749   2158.6712   2.3602      
1991.1352   0.2192      0.2035      0.4137      3889.5394   2169.6366   2.3228      
1991.2876   0.2122      0.2055      0.3949      3795.3816   2169.7194   2.3         
1991.44     0.2201      0.1991      0.4223      3757.145    2175.8423   2.2991      
1991.5924   0.2509      0.1819      0.529       3732.1658   2191.0859   2.331       
1991.7448   0.2812      0.1676      0.6299      3745.4883   2196.9167   2.375       
1991.8972   0.2918      0.1615      0.7008      3750.1656   2198.6399   2.44        
1992.0496   0.2828      0.1644      0.6917      3746.3247   2197.9829   2.447       
1992.202    0.244       0.179       0.5848      3725.6573   2211.6857   2.4245      
1992.3544   0.2163      0.1834      0.5276      3706.7267   2212.996    2.3939      
1992.5068   0.1869      0.1812      0.5127      3654.7276   2212.5193   2.3862      
1992.6592   0.1738      0.1793      0.5128      3612.5855   2209.228    2.3931      
1992.8116   0.1525      0.1914      0.4497      3584.9275   2203.4811   2.392       
1992.964    0.1366      0.2093      0.3803      3584.7526   2203.4      2.3636      
1993.1164   0.1167      0.2405      0.2835      3593.8298   2204.7715   2.2814      
1993.2688   0.1135      0.2542      0.2402      3593.5643   2212.4833   2.2275      
1993.4212   0.1216      0.2591      0.2149      3596.4915   2213.7658   2.1871      
