#----------------------------------------------------------------------------
~VERSION INFORMATION
VERS.            2.0                  :CWLS LOG ASCII STANDARD -VERSION 2.0
WRAP.            NO                   :ONE LINE PER DEPTH STEP
#
#--------------------------------------------------------------------
~WELL INFORMATION
#MNEM .UNIT      DATA                 :DESCRIPTION OF MNEMONIC
#----------      ------------         -------------------------------
STRT  .m         0.0                  :START DEPTH
STEP  .m         0.1524               :STEP DEPTH
STOP  .m         4000.0               :STOP DEPTH
NULL  .          -999.25              :NULL VALUE
COMP  .                               :COMPANY
WELL  .          Well4                :WELL
LOC   .                               :LOCATION - AREA
FLD   .                               :FIELD
CTRY  .                               :COUNTRY
DATE  .                               :WELL DATE

XWELL .m          0                    :X POS
YWELL .m          0                    :Y POS
EDF   .          0.0                  :DERRICK FLOOR ELEVATION
#
#----------------------------------------------------------------------------
~CURVE INFORMATION
#MNEM.UNIT                                  : CURVE DESCRIPTION
#----------                                 -------------------------------
DEPT        .m                              : 1      DEPTH
RHOB        .g/cm3                          : 2      Rho
Vs          .m/s                            : 3      Vs
Vp          .m/s                            : 4      Vp
Vclay       .fract                          : 5      Volume
Vcoal       .fract                          : 6      Volume
Vqz         .fract                          : 7      Volume
Vcal        .fract                          : 8      Volume
PHI_isolated.fract                          : 9      Por
PHI_bound   .fract                          : 10     Por
Vsh         .fract                          : 11     Volume
PHIE        .fract                          : 12     Por
PHIT        .fract                          : 13     Por
Sot         .fract                          : 14     Sat
Sgt         .fract                          : 15     Sat
Swt         .fract                          : 16     Sat
#
#----------------------------------------------------------------------------
~A          RHOB        Vs          Vp          Vclay       Vcoal       Vqz         Vcal        PHI_isolatedPHI_bound   Vsh         PHIE        PHIT        Sot         Sgt         Swt         
# ...
3110.7888   2.3755      2245.6      3880.2      0.2065      0.0         0.5931      0.0         0.0         0.0843      0.2909      0.1161      0.2005      0.0         0.0         0.9995      
3110.9412   2.3956      2275.7      3869.3      0.188       0.0         0.6134      0.0         0.0         0.0768      0.2647      0.1218      0.1986      0.0         0.0         0.9995      
3111.0936   2.4188      2231.6      3855.4      0.1595      0.0         0.6495      0.0         0.0         0.0652      0.2248      0.1257      0.1909      0.0         0.0         0.9995      
3111.246    2.4187      2229.9      3854.9      0.1446      0.0         0.6653      0.0         0.0         0.0591      0.2037      0.1309      0.19        0.0         0.0         0.9995      
3111.3984   2.404       2254.3      3870.8      0.1304      0.0         0.6812      0.0         0.0         0.0533      0.1837      0.1352      0.1885      0.0         0.0         0.9995      
3111.5508   2.3939      2243.8      3894.9      0.1307      0.0         0.6821      0.0         0.0         0.0534      0.1841      0.1339      0.1873      0.0         0.0         0.9995      
3111.7032   2.3761      2247.3      3924.2      0.1356      0.0         0.6737      0.0         0.0         0.0554      0.191       0.1353      0.1906      1.0E-4      0.0         0.9994      
3111.8556   2.3716      2228.2      3959.8      0.1417      0.0         0.6692      0.0         0.0         0.0579      0.1996      0.1311      0.189       0.036       0.0         0.9635      
3112.008    2.3775      2240.7      3999.7      0.1553      0.0         0.6559      0.0         0.0         0.0634      0.2188      0.1253      0.1887      0.0305      0.0         0.969       
3112.1604   2.388       2255.4      4027.3      0.1562      0.0         0.6585      0.0         0.0         0.0638      0.22        0.1216      0.1854      0.0         0.0091      0.9903      
3112.3128   2.4153      2252.6      4029.4      0.1338      0.0         0.6881      0.0         0.0         0.0547      0.1884      0.1235      0.1782      0.0         0.0         0.9994      
3112.4652   2.4267      2242.8      4002.7      0.123       0.0         0.7022      4.0E-4      0.0         0.0502      0.1733      0.124       0.1742      0.0         0.0         0.9994      
3112.6176   2.439       2266.9      3977.2      0.1183      0.0         0.5753      0.1302      0.0         0.0483      0.1666      0.1278      0.1761      0.0381      0.0         0.9613      
3112.77     2.4421      2295.8      3982.1      0.1345      0.0         0.4328      0.2492      0.0         0.055       0.1895      0.128       0.183       0.1131      0.0         0.8863      
3112.9224   2.4537      2304.2      4018.4      0.2272      0.0         0.1837      0.3885      0.0035      0.0927      0.3199      0.1047      0.2009      0.1347      0.0         0.8648      
3113.0748   2.4646      2292.4      4060.8      0.3134      0.0         0.1394      0.3421      0.0378      0.128       0.4414      0.0399      0.2057      0.0597      0.0         0.9399      
3113.2272   2.4883      2274.4      4057.4      0.4573      0.0         0.2519      0.0731      0.0311      0.1868      0.644       0.0         0.2179      0.0         0.0         0.9995      
3113.3796   2.4935      2275.7      4008.5      0.4921      0.0         0.2866      0.0         0.0206      0.201       0.693       0.0         0.2216      0.0         0.0         0.9995      
3113.532    2.4768      2216.1      3922.6      0.4961      0.0         0.2777      0.0         0.0237      0.2026      0.6986      0.0         0.2263      0.0         0.0         0.9996      
3113.6844   2.4385      2214.4      3854.5      0.454       0.0         0.318       0.0         0.0426      0.1854      0.6394      0.0         0.2281      0.0         0.0         0.9996      
3113.8368   2.4196      2216.1      3810.2      0.4177      0.0         0.3522      0.0         0.0592      0.1706      0.5883      0.0         0.2298      0.0         0.0         0.9995      
3113.9892   2.4267      2212.6      3800.5      0.3692      0.0         0.4058      0.0         0.063       0.1508      0.52        0.0112      0.225       0.0117      0.0         0.9879      
3114.1416   2.445       2164.4      3794.2      0.364       0.0         0.4138      0.0         0.0597      0.1487      0.5128      0.0138      0.2222      0.0148      0.0         0.9847      
3114.294    2.5018      2194.1      3789.1      0.402       0.0         0.3786      0.0         0.0555      0.1642      0.5661      0.0         0.2197      0.0         0.0         0.9995      
3114.4464   2.5304      -999.25     -999.25     -999.25     -999.25     -999.25     -999.25     -999.25     -999.25     -999.25     -999.25     -999.25     -999.25     -999.25     -999.25     
3114.5988   2.5607      -999.25     -999.25     -999.25     -999.25     -999.25     -999.25     -999.25     -999.25     -999.25     -999.25     -999.25     -999.25     -999.25     -999.25     
3114.7512   2.5546      -999.25     -999.25     -999.25     -999.25     -999.25     -999.25     -999.25     -999.25     -999.25     -999.25     -999.25     -999.25     -999.25     -999.25     
3114.9036   2.5019      -999.25     -999.25     -999.25     -999.25     -999.25     -999.25     -999.25     -999.25     -999.25     -999.25     -999.25     -999.25     -999.25     -999.25     
3115.056    2.4657      -999.25     -999.25     -999.25     -999.25     -999.25     -999.25     -999.25     -999.25     -999.25     -999.25     -999.25     -999.25     -999.25     -999.25     
3115.2084   2.4091      -999.25     -999.25     -999.25     -999.25     -999.25     -999.25     -999.25     -999.25     -999.25     -999.25     -999.25     -999.25     -999.25     -999.25     
3115.3608   2.3989      -999.25     -999.25     -999.25     -999.25     -999.25     -999.25     -999.25     -999.25     -999.25     -999.25     -999.25     -999.25     -999.25     -999.25     
3115.5132   2.4181      -999.25     -999.25     -999.25     -999.25     -999.25     -999.25     -999.25     -999.25     -999.25     -999.25     -999.25     -999.25     -999.25     -999.25     
3115.6656   2.4401      -999.25     -999.25     -999.25     -999.25     -999.25     -999.25     -999.25     -999.25     -999.25     -999.25     -999.25     -999.25     -999.25     -999.25     
3115.818    2.4823      -999.25     -999.25     -999.25     -999.25     -999.25     -999.25     -999.25     -999.25     -999.25     -999.25     -999.25     -999.25     -999.25     -999.25     
3115.9704   2.5015      -999.25     -999.25     -999.25     -999.25     -999.25     -999.25     -999.25     -999.25     -999.25     -999.25     -999.25     -999.25     -999.25     -999.25     
3116.1228   2.5011      -999.25     -999.25     -999.25     -999.25     -999.25     -999.25     -999.25     -999.25     -999.25     -999.25     -999.25     -999.25     -999.25     -999.25     
3116.2752   2.4943      -999.25     -999.25     -999.25     -999.25     -999.25     -999.25     -999.25     -999.25     -999.25     -999.25     -999.25     -999.25     -999.25     -999.25     
3116.4276   2.4633      -999.25     -999.25     -999.25     -999.25     -999.25     -999.25     -999.25     -999.25     -999.25     -999.25     -999.25     -999.25     -999.25     -999.25     
3116.58     2.4423      -999.25     -999.25     -999.25     -999.25     -999.25     -999.25     -999.25     -999.25     -999.25     -999.25     -999.25     -999.25     -999.25     -999.25     
3116.7324   2.4007      -999.25     -999.25     -999.25     -999.25     -999.25     -999.25     -999.25     -999.25     -999.25     -999.25     -999.25     -999.25     -999.25     -999.25     
3116.8848   2.4019      -999.25     -999.25     -999.25     -999.25     -999.25     -999.25     -999.25     -999.25     -999.25     -999.25     -999.25     -999.25     -999.25     -999.25     
3117.0372   2.4093      -999.25     -999.25     -999.25     -999.25     -999.25     -999.25     -999.25     -999.25     -999.25     -999.25     -999.25     -999.25     -999.25     -999.25     
