#----------------------------------------------------------------------------
~VERSION INFORMATION
VERS.            2.0                  :CWLS LOG ASCII STANDARD -VERSION 2.0
WRAP.            NO                   :ONE LINE PER DEPTH STEP
#
#--------------------------------------------------------------------
~WELL INFORMATION
#MNEM .UNIT      DATA                 :DESCRIPTION OF MNEMONIC
#----------      ------------         -------------------------------
STRT  .m         0.0                  :START DEPTH
STEP  .m         0.1524               :STEP DEPTH
STOP  .m         4000.0               :STOP DEPTH
NULL  .          -999.25              :NULL VALUE
COMP  .                               :COMPANY
WELL  .          Well5                :WELL
LOC   .                               :LOCATION - AREA
FLD   .                               :FIELD
CTRY  .                               :COUNTRY
DATE  .                               :WELL DATE

XWELL .m          0                    :X POS
YWELL .m          0                    :Y POS
EDF   .          0.0                  :DERRICK FLOOR ELEVATION
#
#----------------------------------------------------------------------------
~CURVE INFORMATION
#MNEM.UNIT                                  : CURVE DESCRIPTION
#----------                                 -------------------------------
DEPT        .m                              : 1      DEPTH
GR          .API                            : 2      GR
PR          .unitless                       : 3      Poisson_Ratio
RHOB        .g/cm3                          : 4      Rho
CALI        .m                              : 5      Cal
VELC        .m/s                            : 6      Vp
VELS        .m/s                            : 7      Vs
Vcdry       .fract                          : 8      Volume
Vbw         .fract                          : 9      Volume
Vcal        .fract                          : 10     Volume
Vqz         .fract                          : 11     Volume
Vparphi     .fract                          : 12     Volume
Voil        .fract                          : 13     Volume
Vgas        .fract                          : 14     Volume
Vw          .fract                          : 15     Volume
Vp_elastic  .m/s                            : 16     Vp
Vs_elastic  .m/s                            : 17     Vs
Rho_elastic .g/cm3                          : 18     Rho
#
#----------------------------------------------------------------------------
~A          GR          PR          RHOB        CALI        VELC        VELS        Vcdry       Vbw         Vcal        Vqz         Vparphi     Voil        Vgas        Vw          Vp_elastic  Vs_elastic  Rho_elastic 
# ...
2971.6476   123.8729    -999.25     2.6914      0.3539      -999.25     -999.25     0.5436      0.1624      0.0         0.294       0.0         0.0         0.0         0.0         2903.568    1469.309    2.4328      
2971.8      118.5435    -999.25     2.6517      0.3542      -999.25     -999.25     0.5271      0.1574      0.0         0.2984      0.0171      0.0         0.0         0.0         2903.9422   1469.5734   2.433       
2971.9524   116.195     -999.25     2.5926      0.3539      -999.25     -999.25     0.5167      0.1543      0.0         0.2864      0.0425      0.0         0.0         0.0         2904.3164   1469.8379   2.4331      
2972.1048   118.2262    -999.25     2.5602      0.3537      -999.25     -999.25     0.5346      0.1597      0.0         0.2557      0.0499      0.0         0.0         0.0         2904.6906   1470.1026   2.4333      
2972.2572   129.5405    -999.25     2.5451      0.3536      -999.25     -999.25     0.6093      0.182       0.0         0.1763      0.0325      0.0         0.0         0.0         2905.065    1470.3673   2.4334      
2972.4096   136.9429    -999.25     2.5424      0.3536      -999.25     -999.25     0.6352      0.1897      0.0         0.158       0.0168      0.0         0.0         0.0         2905.4394   1470.6321   2.4336      
2972.562    138.0429    -999.25     2.5483      0.3534      -999.25     -999.25     0.6296      0.1881      0.0         0.1709      0.0112      0.0         0.0         0.0         2905.8139   1470.897    2.4337      
2972.7144   139.3468    -999.25     2.5575      0.3531      -999.25     -999.25     0.6413      0.1915      0.0         0.162       0.0053      0.0         0.0         0.0         2906.1884   1471.162    2.4339      
2972.8668   139.5868    -999.25     2.5708      0.3521      -999.25     -999.25     0.6628      0.198       0.0         0.1374      0.0018      0.0         0.0         0.0         2906.563    1471.427    2.434       
2973.0192   136.4496    -999.25     2.587       0.351       -999.25     -999.25     0.6487      0.1938      0.0         0.1539      0.0035      0.0         0.0         0.0         2906.9377   1471.6922   2.4342      
2973.1716   133.0494    -999.25     2.6044      0.35        -999.25     -999.25     0.6214      0.1856      0.0         0.188       0.0048      0.0         0.0         0.0         2907.3125   1471.9575   2.4343      
2973.324    131.1704    -999.25     2.609       0.3496      -999.25     -999.25     0.6107      0.1824      0.0         0.1996      0.0075      0.0         0.0         0.0         2907.6873   1472.2229   2.4344      
2973.4764   131.3604    -999.25     2.5882      0.3496      -999.25     -999.25     0.5928      0.1771      0.0         0.2188      0.0114      0.0         0.0         0.0         2908.0622   1472.4883   2.4346      
2973.6288   132.0533    -999.25     2.5664      0.3503      -999.25     -999.25     0.6074      0.1814      0.0         0.193       0.0182      0.0         0.0         0.0         2908.4371   1472.7538   2.4347      
2973.7812   133.9971    -999.25     2.5523      0.3498      -999.25     -999.25     0.6338      0.1893      0.0         0.156       0.0209      0.0         0.0         0.0         2908.8122   1473.0195   2.4349      
2973.9336   134.4138    -999.25     2.5505      0.3485      -999.25     -999.25     0.6641      0.1984      0.0         0.1134      0.0242      0.0         0.0         0.0         2909.1873   1473.2852   2.435       
2974.086    132.2043    -999.25     2.5561      0.3472      -999.25     -999.25     0.6366      0.1902      0.0         0.1468      0.0264      0.0         0.0         0.0         2909.5624   1473.551    2.4352      
2974.2384   130.9497    -999.25     2.5634      0.3463      -999.25     -999.25     0.6206      0.1853      0.0         0.168       0.026       0.0         0.0         0.0         2909.9376   1473.8169   2.4353      
2974.3908   129.567     -999.25     2.5673      0.345       -999.25     -999.25     0.5867      0.1752      0.0         0.2118      0.0262      0.0         0.0         0.0         2910.3129   1474.0829   2.4355      
2974.5432   129.6131    -999.25     2.5634      0.3438      -999.25     -999.25     0.5709      0.1705      0.0         0.2304      0.0282      0.0         0.0         0.0         2910.6883   1474.349    2.4356      
2974.6956   131.3548    -999.25     2.5519      0.3425      -999.25     -999.25     0.5718      0.1708      0.0         0.2274      0.03        0.0         0.0         0.0         2911.0637   1474.6152   2.4358      
2974.848    132.5196    -999.25     2.5414      0.3405      -999.25     -999.25     0.6057      0.1809      0.0         0.1786      0.0348      0.0         0.0         0.0         2911.4392   1474.8815   2.4359      
2975.0004   132.5429    -999.25     2.5406      0.3389      -999.25     -999.25     0.6251      0.1867      0.0         0.1503      0.038       0.0         0.0         0.0         2911.8148   1475.1479   2.4361      
2975.1528   133.2834    -999.25     2.5468      0.3385      -999.25     -999.25     0.6274      0.1874      0.0         0.1519      0.0333      0.0         0.0         0.0         2912.1904   1475.4143   2.4362      
2975.3052   134.5923    -999.25     2.5511      0.3393      -999.25     -999.25     0.6228      0.186       0.0         0.167       0.0244      0.0         0.0         0.0         2912.5661   1475.6809   2.4364      
2975.4576   135.0507    -999.25     2.574       0.3395      -999.25     -999.25     0.6233      0.1862      0.0         0.1766      0.0137      0.0         0.0         0.0         2912.9419   1475.9475   2.4365      
2975.61     133.8223    -999.25     2.6045      0.3388      -999.25     -999.25     0.6278      0.1875      0.0         0.1776      0.0072      0.0         0.0         0.0         2913.3177   1476.2143   2.4367      
2975.7624   131.5244    -999.25     2.6105      0.3385      -999.25     -999.25     0.6081      0.1816      0.0         0.2012      0.0091      0.0         0.0         0.0         2913.6936   1476.4811   2.4368      
2975.9148   129.2307    -999.25     2.5873      0.3385      -999.25     -999.25     0.5814      0.1737      0.0         0.226       0.0189      0.0         0.0         0.0         2914.0696   1476.748    2.437       
2976.0672   129.125     -999.25     2.5701      0.3385      -999.25     -999.25     0.5705      0.1704      0.0         0.2361      0.023       0.0         0.0         0.0         2914.4456   1477.015    2.4371      
2976.2196   131.0732    -999.25     2.5718      0.3385      -999.25     -999.25     0.5868      0.1753      0.0         0.2197      0.0183      0.0         0.0         0.0         2914.8217   1477.2821   2.4373      
2976.372    132.0304    -999.25     2.5784      0.3385      -999.25     -999.25     0.6162      0.1841      0.0         0.184       0.0157      0.0         0.0         0.0         2915.1978   1477.5493   2.4374      
2976.5244   130.8005    -999.25     2.5815      0.3399      -999.25     -999.25     0.6216      0.1857      0.0         0.1752      0.0175      0.0         0.0         0.0         2915.5741   1477.8166   2.4375      
2976.6768   128.0535    -999.25     2.574       0.3392      -999.25     -999.25     0.6163      0.1841      0.0         0.1739      0.0258      0.0         0.0         0.0         2915.9504   1478.084    2.4377      
2976.8292   126.2854    -999.25     2.5679      0.3385      -999.25     -999.25     0.6142      0.1835      0.0         0.1709      0.0314      0.0         0.0         0.0         2916.3267   1478.3515   2.4378      
2976.9816   124.2384    -999.25     2.5785      0.3385      -999.25     -999.25     0.6159      0.184       0.0         0.1659      0.0343      0.0         0.0         0.0         2916.7031   1478.619    2.438       
2977.134    123.23      -999.25     2.603       0.3385      -999.25     -999.25     0.6062      0.181       0.0         0.1828      0.0299      0.0         0.0         0.0         2917.0796   1478.8867   2.4381      
