#----------------------------------------------------------------------------
~VERSION INFORMATION
VERS.            2.0                  :CWLS LOG ASCII STANDARD -VERSION 2.0
WRAP.            NO                   :ONE LINE PER DEPTH STEP
#
#--------------------------------------------------------------------
~WELL INFORMATION
#MNEM .UNIT      DATA                 :DESCRIPTION OF MNEMONIC
#----------      ------------         -------------------------------
STRT  .m         0.0                  :START DEPTH
STEP  .m         0.1524               :STEP DEPTH
STOP  .m         4000.0               :STOP DEPTH
NULL  .          -999.25              :NULL VALUE
COMP  .                               :COMPANY
WELL  .          Well4                :WELL
LOC   .                               :LOCATION - AREA
FLD   .                               :FIELD
CTRY  .                               :COUNTRY
DATE  .                               :WELL DATE

XWELL .m          0                    :X POS
YWELL .m          0                    :Y POS
EDF   .          0.0                  :DERRICK FLOOR ELEVATION
#
#----------------------------------------------------------------------------
~CURVE INFORMATION
#MNEM.UNIT                                  : CURVE DESCRIPTION
#----------                                 -------------------------------
DEPT        .m                              : 1      DEPTH
RHOB        .g/cm3                          : 2      Rho
Vs          .m/s                            : 3      Vs
Vp          .m/s                            : 4      Vp
Vclay       .fract                          : 5      Volume
Vcoal       .fract                          : 6      Volume
Vqz         .fract                          : 7      Volume
Vcal        .fract                          : 8      Volume
PHI_isolated.fract                          : 9      Por
PHI_bound   .fract                          : 10     Por
Vsh         .fract                          : 11     Volume
PHIE        .fract                          : 12     Por
PHIT        .fract                          : 13     Por
Sot         .fract                          : 14     Sat
Sgt         .fract                          : 15     Sat
Swt         .fract                          : 16     Sat
#
#----------------------------------------------------------------------------
~A          RHOB        Vs          Vp          Vclay       Vcoal       Vqz         Vcal        PHI_isolatedPHI_bound   Vsh         PHIE        PHIT        Sot         Sgt         Swt         
# ...
1849.8312   2.4791      1307.3      2811.4      0.59        0.0         0.0985      0.0332      0.0485      0.2294      0.8194      0.0         0.2779      0.0         0.0         0.9996      
1849.9836   2.4767      1262.3      2773.8      0.5921      0.0         0.1225      0.0044      0.0509      0.2303      0.8224      0.0         0.2812      0.0         0.0         0.9996      
1850.136    2.4803      1225.1      2760.3      0.5885      0.0         0.0884      0.0373      0.0569      0.2289      0.8174      0.0         0.2858      0.0         0.0         0.9997      
1850.2884   2.4854      1199.9      2757.0      0.5945      0.0         0.0024      0.1119      0.0602      0.2312      0.8257      0.0         0.2914      0.0         0.0         0.9997      
1850.4408   2.4906      1192.1      2756.2      0.6078      0.0         0.0         0.0959      0.0599      0.2364      0.8441      0.0         0.2962      0.0         0.0         0.9997      
1850.5932   2.4883      1190.1      2754.8      0.6289      0.0         0.0         0.0698      0.0565      0.2446      0.8735      0.0         0.3011      0.0         0.0         0.9997      
1850.7456   2.4791      1192.7      2746.0      0.6504      0.0         0.0145      0.0298      0.052       0.2529      0.9033      0.0         0.3049      0.0         0.0         0.9997      
1850.898    2.4721      1206.6      2722.3      0.6436      0.0         0.05        0.0         0.0564      0.2503      0.8939      0.0         0.3067      0.0         0.0         0.9997      
1851.0504   2.4624      1208.6      2687.1      0.6265      0.0         0.0673      0.0         0.0626      0.2437      0.8701      0.0         0.3062      0.0         0.0         0.9997      
1851.2028   2.459       1216.9      2651.0      0.6133      0.0         0.0833      0.0         0.065       0.2386      0.8519      0.0         0.3035      0.0         0.0         0.9997      
1851.3552   2.4552      1226.8      2624.8      0.5934      0.0         0.1075      0.0         0.0683      0.2308      0.8241      0.0         0.2991      0.0         0.0         0.9997      
1851.5076   2.4528      1234.5      2612.7      0.5813      0.0         0.1231      0.0         0.0693      0.2261      0.8074      0.0         0.2954      0.0         0.0         0.9997      
1851.66     2.4488      1216.5      2614.8      0.5628      0.0         0.1441      0.0         0.0743      0.2189      0.7817      0.0         0.2931      0.0         0.0         0.9997      
1851.8124   2.4487      1205.7      2624.0      0.5527      0.0         0.1569      0.0         0.0756      0.2149      0.7676      0.0         0.2905      0.0         0.0         0.9997      
1851.9648   2.4547      1199.7      2635.7      0.5429      0.0         0.1701      0.0         0.076       0.2111      0.7539      0.0         0.2871      0.0         0.0         0.9997      
1852.1172   2.4622      1181.0      2648.9      0.542       0.0         0.1737      0.0         0.0735      0.2108      0.7528      0.0         0.2843      0.0         0.0         0.9996      
1852.2696   2.4733      1179.4      2663.6      0.5502      0.0         0.1672      0.0         0.0685      0.214       0.7642      0.0         0.2825      0.0         0.0         0.9996      
1852.422    2.4749      1163.9      2678.5      0.5622      0.0         0.1553      0.0         0.0638      0.2186      0.7808      0.0         0.2824      0.0         0.0         0.9996      
1852.5744   2.4713      1159.1      2695.4      0.5845      0.0         0.1317      0.0         0.0564      0.2273      0.8119      0.0         0.2837      0.0         0.0         0.9996      
1852.7268   2.4677      1163.2      2722.9      0.5954      0.0         0.1199      0.0         0.0532      0.2315      0.8269      0.0         0.2846      0.0         0.0         0.9996      
1852.8792   2.463       1167.1      2765.2      0.6028      0.0         0.1109      0.0         0.0518      0.2344      0.8372      0.0         0.2862      0.0         0.0         0.9997      
1853.0316   2.4597      1167.1      2811.9      0.5896      0.0         0.1231      0.0         0.058       0.2293      0.8189      0.0         0.2873      0.0         0.0         0.9997      
1853.184    2.4559      1174.5      2836.4      0.5783      0.0         0.1333      0.0         0.0636      0.2249      0.8031      0.0         0.2884      0.0         0.0         0.9997      
1853.3364   2.4456      1181.7      2832.3      0.5599      0.0         0.1512      0.0         0.0711      0.2177      0.7777      0.0         0.2889      0.0         0.0         0.9997      
1853.4888   2.4371      1179.9      2813.0      0.5556      0.0         0.1563      0.0         0.072       0.2161      0.7717      0.0         0.2881      0.0         0.0         0.9997      
1853.6412   2.4237      1184.8      2803.5      0.5669      0.0         0.1444      0.0         0.0682      0.2205      0.7874      0.0         0.2887      0.0         0.0         0.9997      
1853.7936   2.4189      1195.1      2807.8      0.5817      0.0         0.1311      0.0         0.061       0.2263      0.808       0.0         0.2873      0.0         0.0         0.9997      
1853.946    2.4146      1186.2      2802.5      0.6025      0.0         0.1114      0.0         0.0518      0.2343      0.8368      0.0         0.2861      0.0         0.0         0.9997      
1854.0984   2.4103      1187.8      2771.2      0.5976      0.0         0.1179      0.0         0.0521      0.2324      0.83        0.0         0.2845      0.0         0.0         0.9996      
1854.2508   2.397       1188.9      2724.5      0.5661      0.0         0.1503      0.0         0.0635      0.2201      0.7863      0.0         0.2836      0.0         0.0         0.9996      
1854.4032   2.3862      1188.2      2690.9      0.5423      0.0         0.1738      0.0         0.073       0.2109      0.7532      0.0         0.2839      0.0         0.0         0.9996      
1854.5556   2.3876      1187.8      2678.7      0.5465      0.0         0.1677      0.0         0.0735      0.2125      0.7589      0.0         0.286       0.0         0.0         0.9997      
1854.708    2.3957      1189.9      2670.6      0.5623      0.0         0.1492      0.0         0.0699      0.2187      0.781       0.0         0.2886      0.0         0.0         0.9997      
1854.8604   2.4146      1189.3      2647.6      0.5889      0.0         0.1207      0.0         0.0614      0.229       0.818       0.0         0.2904      0.0         0.0         0.9997      
1855.0128   2.4229      1182.1      2615.2      0.5991      0.0         0.11        0.0         0.0579      0.233       0.8321      0.0         0.2909      0.0         0.0         0.9997      
1855.1652   2.4293      1173.0      2585.3      0.6092      0.0         0.1002      0.0         0.0538      0.2369      0.8461      0.0         0.2907      0.0         0.0         0.9997      
1855.3176   2.429       1169.5      2560.1      0.6112      0.0         0.0984      0.0         0.0526      0.2377      0.8489      0.0         0.2903      0.0         0.0         0.9997      
1855.47     2.4265      1177.0      2537.0      0.5997      0.0         0.108       0.0         0.059       0.2332      0.8329      0.0         0.2922      0.0         0.0         0.9997      
1855.6224   2.4265      1178.7      2522.4      0.5846      0.0         0.1203      0.0         0.0676      0.2273      0.812       0.0         0.295       0.0         0.0         0.9997      
1855.7748   2.4316      1178.6      2521.7      0.559       0.0         0.1453      0.0         0.0783      0.2174      0.7765      0.0         0.2957      0.0         0.0         0.9997      
1855.9272   2.4381      1187.5      2536.2      0.5553      0.0         0.1504      0.0         0.0784      0.2159      0.7712      0.0         0.2943      0.0         0.0         0.9997      
1856.0796   2.4505      1181.6      2557.5      0.5674      0.0         0.1424      0.0         0.0696      0.2206      0.788       0.0         0.2902      0.0         0.0         0.9997      
