#----------------------------------------------------------------------------
~VERSION INFORMATION
VERS.            2.0                  :CWLS LOG ASCII STANDARD -VERSION 2.0
WRAP.            NO                   :ONE LINE PER DEPTH STEP
#
#--------------------------------------------------------------------
~WELL INFORMATION
#MNEM .UNIT      DATA                 :DESCRIPTION OF MNEMONIC
#----------      ------------         -------------------------------
STRT  .m         0.0                  :START DEPTH
STEP  .m         0.1524               :STEP DEPTH
STOP  .m         2279.904             :STOP DEPTH
NULL  .          -999.25              :NULL VALUE
COMP  .                               :COMPANY
WELL  .                               :WELL
LOC   .          311975.906,      3195343.67  :LOCATION - AREA
FLD   .                               :FIELD
CTRY  .                               :COUNTRY
DATE  .                               :WELL DATE

XWELL .m          311975               :X POS
YWELL .m          3195343              :Y POS
EDF   .          25.9                 :DERRICK FLOOR ELEVATION
#
#----------------------------------------------------------------------------
~CURVE INFORMATION
#MNEM.UNIT                                  : CURVE DESCRIPTION
#----------                                 -------------------------------
DEPT        .m                              : 1      DEPTH
VSH         .fract                          : 2      Volume
VCL         .fract                          : 3      Volume
SW          .fract                          : 4      Sat
PHIT        .fract                          : 5      Por
PHIE        .fract                          : 6      Por
RHOB        .g/cm3                          : 7      Rho
VP          .m/s                            : 8      Vp
VS          .m/s                            : 9      Vs
Vp_xw       .m/s                            : 10     Vp
Vs_xw       .m/s                            : 11     Vs
Rho_xw      .g/cm3                          : 12     Rho
#
#----------------------------------------------------------------------------
~A          VSH         VCL         SW          PHIT        PHIE        RHOB_raw    VP          VS          Vp_xw       Vs_xw       Rho_xw      
# ...
1742.8464   0.9748      0.6051      1.0         0.1872      0.0205      2.309       2756.4751   1187.6947   2605.8154   1067.1614   2.3205      
1742.9988   0.9636      0.5981      1.0         0.191       0.0262      2.306       2755.7751   1183.3545   2594.5011   1064.9419   2.3152      
1743.1512   0.9327      0.579       1.0         0.1976      0.0382      2.299       2703.9171   1149.026    2581.4358   1068.1455   2.3066      
1743.3036   0.8395      0.5211      1.0         0.2196      0.0761      2.276       2579.8935   1081.4465   2536.3166   1072.9416   2.2771      
1743.456    0.7646      0.4746      0.8682      0.2548      0.1241      2.232       2449.4469   1020.4827   2365.4538   1029.838    2.2194      
1743.6084   0.7791      0.4836      0.7467      0.2848      0.1516      2.188       2383.2795   989.3849    2184.2617   940.9985    2.165       
1743.7608   0.8485      0.5266      0.7339      0.2895      0.1445      2.177       2404.2028   990.893     2126.6389   889.6456    2.1544      
1743.9132   0.894       0.5549      0.8237      0.2691      0.1163      2.204       2504.6244   1034.0081   2219.2004   914.5784    2.19        
1744.0656   0.8975      0.5571      0.9669      0.2434      0.09        2.241       2631.6989   1106.2667   2386.3493   974.8998    2.2372      
1744.218    0.8841      0.5488      1.0         0.2267      0.0756      2.265       2698.6824   1151.6048   2479.908    1025.1013   2.2647      
1744.3704   0.8537      0.5299      1.0         0.2225      0.0766      2.273       2693.4095   1159.1717   2515.1247   1055.7064   2.2722      
1744.5228   0.7986      0.4957      1.0         0.2224      0.086       2.277       2670.2867   1155.2794   2548.8761   1093.9251   2.2744      
1744.6752   0.7731      0.4799      1.0         0.2178      0.0857      2.285       2666.6234   1157.5839   2586.6051   1125.4015   2.2824      
1744.8276   0.8083      0.5017      1.0         0.2078      0.0697      2.296       2699.8596   1175.5748   2610.1051   1127.144    2.2961      
1744.98     0.8736      0.5423      1.0         0.1968      0.0475      2.305       2754.4309   1201.4281   2620.1221   1109.8656   2.3101      
1745.1324   0.9054      0.5619      1.0         0.1926      0.0379      2.307       2776.8921   1207.5779   2620.6423   1099.0843   2.3152      
1745.2848   0.9225      0.5726      1.0         0.195       0.0375      2.302       2741.8009   1182.9176   2599.2893   1081.4368   2.3109      
1745.4372   0.9697      0.6019      1.0         0.2007      0.035       2.291       2679.3221   1132.4718   2547.3378   1037.3187   2.3004      
1745.5896   0.997       0.6388      1.0         0.2051      0.0293      2.281       2629.2437   1093.3138   2498.4118   992.0712    2.2915      
1745.742    0.997       0.6545      1.0         0.2074      0.0273      2.276       2615.1206   1084.1544   2476.938    972.8457    2.287       
1745.8944   0.997       0.6569      1.0         0.2066      0.0259      2.277       2639.3214   1098.0927   2478.5274   972.5941    2.2881      
1746.0468   0.997       0.6692      1.0         0.2006      0.0165      2.284       2684.7233   1130.7279   2494.8147   975.6146    2.2963      
1746.1992   0.997       0.6751      1.0         0.1957      0.01        2.29        2723.5928   1154.0245   2511.3874   981.5835    2.3032      
1746.3516   0.997       0.6639      1.0         0.1961      0.0134      2.291       2721.2739   1150.464    2517.967    990.4572    2.3033      
1746.504    0.997       0.6678      1.0         0.1996      0.0159      2.286       2660.8809   1110.5826   2500.0799   979.0879    2.2979      
1746.6564   0.997       0.6844      1.0         0.2059      0.0176      2.276       2572.6922   1048.7696   2461.9159   950.9144    2.2874      
1746.8088   0.997       0.6811      1.0         0.2123      0.0249      2.268       2510.5821   1006.8441   2438.0733   939.4032    2.278       
1746.9612   0.997       0.6642      1.0         0.2138      0.0311      2.268       2501.7657   1000.3754   2443.6074   949.992     2.2768      
1747.1136   0.997       0.6644      1.0         0.2106      0.0278      2.272       2537.615    1021.5265   2456.5484   957.0689    2.2816      
1747.266    0.997       0.6829      1.0         0.2066      0.0188      2.275       2586.9935   1055.6954   2460.0719   950.599     2.2864      
1747.4184   0.997       0.7185      1.0         0.2049      0.0074      2.273       2611.3991   1070.1139   2443.2951   925.7882    2.2867      
1747.5708   0.997       0.7449      1.0         0.2068      0.002       2.269       2594.5538   1062.1434   2419.2707   901.7938    2.2822      
1747.7232   0.997       0.7334      1.0         0.2119      0.0102      2.262       2556.0413   1035.552    2406.2034   899.6332    2.2753      
1747.8756   0.997       0.7041      1.0         0.2197      0.026       2.255       2518.9515   1007.768    2393.8512   905.0571    2.2655      
1748.028    0.997       0.7055      1.0         0.2225      0.0285      2.251       2488.61     985.0532    2382.1781   897.95      2.2612      
1748.1804   0.997       0.749       1.0         0.2196      0.0137      2.25        2465.2578   968.3569    2367.5282   872.3325    2.2629      
1748.3328   0.997       0.795       1.0         0.2205      0.002       2.249       2449.7857   957.6062    2339.3521   839.4203    2.2586      
1748.4852   0.997       0.7882      1.0         0.2187      0.002       2.251       2442.0532   952.1441    2349.4894   847.4231    2.2618      
1748.6376   0.997       0.7442      1.0         0.2154      0.0108      2.256       2442.8958   952.1148    2386.2486   884.4389    2.2694      
1748.79     0.997       0.7279      1.0         0.213       0.0129      2.261       2452.9821   958.2752    2405.2489   901.4065    2.274       
1748.9424   0.997       0.7315      1.0         0.2111      0.0101      2.263       2467.3163   968.7205    2410.487    902.7284    2.2766      
1749.0948   0.997       0.7111      1.0         0.2143      0.0188      2.261       2482.2684   980.498     2410.5504   911.3378    2.2731      
1749.2472   0.997       0.6967      1.0         0.2154      0.024       2.261       2502.3374   995.5062    2415.3808   920.1136    2.2724      
1749.3996   0.997       0.7218      1.0         0.2126      0.0143      2.262       2526.9864   1012.499    2410.5581   906.8319    2.275       
1749.552    0.997       0.7541      1.0         0.2092      0.002       2.264       2541.6521   1022.5688   2404.398    890.1239    2.278       
1749.7044   0.997       0.7724      1.0         0.2143      0.002       2.264       2538.0966   1023.7643   2374.4275   866.8574    2.2693      
1749.8568   0.997       0.774       1.0         0.2147      0.002       2.266       2533.4973   1024.7411   2372.0327   864.9521    2.2686      
1750.0092   0.997       0.7512      1.0         0.2084      0.002       2.275       2552.7904   1038.6781   2409.2165   893.8629    2.2794      
1750.1616   0.997       0.7514      1.0         0.2084      0.002       2.288       2594.955    1069.1658   2409.1046   893.7228    2.2794      
1750.314    0.997       0.7147      1.0         0.1983      0.002       2.298       2626.8373   1085.5737   2472.7771   942.9625    2.2968      
1750.4664   0.997       0.6805      1.0         0.1903      0.0034      2.297       2615.6772   1075.614    2530.743    989.0429    2.311       
1750.6188   0.997       0.6609      1.0         0.2001      0.0185      2.286       2559.8371   1036.2818   2503.0476   983.9687    2.2976      
1750.7712   0.997       0.6518      1.0         0.2109      0.0318      2.273       2494.8995   992.0893    2464.3357   967.1481    2.282       
1750.9236   0.997       0.6493      1.0         0.2152      0.0368      2.268       2467.6171   977.4699    2448.4438   959.42      2.2757      
1751.076    0.997       0.6555      1.0         0.2102      0.0301      2.274       2497.382    993.2885    2464.5593   965.5652    2.2828      
1751.2284   0.997       0.6757      1.0         0.1969      0.0114      2.289       2561.4236   1038.3224   2505.8131   978.3645    2.3014      
