#----------------------------------------------------------------------------
~VERSION INFORMATION
VERS.            2.0                  :CWLS LOG ASCII STANDARD -VERSION 2.0
WRAP.            NO                   :ONE LINE PER DEPTH STEP
#
#--------------------------------------------------------------------
~WELL INFORMATION
#MNEM .UNIT      DATA                 :DESCRIPTION OF MNEMONIC
#----------      ------------         -------------------------------
STRT  .m         0.0                  :START DEPTH
STEP  .m         0.1524               :STEP DEPTH
STOP  .m         4000.0               :STOP DEPTH
NULL  .          -999.25              :NULL VALUE
COMP  .                               :COMPANY
WELL  .          Well4                :WELL
LOC   .                               :LOCATION - AREA
FLD   .                               :FIELD
CTRY  .                               :COUNTRY
DATE  .                               :WELL DATE

XWELL .m          0                    :X POS
YWELL .m          0                    :Y POS
EDF   .          0.0                  :DERRICK FLOOR ELEVATION
#
#----------------------------------------------------------------------------
~CURVE INFORMATION
#MNEM.UNIT                                  : CURVE DESCRIPTION
#----------                                 -------------------------------
DEPT        .m                              : 1      DEPTH
RHOB        .g/cm3                          : 2      Rho
Vs          .m/s                            : 3      Vs
Vp          .m/s                            : 4      Vp
Vclay       .fract                          : 5      Volume
Vcoal       .fract                          : 6      Volume
Vqz         .fract                          : 7      Volume
Vcal        .fract                          : 8      Volume
PHI_isolated.fract                          : 9      Por
PHI_bound   .fract                          : 10     Por
Vsh         .fract                          : 11     Volume
PHIE        .fract                          : 12     Por
PHIT        .fract                          : 13     Por
Sot         .fract                          : 14     Sat
Sgt         .fract                          : 15     Sat
Swt         .fract                          : 16     Sat
#
#----------------------------------------------------------------------------
~A          RHOB        Vs          Vp          Vclay       Vcoal       Vqz         Vcal        PHI_isolatedPHI_bound   Vsh         PHIE        PHIT        Sot         Sgt         Swt         
# ...
2969.9712   2.3333      1978.5      3643.8      0.3278      0.0         0.3395      0.0589      0.0801      0.1339      0.4617      0.0597      0.2737      0.0069      0.0         0.9927      
2970.1236   2.3194      1930.9      3607.3      0.3256      0.0         0.3964      0.0         0.08        0.133       0.4586      0.0652      0.2781      3.0E-4      0.0         0.9993      
2970.276    2.3159      1883.1      3571.3      0.3208      0.0         0.3982      0.0         0.0769      0.131       0.4519      0.073       0.281       0.0         0.0         0.9996      
2970.4284   2.3093      1878.4      3545.4      0.3098      0.0         0.4097      0.0         0.0676      0.1265      0.4363      0.0863      0.2804      0.0         0.0028      0.9968      
2970.5808   2.3094      1873.2      3535.8      0.2961      0.0         0.4265      0.0         0.055       0.1209      0.417       0.1016      0.2775      0.0082      0.0         0.9915      
2970.7332   2.3144      1858.9      3530.7      0.2962      0.0         0.4277      0.0         0.0568      0.121       0.4173      0.0982      0.276       0.0195      0.0         0.9801      
2970.8856   2.3499      1852.3      3529.0      0.3347      0.0         0.3922      0.0         0.0848      0.1367      0.4714      0.0517      0.2732      0.0122      0.0         0.9874      
2971.038    2.3821      1837.7      3544.4      0.3864      0.0         0.345       0.0         0.107       0.1579      0.5443      0.0043      0.2691      0.0021      0.0         0.9975      
2971.1904   2.459       1854.5      3574.5      0.4846      0.0         0.2475      0.0         0.0701      0.1979      0.6825      0.0         0.268       0.0         0.0         0.9996      
2971.3428   2.4929      1861.3      3597.8      0.5569      0.0         0.182       0.0         0.0336      0.2275      0.7844      0.0         0.2611      0.0         0.0         0.9996      
2971.4952   2.5332      1851.2      3605.9      0.6301      0.0         0.1085      0.0         0.004       0.2574      0.8875      0.0         0.2614      0.0         0.0         0.9996      
2971.6476   2.5414      1827.3      3630.9      0.64        0.0         0.0986      0.0         0.0         0.2614      0.9014      0.0         0.2614      0.0         0.0         0.9996      
2971.8      2.547       1808.7      3673.7      0.6386      0.0         0.1005      0.0         0.0         0.2608      0.8994      0.0         0.2608      0.0         0.0         0.9996      
2971.9524   2.5474      1810.4      3676.0      0.6371      0.0         0.1028      0.0         0.0         0.2602      0.8972      0.0         0.2602      0.0         0.0         0.9996      
2972.1048   2.5452      1819.5      3635.5      0.6352      0.0         0.1054      0.0         0.0         0.2594      0.8946      0.0         0.2594      0.0         0.0         0.9996      
2972.2572   2.5435      1818.1      3604.9      0.6404      0.0         0.098       0.0         0.0         0.2616      0.902       0.0         0.2616      0.0         0.0         0.9996      
2972.4096   2.5422      1809.9      3603.2      0.6393      0.0         0.0997      0.0         0.0         0.2611      0.9003      0.0         0.2611      0.0         0.0         0.9996      
2972.562    2.5432      1801.7      3609.8      0.637       0.0         0.1028      0.0         0.0         0.2602      0.8972      0.0         0.2602      0.0         0.0         0.9996      
2972.7144   2.547       1797.4      3614.4      0.6296      0.0         0.1132      0.0         0.0         0.2572      0.8868      0.0         0.2572      0.0         0.0         0.9996      
2972.8668   2.5489      1800.2      3610.1      0.6274      0.0         0.1163      0.0         0.0         0.2563      0.8837      0.0         0.2563      0.0         0.0         0.9996      
2973.0192   2.5519      1813.1      3600.0      0.6324      0.0         0.1093      0.0         0.0         0.2583      0.8907      0.0         0.2583      0.0         0.0         0.9996      
2973.1716   2.553       1814.7      3598.3      0.6331      0.0         0.1082      0.0         0.0         0.2586      0.8918      0.0         0.2586      0.0         0.0         0.9996      
2973.324    2.5527      1819.6      3605.1      0.6459      0.0         0.0903      0.0         0.0         0.2638      0.9097      0.0         0.2638      0.0         0.0         0.9996      
2973.4764   2.5529      1809.0      3614.1      0.6565      0.0         0.0752      0.0         0.0         0.2681      0.9247      0.0         0.2681      0.0         0.0         0.9996      
2973.6288   2.5535      1818.8      3617.7      0.6599      0.0         0.0705      0.0         0.0         0.2695      0.9295      0.0         0.2695      0.0         0.0         0.9996      
2973.7812   2.5561      1824.5      3620.3      0.6613      0.0         0.0685      0.0         0.0         0.2701      0.9314      0.0         0.2701      0.0         0.0         0.9996      
2973.9336   2.5576      1835.1      3625.6      0.6583      0.0         0.0729      0.0         0.0         0.2689      0.9271      0.0         0.2689      0.0         0.0         0.9996      
2974.086    2.5604      1846.0      3633.6      0.6461      0.0         0.0901      0.0         0.0         0.2639      0.91        0.0         0.2639      0.0         0.0         0.9996      
2974.2384   2.5616      1846.8      3641.8      0.6387      0.0         0.1004      0.0         0.0         0.2608      0.8996      0.0         0.2608      0.0         0.0         0.9996      
2974.3908   2.5611      1850.4      3649.7      0.6327      0.0         0.109       0.0         0.0         0.2585      0.8911      0.0         0.2585      0.0         0.0         0.9996      
2974.5432   2.56        1852.5      3656.9      0.6286      0.0         0.1148      0.0         0.0         0.2567      0.8853      0.0         0.2567      0.0         0.0         0.9996      
2974.6956   2.5582      1854.5      3662.3      0.6197      0.0         0.1271      0.0         0.0         0.2531      0.8729      0.0         0.2531      0.0         0.0         0.9996      
2974.848    2.5582      1860.9      3661.0      0.6134      0.0         0.1357      0.0         4.0E-4      0.2505      0.8639      0.0         0.2509      0.0         0.0         0.9996      
2975.0004   2.5597      1860.6      3658.5      0.6007      0.0         0.1507      0.0         0.0031      0.2454      0.846       0.0         0.2485      0.0         0.0         0.9996      
2975.1528   2.5602      1848.1      3654.9      0.5976      0.0         0.1545      0.0         0.0038      0.2441      0.8417      0.0         0.2479      0.0         0.0         0.9996      
2975.3052   2.5591      1849.9      3653.5      0.6057      0.0         0.1455      0.0         0.0014      0.2474      0.8531      0.0         0.2487      0.0         0.0         0.9996      
2975.4576   2.5576      1864.1      3657.1      0.6147      0.0         0.1344      0.0         0.0         0.2511      0.8658      0.0         0.2511      0.0         0.0         0.9996      
2975.61     2.5541      1863.2      3666.2      0.6211      0.0         0.1253      0.0         0.0         0.2536      0.8747      0.0         0.2536      0.0         0.0         0.9996      
2975.7624   2.5524      1872.9      3677.8      0.6229      0.0         0.1227      0.0         0.0         0.2544      0.8773      0.0         0.2544      0.0         0.0         0.9996      
2975.9148   2.5501      1868.3      3687.2      0.6207      0.0         0.1258      0.0         0.0         0.2535      0.8742      0.0         0.2535      0.0         0.0         0.9996      
2976.0672   2.5493      1883.1      3694.3      0.6177      0.0         0.1299      0.0         0.0         0.2523      0.87        0.0         0.2523      0.0         0.0         0.9996      
2976.2196   2.5469      1882.4      3700.6      0.6171      0.0         0.1309      0.0         0.0         0.252       0.8691      0.0         0.252       0.0         0.0         0.9996      
