#----------------------------------------------------------------------------
~VERSION INFORMATION
VERS.            2.0                  :CWLS LOG ASCII STANDARD -VERSION 2.0
WRAP.            NO                   :ONE LINE PER DEPTH STEP
#
#--------------------------------------------------------------------
~WELL INFORMATION
#MNEM .UNIT      DATA                 :DESCRIPTION OF MNEMONIC
#----------      ------------         -------------------------------
STRT  .m         0.0                  :START DEPTH
STEP  .m         0.1524               :STEP DEPTH
STOP  .m         4000.0               :STOP DEPTH
NULL  .          -999.25              :NULL VALUE
COMP  .                               :COMPANY
WELL  .          Well4                :WELL
LOC   .                               :LOCATION - AREA
FLD   .                               :FIELD
CTRY  .                               :COUNTRY
DATE  .                               :WELL DATE

XWELL .m          0                    :X POS
YWELL .m          0                    :Y POS
EDF   .          0.0                  :DERRICK FLOOR ELEVATION
#
#----------------------------------------------------------------------------
~CURVE INFORMATION
#MNEM.UNIT                                  : CURVE DESCRIPTION
#----------                                 -------------------------------
DEPT        .m                              : 1      DEPTH
RHOB        .g/cm3                          : 2      Rho
Vs          .m/s                            : 3      Vs
Vp          .m/s                            : 4      Vp
Vclay       .fract                          : 5      Volume
Vcoal       .fract                          : 6      Volume
Vqz         .fract                          : 7      Volume
Vcal        .fract                          : 8      Volume
PHI_isolated.fract                          : 9      Por
PHI_bound   .fract                          : 10     Por
Vsh         .fract                          : 11     Volume
PHIE        .fract                          : 12     Por
PHIT        .fract                          : 13     Por
Sot         .fract                          : 14     Sat
Sgt         .fract                          : 15     Sat
Swt         .fract                          : 16     Sat
#
#----------------------------------------------------------------------------
~A          RHOB        Vs          Vp          Vclay       Vcoal       Vqz         Vcal        PHI_isolatedPHI_bound   Vsh         PHIE        PHIT        Sot         Sgt         Swt         
# ...
2688.336    2.3018      2004.6      3618.7      0.1466      0.0         0.637       0.0         0.0         0.0488      0.1954      0.1675      0.2164      0.1757      0.0         0.8239      
2688.4884   2.3109      1980.8      3573.1      0.1495      0.0         0.6354      0.0         0.0         0.0498      0.1994      0.1652      0.2151      0.1655      0.0         0.834       
2688.6408   2.3256      1960.0      3533.1      0.1622      0.0         0.626       0.0         0.0         0.0541      0.2162      0.1577      0.2118      0.1359      0.0         0.8636      
2688.7932   2.3276      1936.6      3497.1      0.1672      0.0         0.6197      0.0         0.0         0.0557      0.2229      0.1573      0.213       0.1197      0.0         0.8799      
2688.9456   2.3224      1914.9      3470.2      0.1662      0.0         0.6169      0.0         0.0         0.0554      0.2216      0.1615      0.2169      0.1194      0.0         0.8801      
2689.098    2.3132      1916.3      3455.2      0.1671      0.0         0.61        0.0         0.0         0.0557      0.2228      0.1671      0.2228      0.1227      0.0         0.8769      
2689.2504   2.3029      1915.3      3446.4      0.1697      0.0         0.6011      0.0         0.0         0.0566      0.2263      0.1727      0.2293      0.1333      0.0         0.8662      
2689.4028   2.298       1910.1      3438.0      0.1691      0.0         0.5975      0.0         0.0         0.0564      0.2255      0.1771      0.2335      0.1476      0.0         0.852       
2689.5552   2.2976      1896.6      3429.5      0.1673      0.0         0.5966      0.0         0.0         0.0558      0.223       0.1804      0.2362      0.1556      0.0         0.844       
2689.7076   2.2993      1886.8      3418.8      0.1656      0.0         0.5947      0.0         0.0         0.0552      0.2208      0.1844      0.2396      0.1659      0.0         0.8337      
2689.86     2.2983      1879.9      3403.9      0.1618      0.001       0.5945      0.0         1.0E-4      0.0539      0.2156      0.1896      0.2435      0.1705      0.001       0.8281      
2690.0124   2.2932      1868.6      3384.7      0.051       0.5993      0.001       0.0         0.0472      1.0E-4      0.051       0.8442      0.8915      1.0E-4      0.1671      0.8327      
2690.1648   2.2907      1859.2      3362.8      0.1484      0.0         0.602       0.0         0.0         0.0495      0.1979      0.2003      0.2498      0.1981      0.0         0.8015      
2690.3172   2.2879      1853.3      3342.7      0.1531      0.0         0.5954      0.0         0.0         0.051       0.2042      0.2005      0.2515      0.1947      0.0         0.8049      
2690.4696   2.2876      1848.1      3331.5      0.1585      0.0         0.5895      0.0         0.0         0.0529      0.2113      0.1991      0.2519      0.1891      0.0         0.8105      
2690.622    2.287       1836.4      3335.5      0.167       0.0         0.5807      0.0         0.0         0.0557      0.2227      0.1967      0.2524      0.1834      0.0         0.8162      
2690.7744   2.2866      1843.9      3348.5      0.1649      0.0         0.5827      0.0         0.0         0.055       0.2199      0.1976      0.2525      0.1919      0.0         0.8077      
2690.9268   2.2876      1843.0      3358.4      0.1456      0.0         0.6032      0.0         0.0         0.0485      0.194       0.2028      0.2513      0.2148      0.0         0.7848      
2691.0792   2.2916      1843.4      3352.7      0.134       0.0         0.6176      0.0         0.0         0.0447      0.1787      0.2037      0.2484      0.2286      0.0         0.771       
2691.2316   2.2937      1848.2      3344.9      0.1361      0.0         0.6159      0.0         0.0         0.0453      0.1814      0.2027      0.248       0.2293      0.0         0.7703      
2691.384    2.2926      1853.0      3338.3      0.1484      0.0         0.6026      0.0         0.0         0.0495      0.1978      0.1994      0.2489      0.2138      0.0         0.7858      
2691.5364   2.2907      1860.1      3347.0      0.1532      0.0         0.5972      0.0         0.0         0.0511      0.2043      0.1985      0.2496      0.2037      0.0         0.7959      
2691.6888   2.2879      1853.6      3357.2      0.1478      0.0         0.6018      0.0         0.0         0.0493      0.197       0.2011      0.2503      0.2         0.0         0.7996      
2691.8412   2.2883      1856.4      3369.2      0.1402      0.0         0.6102      0.0         0.0         0.0467      0.1869      0.2029      0.2497      0.1994      0.0         0.8002      
2691.9936   2.292       1863.2      3375.4      0.1262      0.0         0.6257      0.0         0.0         0.0421      0.1683      0.2059      0.248       0.2088      0.0         0.7908      
2692.146    2.2942      1860.5      3388.6      0.1237      0.0         0.6295      0.0         0.0         0.0412      0.1649      0.2056      0.2468      0.2098      0.0         0.7898      
2692.2984   2.2977      1844.5      3404.0      0.1297      0.0         0.6253      0.0         0.0         0.0433      0.1729      0.2019      0.2452      0.2016      0.0         0.798       
2692.4508   2.2992      1847.0      3411.8      0.137       0.0         0.6196      0.0         0.0         0.0457      0.1827      0.1978      0.2434      0.1893      0.0         0.8103      
2692.6032   2.3037      1844.6      3407.2      0.1471      0.0         0.6135      0.0         0.0         0.049       0.1961      0.1903      0.2393      0.1691      0.0         0.8305      
2692.7556   2.3067      1836.4      3391.4      0.147       0.0         0.6156      0.0         0.0         0.049       0.196       0.1884      0.2374      0.1687      0.0         0.8308      
2692.908    2.3128      1850.6      3390.8      0.1446      0.0         0.6221      0.0         0.0         0.0482      0.1928      0.1849      0.2331      0.1659      0.0         0.8336      
2693.0604   2.3153      1871.0      3404.8      0.1469      0.0         0.6216      0.0         0.0         0.0489      0.1958      0.1825      0.2314      0.174       0.0         0.8255      
2693.2128   2.3214      1853.7      3435.1      0.1609      0.0         0.6114      0.0         0.0         0.0536      0.2145      0.1741      0.2277      0.1585      0.0         0.841       
2693.3652   2.3265      1875.2      3464.5      0.1715      0.0         0.6036      0.0         0.0         0.0572      0.2286      0.1677      0.2249      0.1707      0.0         0.8288      
2693.5176   2.3394      1895.0      3486.0      0.1825      0.0         0.5974      0.0         0.0         0.0608      0.2433      0.1593      0.2201      0.1762      0.0         0.8234      
2693.67     2.3445      1898.5      3476.1      0.1846      0.0         0.5963      0.0         0.0         0.0615      0.2461      0.1576      0.2191      0.1681      0.0         0.8314      
2693.8224   2.3406      1907.1      3439.4      0.181       0.0         0.5963      0.0         0.0         0.0604      0.2414      0.1622      0.2226      0.1554      0.0         0.8441      
2693.9748   2.3329      1912.2      3404.2      0.1752      0.0         0.5982      0.0         0.0         0.0584      0.2336      0.1683      0.2267      0.1681      0.0         0.8314      
2694.1272   2.3139      1914.7      3367.3      0.1533      0.0         0.6122      0.0         0.0         0.0511      0.2044      0.1832      0.2343      0.2179      0.0         0.7816      
2694.2796   2.3045      1903.3      3337.1      0.1238      0.0         0.6381      0.0         0.0         0.0413      0.1651      0.1967      0.238       0.263       0.0         0.7366      
2694.432    2.3049      1927.5      3321.0      0.1158      0.0         0.6454      0.0         0.0         0.0386      0.1544      0.2002      0.2388      0.2771      0.0         0.7225      
2694.5844   2.3098      1908.3      3330.1      0.1296      0.0         0.6345      0.0         0.0         0.0432      0.1728      0.1928      0.236       0.2573      0.0         0.7423      
