#----------------------------------------------------------------------------
~VERSION INFORMATION
VERS.            2.0                  :CWLS LOG ASCII STANDARD -VERSION 2.0
WRAP.            NO                   :ONE LINE PER DEPTH STEP
#
#--------------------------------------------------------------------
~WELL INFORMATION
#MNEM .UNIT      DATA                 :DESCRIPTION OF MNEMONIC
#----------      ------------         -------------------------------
STRT  .m         0.0                  :START DEPTH
STEP  .m         0.1524               :STEP DEPTH
STOP  .m         2279.904             :STOP DEPTH
NULL  .          -999.25              :NULL VALUE
COMP  .                               :COMPANY
WELL  .                               :WELL
LOC   .          311975.906,      3195343.67  :LOCATION - AREA
FLD   .                               :FIELD
CTRY  .                               :COUNTRY
DATE  .                               :WELL DATE

XWELL .m          311975               :X POS
YWELL .m          3195343              :Y POS
EDF   .          25.9                 :DERRICK FLOOR ELEVATION
#
#----------------------------------------------------------------------------
~CURVE INFORMATION
#MNEM.UNIT                                  : CURVE DESCRIPTION
#----------                                 -------------------------------
DEPT        .m                              : 1      DEPTH
VSH         .fract                          : 2      Volume
VCL         .fract                          : 3      Volume
SW          .fract                          : 4      Sat
PHIT        .fract                          : 5      Por
PHIE        .fract                          : 6      Por
RHOB        .g/cm3                          : 7      Rho
VP          .m/s                            : 8      Vp
VS          .m/s                            : 9      Vs
Vp_xw       .m/s                            : 10     Vp
Vs_xw       .m/s                            : 11     Vs
Rho_xw      .g/cm3                          : 12     Rho
#
#----------------------------------------------------------------------------
~A          VSH         VCL         SW          PHIT        PHIE        RHOB_raw    VP          VS          Vp_xw       Vs_xw       Rho_xw      
# ...
1870.8624   0.4935      0.3207      0.2679      0.3497      0.2654      2.103       2131.8157   971.7314    1948.6449   934.6952    2.035       
1871.0148   0.5394      0.3506      0.2562      0.336       0.2438      2.12        2158.8243   984.3906    1969.3444   942.4724    2.0556      
1871.1672   0.5829      0.3789      0.2492      0.324       0.2244      2.135       2170.4299   986.7674    1986.6258   946.7782    2.0738      
1871.3196   0.5911      0.3842      0.2447      0.3262      0.2252      2.131       2158.8084   978.3235    1971.0722   934.7889    2.0695      
1871.472    0.5872      0.3817      0.2408      0.3431      0.2427      2.106       2130.9289   956.8461    1905.6696   889.1947    2.0408      
1871.6244   0.5776      0.3755      0.2436      0.361       0.2623      2.08        2101.4047   934.9737    1844.4781   844.9838    2.0112      
1871.7768   0.5451      0.3543      0.2572      0.3727      0.2796      2.065       2083.5189   924.7874    1823.6262   832.2126    1.9936      
1871.9292   0.5173      0.3362      0.2829      0.3765      0.2882      2.062       2083.3049   923.6524    1831.8517   838.5474    1.9903      
1872.0816   0.5263      0.3421      0.3182      0.3737      0.2837      2.067       2104.6378   928.0306    1844.6982   840.1527    1.9976      
1872.234    0.5601      0.364       0.3639      0.3611      0.2655      2.085       2151.424    942.4475    1881.9586   853.7651    2.0212      
1872.3864   0.6067      0.3944      0.429       0.3352      0.2316      2.122       2221.3872   968.0921    1967.95     895.6953    2.0674      
1872.5388   0.6746      0.4385      0.5173      0.3001      0.1849      2.171       2301.0234   995.8269    2088.4833   947.6385    2.1284      
1872.6912   0.7413      0.4819      0.6131      0.2692      0.1426      2.213       2364.3014   1013.3694   2202.9383   986.2063    2.1816      
1872.8436   0.7591      0.4934      0.6593      0.2564      0.1268      2.231       2380.1714   1016.6073   2261.2781   1008.1359   2.204       
1872.996    0.7067      0.4594      0.6178      0.2654      0.1447      2.221       2336.2534   1008.3759   2243.1774   1020.4023   2.1893      
1873.1484   0.6119      0.3977      0.5166      0.2954      0.1909      2.182       2252.8094   987.4724    2149.9669   1005.1523   2.1383      
1873.3008   0.5307      0.345       0.4159      0.3322      0.2416      2.131       2163.1939   959.2778    2026.9615   957.5026    2.074       
1873.4532   0.4939      0.321       0.3329      0.3599      0.2755      2.09        2092.3949   933.6857    1921.2736   902.2845    2.0229      
1873.6056   0.4864      0.3162      0.2645      0.3728      0.2897      2.069       2049.8639   921.6904    1861.0411   870.0957    1.996       
1873.758    0.4826      0.3137      0.2053      0.3761      0.2937      2.062       2030.6191   922.1912    1838.7304   863.9895    1.9856      
1873.9104   0.4713      0.3064      0.1531      0.3767      0.2962      2.06        2023.5289   930.8094    1833.793    870.8761    1.9807      
1874.0628   0.4548      0.2956      0.1145      0.377       0.2994      2.059       2018.1824   939.2176    1837.0101   882.3866    1.9775      
1874.2152   0.4455      0.2896      0.0939      0.3782      0.3021      2.057       2009.2967   940.9813    1835.18     885.7422    1.974       
1874.3676   0.4395      0.2857      0.0889      0.3795      0.3045      2.055       1996.9855   937.7776    1833.4478   886.1958    1.9715      
1874.52     0.4311      0.2802      0.0902      0.3818      0.3082      2.052       1983.9854   931.8328    1830.6164   885.2502    1.9679      
1874.6724   0.4266      0.2773      0.0914      0.384       0.3112      2.049       1975.6422   927.9832    1825.2985   881.6874    1.9644      
1874.8248   0.4351      0.2828      0.0905      0.3843      0.3101      2.048       1979.839    928.2902    1817.9231   874.6536    1.9635      
1874.9772   0.4496      0.2923      0.0881      0.3837      0.307       2.048       1998.8209   933.9364    1809.6663   866.1488    1.9639      
1875.1296   0.4628      0.3008      0.0866      0.3832      0.3042      2.048       2025.1315   943.8316    1802.4537   858.5958    1.9642      
1875.282    0.4716      0.3066      0.0881      0.3822      0.3017      2.049       2050.839    954.1612    1800.6023   855.4487    1.9658      
1875.4344   0.4829      0.3139      0.0919      0.3792      0.2968      2.053       2071.8642   961.8087    1805.3224   856.6541    1.9709      
1875.5868   0.4972      0.3232      0.095       0.3774      0.2925      2.055       2084.4584   964.9191    1803.4105   852.3097    1.9738      
1875.7392   0.4988      0.3242      0.0984      0.3767      0.2916      2.056       2086.3993   965.8173    1805.6826   853.2724    1.9752      
1875.8916   0.4789      0.3113      0.1063      0.3771      0.2954      2.057       2080.3767   965.7556    1818.5968   865.3326    1.9758      
1876.044    0.4596      0.2987      0.1206      0.3795      0.3011      2.055       2072.5818   963.05      1825.0012   871.3241    1.9735      
1876.1964   0.4631      0.301       0.1433      0.3813      0.3023      2.053       2072.6799   957.6352    1819.7992   863.0307    1.9722      
1876.3488   0.4909      0.3191      0.1754      0.3789      0.2952      2.056       2091.516    956.6116    1816.8343   850.6727    1.9781      
1876.5012   0.5298      0.3444      0.2137      0.3689      0.2785      2.07        2134.0747   965.463     1837.6113   853.4469    1.997       
1876.6536   0.57        0.3705      0.2519      0.3493      0.2521      2.098       2190.7623   986.5323    1894.9463   882.6929    2.0318      
1876.806    0.5975      0.3884      0.293       0.3227      0.2208      2.137       2236.3445   1009.8448   1991.1785   939.6257    2.0786      
1876.9584   0.5897      0.3833      0.3414      0.2995      0.1989      2.173       2245.219    1020.3708   2105.6      1012.4387   2.1209      
1877.1108   0.5398      0.3509      0.3837      0.2949      0.2028      2.184       2218.3042   1015.0317   2175.7309   1065.6853   2.1331      
1877.2632   0.4889      0.3178      0.4052      0.3105      0.2272      2.165       2179.8231   993.0561    2152.4279   1059.0956   2.1106      
1877.4156   0.4686      0.3046      0.4236      0.3289      0.249       2.14        2150.8399   967.9499    2090.9336   1016.7139   2.0821      
1877.568    0.4689      0.3048      0.4622      0.3304      0.2505      2.139       2143.8218   955.2478    2093.3879   1010.9535   2.0825      
1877.7204   0.4861      0.3159      0.5233      0.3137      0.2308      2.164       2164.0667   955.4451    2169.1114   1049.2543   2.1135      
1877.8728   0.5354      0.348       0.5937      0.2905      0.1993      2.196       2207.9843   964.4662    2252.6111   1079.9359   2.154       
1878.0252   0.5991      0.3894      0.6576      0.2736      0.1715      2.217       2266.6893   979.6155    2297.4801   1078.0879   2.1827      
1878.1776   0.6399      0.4159      0.7257      0.2604      0.1513      2.234       2332.2247   1000.1251   2348.6008   1083.7682   2.2061      
1878.33     0.658       0.4277      0.7977      0.2489      0.1367      2.25        2399.6803   1026.8859   2413.5646   1102.2161   2.2274      
1878.4824   0.6538      0.425       0.8503      0.2415      0.1301      2.261       2466.4304   1061.9415   2471.5984   1126.856    2.2419      
1878.6348   0.6352      0.4129      0.8541      0.2422      0.1339      2.261       2525.127    1101.8547   2484.4642   1140.3829   2.2418      
1878.7872   0.6401      0.4161      0.8328      0.2464      0.1373      2.254       2564.8188   1128.8313   2452.3501   1123.8388   2.2339      
1878.9396   0.6966      0.4528      0.819       0.248       0.1293      2.247       2585.5489   1134.7982   2397.609    1074.2459   2.2285      
1879.092    0.7611      0.4947      0.8217      0.2452      0.1155      2.246       2598.0679   1132.0978   2367.9376   1034.9013   2.2305      
1879.2444   0.7947      0.5165      0.8255      0.242       0.1066      2.246       2604.1932   1126.9711   2362.5205   1020.3874   2.2343      
