#----------------------------------------------------------------------------
~VERSION INFORMATION
VERS.            2.0                  :CWLS LOG ASCII STANDARD -VERSION 2.0
WRAP.            NO                   :ONE LINE PER DEPTH STEP
#
#--------------------------------------------------------------------
~WELL INFORMATION
#MNEM .UNIT      DATA                 :DESCRIPTION OF MNEMONIC
#----------      ------------         -------------------------------
STRT  .m         0.0                  :START DEPTH
STEP  .m         0.1524               :STEP DEPTH
STOP  .m         2279.904             :STOP DEPTH
NULL  .          -999.25              :NULL VALUE
COMP  .                               :COMPANY
WELL  .                               :WELL
LOC   .          311975.906,      3195343.67  :LOCATION - AREA
FLD   .                               :FIELD
CTRY  .                               :COUNTRY
DATE  .                               :WELL DATE

XWELL .m          311975               :X POS
YWELL .m          3195343              :Y POS
EDF   .          25.9                 :DERRICK FLOOR ELEVATION
#
#----------------------------------------------------------------------------
~CURVE INFORMATION
#MNEM.UNIT                                  : CURVE DESCRIPTION
#----------                                 -------------------------------
DEPT        .m                              : 1      DEPTH
VSH         .fract                          : 2      Volume
VCL         .fract                          : 3      Volume
SW          .fract                          : 4      Sat
PHIT        .fract                          : 5      Por
PHIE        .fract                          : 6      Por
RHOB        .g/cm3                          : 7      Rho
VP          .m/s                            : 8      Vp
VS          .m/s                            : 9      Vs
Vp_xw       .m/s                            : 10     Vp
Vs_xw       .m/s                            : 11     Vs
Rho_xw      .g/cm3                          : 12     Rho
#
#----------------------------------------------------------------------------
~A          VSH         VCL         SW          PHIT        PHIE        RHOB_raw    VP          VS          Vp_xw       Vs_xw       Rho_xw      
# ...
1495.3488   0.8693      0.5453      0.6609      0.3861      0.2217      2.016       2013.0793   712.0107    1780.7819   650.2087    1.996       
1495.5012   0.9107      0.5713      0.6249      0.3989      0.2267      1.992       2028.2712   713.1856    1723.6695   609.1086    1.9713      
1495.6536   0.969       0.6078      0.6025      0.4068      0.2235      1.972       2046.8617   711.0266    1683.5546   575.3699    1.955       
1495.806    0.997       0.6441      0.5974      0.4066      0.2125      1.966       2059.6963   708.848     1670.8201   559.4904    1.9532      
1495.9584   0.997       0.6672      0.6267      0.3934      0.1923      1.985       2060.4335   707.2284    1705.1994   574.257     1.9755      
1496.1108   0.997       0.6589      0.6909      0.3713      0.1728      2.021       2053.6032   705.1492    1786.9711   620.2481    2.0161      
1496.2632   0.997       0.6288      0.7475      0.3546      0.1651      2.05        2047.9741   703.9016    1866.1018   669.1022    2.0482      
1496.4156   0.9818      0.6158      0.7795      0.3458      0.1601      2.065       2047.8367   702.9057    1910.2359   694.6637    2.065       
1496.568    0.997       0.6522      0.823       0.3359      0.1393      2.074       2055.6109   698.9162    1942.7479   693.9484    2.0816      
1496.7204   0.997       0.7187      0.9126      0.3207      0.1041      2.086       2070.7791   691.0764    2004.5911   687.1729    2.1077      
1496.8728   0.997       0.774       1.0         0.303       0.0698      2.102       2084.5721   686.0479    2084.2939   691.6524    2.1372      
1497.0252   0.997       0.7782      1.0         0.2913      0.0568      2.117       2088.7581   685.4019    2116.0831   711.7746    2.1544      
1497.1776   0.997       0.7436      1.0         0.2879      0.0639      2.127       2084.6734   683.7541    2139.9298   737.4208    2.1614      
1497.33     0.997       0.7291      1.0         0.2852      0.0655      2.133       2079.3262   680.3942    2154.3174   751.2326    2.1662      
1497.4824   0.997       0.7538      1.0         0.2794      0.0523      2.137       2078.574    680.1469    2161.467    748.409     2.1735      
1497.6348   0.997       0.7755      1.0         0.2731      0.0395      2.142       2084.1464   683.7619    2171.7001   748.352     2.1816      
1497.7872   0.997       0.7686      1.0         0.2694      0.0379      2.148       2093.8255   691.0022    2186.1834   759.5399    2.1875      
1497.9396   0.997       0.7619      1.0         0.265       0.0355      2.155       2106.1508   700.0271    2203.1097   772.1583    2.1945      
1498.092    0.997       0.7702      1.0         0.2596      0.0276      2.161       2118.2268   708.4228    2216.784    777.8728    2.202       
1498.2444   0.997       0.776       1.0         0.255       0.0212      2.166       2123.7458   711.9762    2229.1593   783.4497    2.2085      
1498.3968   0.997       0.7723      1.0         0.2551      0.0225      2.166       2121.1295   710.6772    2230.53     785.4854    2.2086      
1498.5492   0.997       0.7813      1.0         0.2559      0.0207      2.163       2112.8237   704.649     2223.8063   778.5164    2.2068      
1498.7016   0.997       0.8076      1.0         0.2539      0.0107      2.161       2100.5477   695.6319    2218.6963   767.0377    2.2083      
1498.854    0.997       0.7662      1.0         0.2615      0.0308      2.159       2089.5173   689.3614    2212.4394   776.5143    2.1994      
1499.0064   0.997       0.7379      1.0         0.2666      0.0444      2.157       2091.3668   691.0763    2208.9731   783.5341    2.1935      
1499.1588   0.997       0.7041      1.0         0.2699      0.0579      2.158       2111.6763   704.4095    2214.5281   798.1793    2.1905      
1499.3112   0.997       0.7113      1.0         0.2664      0.0522      2.161       2141.6227   726.0441    2222.4804   800.8092    2.1953      
1499.4636   0.997       0.7581      1.0         0.2539      0.0257      2.169       2170.4651   747.2233    2241.1712   796.5906    2.2112      
1499.616    0.997       0.7735      1.0         0.2464      0.0136      2.177       2188.6016   758.8425    2259.0089   801.9553    2.2214      
1499.7684   0.997       0.771       1.0         0.2424      0.0104      2.183       2187.0152   758.7238    2273.8648   811.4662    2.2276      
1499.9208   0.997       0.7568      1.0         0.2427      0.0149      2.185       2174.1769   751.7631    2279.8863   819.9433    2.228       
1500.0732   0.997       0.7421      1.0         0.2444      0.0211      2.185       2168.9783   747.8549    2281.4774   826.0943    2.2263      
1500.2256   0.997       0.7414      1.0         0.2446      0.0215      2.185       2170.7393   747.2204    2281.1426   826.1469    2.2261      
1500.378    0.997       0.7579      1.0         0.2426      0.0146      2.185       2166.9575   744.744     2279.6787   819.4335    2.228       
1500.5304   0.997       0.7676      1.0         0.2423      0.0113      2.184       2156.7934   737.6751    2275.8812   813.8202    2.2279      
1500.6828   0.997       0.7663      1.0         0.2441      0.0135      2.182       2143.8971   727.7181    2270.3345   811.0484    2.2253      
1500.8352   0.997       0.7523      1.0         0.2474      0.021       2.181       2127.1724   715.4236    2265.9567   813.3452    2.2212      
1500.9876   0.997       0.754       1.0         0.2496      0.0227      2.178       2109.1837   702.7585    2257.6192   807.8143    2.2179      
1501.14     0.997       0.765       1.0         0.2506      0.0205      2.175       2097.5562   694.7443    2248.9149   798.8918    2.2157      
1501.2924   0.997       0.7823      1.0         0.2479      0.0126      2.176       2095.7687   693.5698    2249.7971   793.5862    2.2187      
1501.4448   0.997       0.7868      1.0         0.2429      0.0063      2.182       2102.7954   697.8576    2264.5473   800.6383    2.2259      
1501.5972   0.997       0.7762      1.0         0.2383      0.0048      2.19        2112.2076   703.6985    2285.473    816.3251    2.2333      
1501.7496   0.997       0.7657      1.0         0.2388      0.0085      2.191       2113.8774   700.9232    2288.9693   822.0445    2.2332      
1501.902    0.997       0.7395      1.0         0.2463      0.0238      2.185       2080.6884   682.9524    2276.2193   823.9157    2.2236      
1502.0544   0.997       0.7076      1.0         0.2567      0.0438      2.176       2056.4844   664.3596    2256.9868   823.5793    2.21        
1502.2068   0.997       0.7094      1.0         0.2647      0.0514      2.165       2048.7314   661.2576    2229.0697   805.5997    2.198       
1502.3592   0.997       0.716       1.0         0.27        0.0547      2.158       2071.1613   675.5214    2208.3635   790.3145    2.1897      
1502.5116   0.997       0.6809      1.0         0.2748      0.07        2.158       2118.1164   708.8065    2210.1216   803.0981    2.1846      
1502.664    0.9861      0.6183      1.0         0.2773      0.0914      2.165       2173.0442   752.0675    2235.9627   841.7646    2.1844      
1502.8164   0.8795      0.5514      1.0         0.2832      0.1174      2.168       2217.82     797.2587    2257.2696   880.6901    2.1794      
1502.9688   0.7725      0.4843      1.0         0.2962      0.1506      2.161       2236.4873   823.7078    2258.14     906.7843    2.1636      
1503.1212   0.7259      0.4551      1.0         0.3045      0.1677      2.154       2227.7142   824.9141    2250.2466   912.2185    2.1527      
1503.2736   0.7722      0.4841      1.0         0.2969      0.1513      2.16        2208.3451   808.1249    2255.7436   905.137     2.1626      
1503.426    0.8481      0.5317      1.0         0.2798      0.12        2.176       2194.6675   788.1035    2283.2514   906.0926    2.1857      
1503.5784   0.8725      0.547       1.0         0.2695      0.1051      2.188       2188.9476   781.7666    2310.333    918.3674    2.2003      
1503.7308   0.8307      0.5208      1.0         0.2749      0.1183      2.185       2190.0804   786.6114    2309.4883   928.3625    2.1937      
