#----------------------------------------------------------------------------
~VERSION INFORMATION
VERS.            2.0                  :CWLS LOG ASCII STANDARD -VERSION 2.0
WRAP.            NO                   :ONE LINE PER DEPTH STEP
#
#--------------------------------------------------------------------
~WELL INFORMATION
#MNEM .UNIT      DATA                 :DESCRIPTION OF MNEMONIC
#----------      ------------         -------------------------------
STRT  .m         0.0                  :START DEPTH
STEP  .m         0.1524               :STEP DEPTH
STOP  .m         4000.0               :STOP DEPTH
NULL  .          -999.25              :NULL VALUE
COMP  .                               :COMPANY
WELL  .          Well4                :WELL
LOC   .                               :LOCATION - AREA
FLD   .                               :FIELD
CTRY  .                               :COUNTRY
DATE  .                               :WELL DATE

XWELL .m          0                    :X POS
YWELL .m          0                    :Y POS
EDF   .          0.0                  :DERRICK FLOOR ELEVATION
#
#----------------------------------------------------------------------------
~CURVE INFORMATION
#MNEM.UNIT                                  : CURVE DESCRIPTION
#----------                                 -------------------------------
DEPT        .m                              : 1      DEPTH
RHOB        .g/cm3                          : 2      Rho
Vs          .m/s                            : 3      Vs
Vp          .m/s                            : 4      Vp
Vclay       .fract                          : 5      Volume
Vcoal       .fract                          : 6      Volume
Vqz         .fract                          : 7      Volume
Vcal        .fract                          : 8      Volume
PHI_isolated.fract                          : 9      Por
PHI_bound   .fract                          : 10     Por
Vsh         .fract                          : 11     Volume
PHIE        .fract                          : 12     Por
PHIT        .fract                          : 13     Por
Sot         .fract                          : 14     Sat
Sgt         .fract                          : 15     Sat
Swt         .fract                          : 16     Sat
#
#----------------------------------------------------------------------------
~A          RHOB        Vs          Vp          Vclay       Vcoal       Vqz         Vcal        PHI_isolatedPHI_bound   Vsh         PHIE        PHIT        Sot         Sgt         Swt         
# ...
2131.4664   2.3934      1835.1      3517.5      0.5272      0.0         0.0394      0.1717      0.0568      0.205       0.7322      0.0         0.2618      0.0         0.0         0.9996      
2131.6188   2.3953      1791.7      3493.2      0.5397      0.0         0.0316      0.1649      0.0538      0.2099      0.7496      0.0         0.2637      0.0         0.0         0.9996      
2131.7712   2.3986      1792.8      3478.2      0.5489      0.0         0.0291      0.1585      0.0501      0.2135      0.7624      0.0         0.2636      0.0         0.0         0.9996      
2131.9236   2.4031      1775.1      3476.8      0.5585      0.0         0.0394      0.1381      0.0469      0.2172      0.7756      0.0         0.2641      0.0         0.0         0.9996      
2132.076    2.4029      1779.5      3487.7      0.5645      0.0         0.0488      0.1237      0.0434      0.2196      0.7841      0.0         0.263       0.0         0.0         0.9996      
2132.2284   2.3991      1791.7      3503.9      0.5701      0.0         0.0662      0.1018      0.0402      0.2217      0.7919      0.0         0.262       0.0         0.0         0.9996      
2132.3808   2.3978      1810.7      3515.8      0.5744      0.0         0.0746      0.0911      0.0366      0.2234      0.7977      0.0         0.26        0.0         0.0         0.9996      
2132.5332   2.4021      1799.9      3514.1      0.5917      0.0         0.0594      0.0877      0.0311      0.2301      0.8218      0.0         0.2612      0.0         0.0         0.9996      
2132.6856   2.4142      1797.7      3489.7      0.6054      0.0         0.02        0.1141      0.025       0.2354      0.8408      0.0         0.2604      0.0         0.0         0.9996      
2132.838    2.4209      1797.2      3459.7      0.6076      0.0         3.0E-4      0.1347      0.0216      0.2363      0.8439      0.0         0.2579      0.0         0.0         0.9996      
2132.9904   2.4324      1801.7      3434.7      0.5944      0.0         0.0         0.1527      0.0217      0.2312      0.8256      0.0         0.2529      0.0         0.0         0.9996      
2133.1428   2.4365      1802.9      3431.2      0.5828      0.0         0.0         0.1668      0.0238      0.2266      0.8094      0.0         0.2503      0.0         0.0         0.9996      
2133.2952   2.4388      1795.9      3440.7      0.5694      0.0         0.0         0.1828      0.0263      0.2214      0.7909      0.0         0.2478      0.0         0.0         0.9996      
2133.4476   2.4372      1808.3      3446.5      0.5645      0.0         0.0         0.1888      0.027       0.2196      0.7841      0.0         0.2466      0.0         0.0         0.9996      
2133.6      2.4351      1788.3      3439.5      0.5616      0.0         0.0168      0.1761      0.027       0.2184      0.78        0.0         0.2454      0.0         0.0         0.9996      
2133.7524   2.4351      1786.1      3444.4      0.5574      0.0         0.0194      0.1775      0.0289      0.2168      0.7742      0.0         0.2457      0.0         0.0         0.9996      
2133.9048   2.4361      1789.8      3478.0      0.5538      0.0         0.018       0.1837      0.0293      0.2154      0.7691      0.0         0.2447      0.0         0.0         0.9996      
2134.0572   2.4388      1799.6      3551.7      0.5481      0.0         0.0171      0.1919      0.0297      0.2131      0.7612      0.0         0.2428      0.0         0.0         0.9996      
2134.2096   2.4414      1850.2      3618.8      0.5479      0.0         0.0202      0.1926      0.0262      0.2131      0.761       0.0         0.2393      0.0         0.0         0.9996      
2134.362    2.4515      1859.7      3622.9      0.538       0.0         0.0318      0.1981      0.0228      0.2092      0.7472      0.0         0.232       0.0         0.0         0.9996      
2134.5144   2.4623      1867.4      3615.7      0.5244      0.0         0.0375      0.2151      0.0191      0.2039      0.7284      0.0         0.223       0.0         0.0         0.9996      
2134.6668   2.4756      1864.2      3602.6      0.4936      0.0         0.0486      0.247       0.0188      0.192       0.6856      0.0         0.2108      0.0         0.0         0.9995      
2134.8192   2.4865      1867.5      3589.7      0.4542      0.0         0.0726      0.2733      0.023       0.1766      0.6308      0.0         0.1997      0.0         0.0         0.9995      
2134.9716   2.4837      1863.8      3583.3      0.4344      0.0         0.0928      0.2735      0.0306      0.1689      0.6033      0.0         0.1995      0.0         0.0         0.9995      
2135.124    2.4692      1856.7      3579.9      0.4451      0.0         0.0943      0.2527      0.0349      0.1731      0.6182      0.0         0.208       0.0         0.0         0.9995      
2135.2764   2.4578      1847.6      3568.6      0.4647      0.0         0.1         0.2174      0.0372      0.1807      0.6454      0.0         0.2179      0.0         0.0         0.9995      
2135.4288   2.4393      1828.2      3544.3      0.538       0.0         0.0538      0.1701      0.0288      0.2092      0.7472      0.0         0.238       0.0         0.0         0.9996      
2135.5812   2.4344      1797.4      3507.2      0.5926      0.0         0.0221      0.1346      0.0203      0.2305      0.8231      0.0         0.2507      0.0         0.0         0.9996      
2135.7336   2.4341      1777.4      3462.1      0.6028      0.0         0.0229      0.1201      0.0195      0.2344      0.8372      0.0         0.2539      0.0         0.0         0.9996      
2135.886    2.4328      1769.6      3409.3      0.596       0.0         0.0324      0.1174      0.0226      0.2317      0.8278      0.0         0.2543      0.0         0.0         0.9996      
2136.0384   2.4316      1760.5      3381.0      0.5878      0.0         0.042       0.1165      0.025       0.2286      0.8164      0.0         0.2536      0.0         0.0         0.9996      
2136.1908   2.432       1754.6      3369.2      0.5786      0.0         0.0476      0.1214      0.0274      0.225       0.8036      0.0         0.2524      0.0         0.0         0.9996      
2136.3432   2.4331      1747.5      3378.6      0.5802      0.0         0.045       0.1223      0.0269      0.2256      0.8058      0.0         0.2525      0.0         0.0         0.9996      
2136.4956   2.435       1762.8      3396.5      0.5969      0.0         0.0294      0.1183      0.0231      0.2321      0.8291      0.0         0.2553      0.0         0.0         0.9996      
2136.648    2.4347      1761.5      3400.1      0.6101      0.0         0.0186      0.1136      0.0204      0.2372      0.8473      0.0         0.2577      0.0         0.0         0.9996      
2136.8004   2.4315      1747.4      3387.9      0.6267      0.0         0.0081      0.1034      0.018       0.2437      0.8704      0.0         0.2617      0.0         0.0         0.9996      
2136.9528   2.4285      1747.0      3380.1      0.6251      0.0         0.0107      0.1016      0.0195      0.2431      0.8682      0.0         0.2625      0.0         0.0         0.9996      
2137.1052   2.4298      1758.6      3384.1      0.6036      0.0         0.0128      0.1251      0.0238      0.2347      0.8383      0.0         0.2585      0.0         0.0         0.9996      
2137.2576   2.4349      1769.2      3409.1      0.5887      0.0         0.0177      0.1388      0.0258      0.2289      0.8176      0.0         0.2547      0.0         0.0         0.9996      
2137.41     2.4602      1786.0      3450.9      0.5651      0.0         0.0375      0.153       0.0247      0.2198      0.7848      0.0         0.2444      0.0         0.0         0.9996      
2137.5624   2.4792      1807.9      3497.6      0.5541      0.0         0.0468      0.1611      0.0225      0.2155      0.7696      0.0         0.238       0.0         0.0         0.9996      
2137.7148   2.5134      1851.1      3533.9      0.538       0.0         0.0618      0.1725      0.0185      0.2092      0.7472      0.0         0.2277      0.0         0.0         0.9996      
