#----------------------------------------------------------------------------
~VERSION INFORMATION
VERS.            2.0                  :CWLS LOG ASCII STANDARD -VERSION 2.0
WRAP.            NO                   :ONE LINE PER DEPTH STEP
#
#--------------------------------------------------------------------
~WELL INFORMATION
#MNEM .UNIT      DATA                 :DESCRIPTION OF MNEMONIC
#----------      ------------         -------------------------------
STRT  .m         0.0                  :START DEPTH
STEP  .m         0.1524               :STEP DEPTH
STOP  .m         4000.0               :STOP DEPTH
NULL  .          -999.25              :NULL VALUE
COMP  .                               :COMPANY
WELL  .          Well4                :WELL
LOC   .                               :LOCATION - AREA
FLD   .                               :FIELD
CTRY  .                               :COUNTRY
DATE  .                               :WELL DATE

XWELL .m          0                    :X POS
YWELL .m          0                    :Y POS
EDF   .          0.0                  :DERRICK FLOOR ELEVATION
#
#----------------------------------------------------------------------------
~CURVE INFORMATION
#MNEM.UNIT                                  : CURVE DESCRIPTION
#----------                                 -------------------------------
DEPT        .m                              : 1      DEPTH
RHOB        .g/cm3                          : 2      Rho
Vs          .m/s                            : 3      Vs
Vp          .m/s                            : 4      Vp
Vclay       .fract                          : 5      Volume
Vcoal       .fract                          : 6      Volume
Vqz         .fract                          : 7      Volume
Vcal        .fract                          : 8      Volume
PHI_isolated.fract                          : 9      Por
PHI_bound   .fract                          : 10     Por
Vsh         .fract                          : 11     Volume
PHIE        .fract                          : 12     Por
PHIT        .fract                          : 13     Por
Sot         .fract                          : 14     Sat
Sgt         .fract                          : 15     Sat
Swt         .fract                          : 16     Sat
#
#----------------------------------------------------------------------------
~A          RHOB        Vs          Vp          Vclay       Vcoal       Vqz         Vcal        PHI_isolatedPHI_bound   Vsh         PHIE        PHIT        Sot         Sgt         Swt         
# ...
2272.284    2.5177      1867.4      3561.1      0.5687      0.0         0.1941      0.0         0.0161      0.2212      0.7898      0.0         0.2373      0.0         0.0         0.9996      
2272.4364   2.5167      1894.5      3564.3      0.5644      0.0         0.1991      0.0         0.017       0.2195      0.7839      0.0         0.2365      0.0         0.0         0.9996      
2272.5888   2.5124      1884.6      3570.4      0.5636      0.0         0.2004      0.0         0.0168      0.2192      0.7828      0.0         0.236       0.0         0.0         0.9996      
2272.7412   2.5094      1893.3      3580.9      0.5702      0.0         0.1925      0.0         0.0155      0.2218      0.792       0.0         0.2372      0.0         0.0         0.9996      
2272.8936   2.5042      1899.5      3587.1      0.5868      0.0         0.1726      0.0         0.0124      0.2282      0.815       0.0         0.2407      0.0         0.0         0.9996      
2273.046    2.5014      1898.5      3592.2      0.5958      0.0         0.1618      0.0         0.0106      0.2317      0.8275      0.0         0.2423      0.0         0.0         0.9996      
2273.1984   2.5009      1900.5      3593.0      0.6051      0.0         0.1516      0.0         0.008       0.2353      0.8403      0.0         0.2433      0.0         0.0         0.9996      
2273.3508   2.5014      1896.5      3594.8      0.61        0.0         0.1466      0.0         0.0062      0.2372      0.8472      0.0         0.2434      0.0         0.0         0.9996      
2273.5032   2.5018      1894.6      3596.2      0.6095      0.0         0.148       0.0         0.0056      0.237       0.8465      0.0         0.2426      0.0         0.0         0.9996      
2273.6556   2.5017      1919.0      3595.8      0.6053      0.0         0.1535      0.0         0.0058      0.2354      0.8406      0.0         0.2412      0.0         0.0         0.9996      
2273.808    2.5013      1908.4      3592.1      0.599       0.0         0.1612      0.0         0.0068      0.2329      0.8319      0.0         0.2398      0.0         0.0         0.9996      
2273.9604   2.501       1897.0      3586.0      0.5876      0.0         0.1749      0.0         0.0089      0.2285      0.8162      0.0         0.2375      0.0         0.0         0.9996      
2274.1128   2.5016      1892.9      3582.1      0.583       0.0         0.1807      0.0         0.0096      0.2267      0.8097      0.0         0.2363      0.0         0.0         0.9996      
2274.2652   2.5043      1889.6      3581.0      0.579       0.0         0.1852      0.0         0.0106      0.2252      0.8042      0.0         0.2358      0.0         0.0         0.9996      
2274.4176   2.5059      1890.3      3583.2      0.577       0.0         0.1876      0.0         0.011       0.2244      0.8014      0.0         0.2354      0.0         0.0         0.9996      
2274.57     2.5057      1894.6      3584.2      0.5737      0.0         0.1907      0.0         0.0125      0.2231      0.7968      0.0         0.2356      0.0         0.0         0.9996      
2274.7224   2.5048      1883.8      3572.5      0.5739      0.0         0.1903      0.0         0.0126      0.2232      0.7971      0.0         0.2358      0.0         0.0         0.9996      
2274.8748   2.5021      1887.0      3550.9      0.58        0.0         0.1819      0.0         0.0125      0.2255      0.8055      0.0         0.238       0.0         0.0         0.9996      
2275.0272   2.5013      1882.0      3530.6      0.5827      0.0         0.1782      0.0         0.0125      0.2266      0.8093      0.0         0.2391      0.0         0.0         0.9996      
2275.1796   2.502       1912.1      3527.3      0.5701      0.0         0.1941      0.0         0.014       0.2216      0.7918      0.0         0.2357      0.0         0.0         0.9996      
2275.332    2.504       1905.9      3545.2      0.5486      0.0         0.2226      0.0         0.0154      0.2133      0.7619      0.0         0.2287      0.0         0.0         0.9996      
2275.4844   2.505       1904.0      3558.9      0.5527      0.0         0.2176      0.0         0.0149      0.215       0.7677      0.0         0.2299      0.0         0.0         0.9996      
2275.6368   2.5047      1900.8      3564.8      0.5761      0.0         0.1875      0.0         0.0124      0.224       0.8001      0.0         0.2364      0.0         0.0         0.9996      
2275.7892   2.5037      1901.9      3565.1      0.5772      0.0         0.1868      0.0         0.0116      0.2245      0.8017      0.0         0.2361      0.0         0.0         0.9996      
2275.9416   2.5         1905.7      3563.1      0.5763      0.0         0.1885      0.0         0.0111      0.2241      0.8004      0.0         0.2352      0.0         0.0         0.9996      
2276.094    2.4977      1908.8      3563.3      0.5778      0.0         0.1867      0.0         0.0108      0.2247      0.8025      0.0         0.2355      0.0         0.0         0.9996      
2276.2464   2.4946      1917.0      3565.5      0.5894      0.0         0.1725      0.0         0.0091      0.2292      0.8186      0.0         0.2383      0.0         0.0         0.9996      
2276.3988   2.4941      1919.5      3567.1      0.6022      0.0         0.1569      0.0         0.0066      0.2342      0.8364      0.0         0.2408      0.0         0.0         0.9996      
2276.5512   2.4929      1918.7      3567.7      0.6324      0.0         0.1211      0.0         5.0E-4      0.2459      0.8783      0.0         0.2464      0.0         0.0         0.9996      
2276.7036   2.4913      1920.6      3574.2      0.6428      0.0         0.1073      0.0         0.0         0.25        0.8928      0.0         0.25        0.0         0.0         0.9996      
2276.856    2.492       1917.1      3587.8      0.6516      0.0         0.0949      0.0         0.0         0.2534      0.905       0.0         0.2534      0.0         0.0         0.9996      
2277.0084   2.4947      1926.7      3612.8      0.6467      0.0         0.1002      0.0         0.0015      0.2515      0.8982      0.0         0.2531      0.0         0.0         0.9996      
2277.1608   2.5066      1931.0      3634.3      0.6308      0.0         0.1194      0.0         0.0045      0.2453      0.876       0.0         0.2497      0.0         0.0         0.9996      
2277.3132   2.5145      1932.7      3653.7      0.6171      0.0         0.1348      0.0         0.0081      0.2399      0.857       0.0         0.248       0.0         0.0         0.9996      
2277.4656   2.5297      1930.8      3664.8      0.5933      0.0         0.1623      0.0023      0.0108      0.2307      0.8241      0.0         0.2415      0.0         0.0         0.9996      
2277.618    2.535       1923.0      3667.8      0.5767      0.0         0.1129      0.0727      0.0134      0.2243      0.801       0.0         0.2377      0.0         0.0         0.9996      
2277.7704   2.5387      1920.1      3667.8      0.5491      0.0         0.0666      0.1517      0.0189      0.2136      0.7627      0.0         0.2325      0.0         0.0         0.9996      
2277.9228   2.5361      1918.4      3658.8      0.5424      0.0         0.0714      0.1556      0.0197      0.2109      0.7533      0.0         0.2306      0.0         0.0         0.9996      
2278.0752   2.5281      1922.8      3646.2      0.561       0.0         0.1026      0.1         0.018       0.2182      0.7792      0.0         0.2362      0.0         0.0         0.9996      
2278.2276   2.5204      1919.7      3618.9      0.5885      0.0         0.1127      0.0549      0.0153      0.2288      0.8174      0.0         0.2442      0.0         0.0         0.9996      
2278.38     2.5106      1926.7      3591.7      0.6133      0.0         0.0934      0.0411      0.0136      0.2385      0.8518      0.0         0.2521      0.0         0.0         0.9996      
2278.5324   2.5046      1938.0      3565.3      0.6045      0.0         0.0902      0.0524      0.0179      0.2351      0.8396      0.0         0.253       0.0         0.0         0.9996      
