#----------------------------------------------------------------------------
~VERSION INFORMATION
VERS.            2.0                  :CWLS LOG ASCII STANDARD -VERSION 2.0
WRAP.            NO                   :ONE LINE PER DEPTH STEP
#
#--------------------------------------------------------------------
~WELL INFORMATION
#MNEM .UNIT      DATA                 :DESCRIPTION OF MNEMONIC
#----------      ------------         -------------------------------
STRT  .m         0.0                  :START DEPTH
STEP  .m         0.1524               :STEP DEPTH
STOP  .m         2279.904             :STOP DEPTH
NULL  .          -999.25              :NULL VALUE
COMP  .                               :COMPANY
WELL  .                               :WELL
LOC   .          311975.906,      3195343.67  :LOCATION - AREA
FLD   .                               :FIELD
CTRY  .                               :COUNTRY
DATE  .                               :WELL DATE

XWELL .m          311975               :X POS
YWELL .m          3195343              :Y POS
EDF   .          25.9                 :DERRICK FLOOR ELEVATION
#
#----------------------------------------------------------------------------
~CURVE INFORMATION
#MNEM.UNIT                                  : CURVE DESCRIPTION
#----------                                 -------------------------------
DEPT        .m                              : 1      DEPTH
VSH         .fract                          : 2      Volume
VCL         .fract                          : 3      Volume
SW          .fract                          : 4      Sat
PHIT        .fract                          : 5      Por
PHIE        .fract                          : 6      Por
RHOB        .g/cm3                          : 7      Rho
VP          .m/s                            : 8      Vp
VS          .m/s                            : 9      Vs
Vp_xw       .m/s                            : 10     Vp
Vs_xw       .m/s                            : 11     Vs
Rho_xw      .g/cm3                          : 12     Rho
#
#----------------------------------------------------------------------------
~A          VSH         VCL         SW          PHIT        PHIE        RHOB_raw    VP          VS          Vp_xw       Vs_xw       Rho_xw      
# ...
2118.36     0.997       0.6518      1.0         0.1877      0.0311      2.302       2716.3118   1153.9086   2564.2502   1020.7136   2.3167      
2118.5124   0.997       0.655       1.0         0.1861      0.0288      2.302       2718.1279   1154.6384   2568.8742   1021.459    2.3189      
2118.6648   0.997       0.6501      1.0         0.1868      0.0306      2.305       2716.1186   1153.2464   2569.6424   1024.377    2.3182      
2118.8172   0.9943      0.632       1.0         0.1863      0.0345      2.308       2710.4398   1151.1205   2586.7499   1042.711    2.3201      
2118.9696   0.958       0.609       1.0         0.1863      0.04        2.307       2704.2123   1151.0757   2606.5353   1065.4158   2.3216      
2119.122    0.9459      0.6014      1.0         0.1876      0.0432      2.305       2701.0503   1151.0434   2607.2639   1069.9497   2.3201      
2119.2744   0.9652      0.6136      1.0         0.188       0.0406      2.304       2703.5641   1149.873    2594.6657   1056.674    2.3187      
2119.4268   0.997       0.6379      1.0         0.1867      0.0336      2.305       2709.8147   1149.806    2580.0218   1036.1009   2.3191      
2119.5792   0.997       0.6669      1.0         0.1836      0.0235      2.306       2713.4332   1151.0258   2570.7169   1016.2915   2.3219      
2119.7316   0.997       0.68        1.0         0.1818      0.0185      2.309       2712.3711   1151.1801   2568.6652   1008.5807   2.3237      
2119.884    0.997       0.6631      1.0         0.1811      0.0219      2.311       2711.8643   1151.3391   2585.0113   1025.4936   2.3259      
2120.0364   0.997       0.6375      1.0         0.182       0.0289      2.308       2716.625    1155.1858   2601.8379   1047.5693   2.3262      
2120.1888   0.9764      0.6207      1.0         0.1857      0.0367      2.304       2726.8145   1165.4625   2599.0931   1055.179    2.3217      
2120.3412   0.948       0.6027      1.0         0.1903      0.0456      2.303       2739.976    1180.5776   2593.6396   1061.9994   2.316       
2120.4936   0.9016      0.5734      1.0         0.1936      0.0559      2.301       2750.2571   1193.5809   2605.0293   1084.1332   2.3129      
2120.646    0.8699      0.5534      1.0         0.1968      0.064       2.295       2746.6655   1194.7165   2609.1911   1097.5286   2.3094      
2120.7984   0.8777      0.5583      0.9889      0.2007      0.0667      2.286       2722.1973   1179.7538   2580.897    1082.2256   2.3027      
2120.9508   0.9102      0.5789      0.9606      0.2053      0.0664      2.28        2685.8803   1153.0146   2527.2113   1049.3059   2.2932      
2121.1032   0.9366      0.5956      0.9442      0.2082      0.0652      2.285       2655.0578   1128.9427   2491.8722   1025.6841   2.287       
2121.2556   0.9442      0.6004      0.9704      0.2043      0.0602      2.296       2645.3317   1120.1699   2517.7328   1030.2819   2.2938      
2121.408    0.9419      0.5989      1.0         0.1969      0.0531      2.309       2666.6241   1128.9483   2566.9249   1049.6089   2.3063      
2121.5604   0.9469      0.6021      1.0         0.1874      0.0429      2.323       2711.7909   1158.3283   2607.5898   1069.7396   2.3204      
2121.7128   0.9446      0.6006      1.0         0.1777      0.0336      2.338       2752.8725   1188.2184   2654.7335   1095.1943   2.3351      
2121.8652   0.921       0.5857      1.0         0.1683      0.0278      2.35        2765.9304   1201.1378   2715.1477   1134.7774   2.3502      
2122.0176   0.8868      0.5641      1.0         0.1614      0.0261      2.356       2752.9183   1199.4994   2772.7718   1177.2735   2.362       
2122.17     0.8693      0.5531      1.0         0.1581      0.0254      2.354       2733.8009   1190.317    2802.2059   1199.1845   2.3677      
2122.3224   0.872       0.5548      1.0         0.1594      0.0263      2.346       2727.5168   1185.8246   2793.4311   1193.6863   2.3656      
2122.4748   0.8869      0.5642      1.0         0.1644      0.029       2.333       2734.7342   1186.4798   2757.1561   1169.3919   2.3575      
2122.6272   0.9045      0.5754      1.0         0.173       0.0349      2.321       2740.0938   1186.6058   2702.0669   1134.3971   2.3438      
2122.7796   0.9124      0.5804      1.0         0.1812      0.042       2.317       2734.5376   1182.0909   2657.0265   1108.0323   2.3311      
2122.932    0.9097      0.5786      1.0         0.1843      0.0455      2.322       2725.3693   1176.6229   2643.9003   1102.1396   2.3266      
2123.0844   0.8992      0.572       1.0         0.1812      0.0441      2.329       2721.6716   1176.0401   2665.1999   1117.2272   2.3317      
2123.2368   0.8841      0.5625      1.0         0.1769      0.0421      2.336       2726.2209   1181.3264   2695.7783   1138.9475   2.3388      
2123.3892   0.8714      0.5544      1.0         0.1726      0.0396      2.346       2737.7819   1191.8973   2725.7293   1159.5347   2.3458      
2123.5416   0.8592      0.5467      1.0         0.1659      0.0348      2.352       2750.758    1203.4791   2768.3993   1186.4053   2.3564      
2123.694    0.8352      0.5315      1.0         0.1631      0.0357      2.352       2758.0734   1213.0497   2800.3058   1212.7631   2.3616      
2123.8464   0.8153      0.519       1.0         0.1644      0.04        2.342       2762.094    1219.7799   2808.094    1225.2354   2.3605      
2123.9988   0.8255      0.5254      1.0         0.1715      0.0455      2.326       2771.7382   1226.4473   2763.3069   1197.6715   2.3494      
2124.1512   0.8289      0.5275      1.0         0.1844      0.0579      2.313       2788.2521   1238.6652   2695.5041   1160.1351   2.3298      
2124.3036   0.785       0.4998      0.9719      0.1978      0.078       2.305       2800.5439   1258.4825   2646.8854   1157.4386   2.3101      
2124.456    0.7325      0.4666      0.911       0.2067      0.0948      2.3         2798.6936   1271.8819   2614.8334   1174.7615   2.296       
2124.6084   0.7227      0.4604      0.8859      0.2109      0.1005      2.297       2786.2898   1270.2051   2591.1541   1170.9134   2.2887      
2124.7608   0.7544      0.4805      0.8844      0.2113      0.0961      2.301       2773.0759   1256.9888   2564.8733   1144.3731   2.2868      
2124.9132   0.7822      0.498       0.9082      0.2071      0.0877      2.31        2765.5029   1242.8034   2575.4748   1134.5327   2.2932      
2125.0656   0.8029      0.5111      0.9527      0.2         0.0775      2.321       2763.5738   1230.1174   2614.9733   1137.8968   2.3052      
2125.218    0.8294      0.5279      1.0         0.1908      0.0643      2.332       2761.2713   1217.5641   2663.6362   1142.419    2.3201      
2125.3704   0.8584      0.5462      1.0         0.1812      0.0503      2.344       2755.6279   1207.3728   2691.4157   1146.5258   2.3334      
2125.5228   0.8764      0.5576      1.0         0.1718      0.0382      2.351       2749.5097   1200.5546   2726.4009   1157.8845   2.3468      
2125.6752   0.869       0.553       1.0         0.1672      0.0347      2.349       2743.3487   1196.4378   2754.7629   1175.3644   2.354       
2125.8276   0.8568      0.5452      1.0         0.1694      0.0388      2.34        2736.0878   1192.8054   2751.9562   1178.9328   2.3512      
2125.98     0.859       0.5467      1.0         0.1758      0.0448      2.327       2730.4992   1188.7617   2717.8081   1160.1998   2.3415      
2126.1324   0.8523      0.5424      1.0         0.1855      0.0555      2.311       2726.418    1188.2179   2674.2358   1139.5789   2.3271      
2126.2848   0.8266      0.5262      0.9743      0.1982      0.0721      2.292       2724.2747   1195.0398   2617.528    1124.7828   2.3079      
2126.4372   0.8287      0.5274      0.9001      0.2108      0.0845      2.282       2726.9545   1203.4961   2523.3537   1090.5591   2.2853      
2126.5896   0.8628      0.549       0.8782      0.2156      0.0841      2.285       2731.6464   1203.3679   2470.739    1054.8678   2.2756      
2126.742    0.8876      0.5647      0.9024      0.2119      0.0767      2.293       2730.3986   1195.5181   2483.4014   1047.777    2.2814      
