#----------------------------------------------------------------------------
~VERSION INFORMATION
VERS.            2.0                  :CWLS LOG ASCII STANDARD -VERSION 2.0
WRAP.            NO                   :ONE LINE PER DEPTH STEP
#
#--------------------------------------------------------------------
~WELL INFORMATION
#MNEM .UNIT      DATA                 :DESCRIPTION OF MNEMONIC
#----------      ------------         -------------------------------
STRT  .m         0.0                  :START DEPTH
STEP  .m         0.1524               :STEP DEPTH
STOP  .m         2279.904             :STOP DEPTH
NULL  .          -999.25              :NULL VALUE
COMP  .                               :COMPANY
WELL  .                               :WELL
LOC   .          311975.906,      3195343.67  :LOCATION - AREA
FLD   .                               :FIELD
CTRY  .                               :COUNTRY
DATE  .                               :WELL DATE

XWELL .m          311975               :X POS
YWELL .m          3195343              :Y POS
EDF   .          25.9                 :DERRICK FLOOR ELEVATION
#
#----------------------------------------------------------------------------
~CURVE INFORMATION
#MNEM.UNIT                                  : CURVE DESCRIPTION
#----------                                 -------------------------------
DEPT        .m                              : 1      DEPTH
VSH         .fract                          : 2      Volume
VCL         .fract                          : 3      Volume
SW          .fract                          : 4      Sat
PHIT        .fract                          : 5      Por
PHIE        .fract                          : 6      Por
RHOB        .g/cm3                          : 7      Rho
VP          .m/s                            : 8      Vp
VS          .m/s                            : 9      Vs
Vp_xw       .m/s                            : 10     Vp
Vs_xw       .m/s                            : 11     Vs
Rho_xw      .g/cm3                          : 12     Rho
#
#----------------------------------------------------------------------------
~A          VSH         VCL         SW          PHIT        PHIE        RHOB_raw    VP          VS          Vp_xw       Vs_xw       Rho_xw      
# ...
1811.1216   0.997       0.664       1.0         0.2176      0.0392      2.266       2432.776    940.5919    2428.3914   941.5693    2.2712      
1811.274    0.997       0.6844      1.0         0.2246      0.0407      2.254       2392.7423   913.4933    2387.2892   909.5681    2.2594      
1811.4264   0.997       0.7017      1.0         0.2289      0.0403      2.246       2356.1266   887.4127    2360.1554   887.0164    2.2519      
1811.5788   0.997       0.6822      1.0         0.2282      0.0449      2.249       2341.1582   879.5327    2374.8377   903.3571    2.2542      
1811.7312   0.997       0.6279      1.0         0.2254      0.0567      2.259       2359.2026   891.8901    2422.4905   954.1853    2.2617      
1811.8836   0.9612      0.598       1.0         0.2178      0.0571      2.273       2406.5157   926.0441    2476.5418   999.3371    2.275       
1812.036    0.9906      0.6163      1.0         0.2118      0.0463      2.279       2444.8542   947.7438    2487.3941   996.7639    2.2828      
1812.1884   0.997       0.6412      1.0         0.2141      0.0419      2.273       2440.6188   944.7467    2458.8429   968.9708    2.2778      
1812.3408   0.997       0.6439      1.0         0.2241      0.0511      2.259       2402.2808   919.834     2416.3117   943.5315    2.2627      
1812.4932   0.997       0.6376      1.0         0.2348      0.0636      2.245       2358.8932   889.1634    2378.6172   924.1467    2.247       
1812.6456   0.997       0.6483      1.0         0.2353      0.0612      2.243       2337.728    877.7002    2369.526    914.2646    2.2456      
1812.798    0.997       0.6674      1.0         0.2272      0.048       2.252       2355.089    887.4853    2388.2071   917.2157    2.2566      
1812.9504   0.997       0.6605      1.0         0.2168      0.0395      2.267       2402.4087   920.0412    2434.0354   946.2924    2.2726      
1813.1028   0.997       0.6362      1.0         0.2101      0.0393      2.279       2450.1195   953.164     2479.2297   982.707     2.2841      
1813.2552   0.9965      0.62        1.0         0.2078      0.0414      2.284       2468.6958   964.2728    2501.5159   1002.8893   2.2886      
1813.4076   0.9918      0.6171      1.0         0.2081      0.0424      2.284       2451.1878   956.4732    2502.5326   1004.8698   2.2884      
1813.56     0.997       0.6243      1.0         0.2089      0.0413      2.282       2421.257    935.272     2493.4401   996.3043    2.2867      
1813.7124   0.997       0.631       1.0         0.2128      0.0434      2.276       2396.7758   916.5663    2471.853    981.0278    2.2804      
1813.8648   0.997       0.6219      1.0         0.2179      0.0509      2.27        2380.0615   904.5075    2457.5257   977.1463    2.2733      
1814.0172   0.997       0.6261      1.0         0.2212      0.0531      2.265       2374.146    900.3537    2440.8256   965.6252    2.2681      
1814.1696   0.997       0.6546      1.0         0.2217      0.046       2.261       2376.8309   901.0951    2418.4553   940.0705    2.2656      
1814.322    0.997       0.6706      1.0         0.2225      0.0426      2.258       2380.5999   904.1109    2404.458    925.1656    2.2634      
1814.4744   0.997       0.668       1.0         0.2234      0.0441      2.257       2385.5185   908.1521    2402.6473   925.2459    2.2622      
1814.6268   0.997       0.6762      1.0         0.2227      0.0413      2.257       2391.6011   910.5468    2399.9827   920.234     2.2628      
1814.7792   0.997       0.7002      1.0         0.2214      0.0335      2.256       2386.675    907.0563    2389.6979   904.357     2.2632      
1814.9316   0.997       0.7227      1.0         0.2238      0.03        2.25        2366.9531   893.891     2366.8841   882.4198    2.2582      
1815.084    0.997       0.734       1.0         0.228       0.0311      2.243       2344.2202   877.4225    2344.6801   865.5076    2.2513      
1815.2364   0.997       0.7315      1.0         0.234       0.0378      2.235       2328.3168   866.7934    2324.0982   854.7566    2.2425      
1815.3888   0.997       0.7137      1.0         0.237       0.0455      2.233       2326.5222   866.9865    2323.1597   860.9696    2.2391      
1815.5412   0.997       0.6913      1.0         0.233       0.0475      2.241       2350.4383   883.9815    2351.0427   885.9181    2.2464      
1815.6936   0.997       0.6628      1.0         0.2223      0.0444      2.259       2405.1985   924.1372    2410.4603   931.9371    2.2642      
1815.846    0.997       0.6223      1.0         0.2103      0.0434      2.28        2485.6612   984.1682    2489.0475   994.8089    2.2847      
1815.9984   0.9428      0.5866      1.0         0.2023      0.045       2.295       2569.8203   1049.6445   2553.4075   1048.6017   2.299       
1816.1508   0.9361      0.5825      1.0         0.1976      0.0414      2.302       2619.2213   1082.3712   2578.2635   1064.5164   2.3063      
1816.3032   0.9735      0.6057      1.0         0.195       0.0325      2.303       2610.6366   1074.6895   2569.6116   1047.4871   2.3087      
1816.4556   0.997       0.6425      1.0         0.1962      0.0239      2.297       2553.5032   1030.9062   2533.9727   1009.4943   2.3046      
1816.608    0.997       0.6767      1.0         0.2043      0.0228      2.282       2467.8426   968.1394    2473.9002   960.8909    2.2903      
1816.7604   0.997       0.6906      1.0         0.217       0.0318      2.263       2380.4877   906.1549    2413.0064   921.4099    2.2704      
1816.9128   0.997       0.6914      1.0         0.2271      0.0418      2.249       2320.761    862.7717    2373.2794   898.6895    2.2552      
1817.0652   0.997       0.7022      1.0         0.2306      0.0424      2.243       2297.8455   845.4056    2353.4711   882.9844    2.2493      
1817.2176   0.997       0.7136      1.0         0.2304      0.0391      2.242       2298.9374   844.0125    2347.4866   875.0511    2.2489      
1817.37     0.997       0.7042      1.0         0.2325      0.0437      2.24        2305.4227   847.4679    2345.1964   877.4264    2.2464      
1817.5224   0.997       0.6884      1.0         0.2369      0.0524      2.236       2307.5699   849.0996    2338.2686   879.601     2.2408      
1817.6748   0.997       0.6921      1.0         0.2374      0.0519      2.235       2306.5046   849.2966    2334.2158   875.7707    2.2398      
1817.8272   0.997       0.6947      1.0         0.2365      0.0503      2.236       2308.566    851.0654    2335.9954   875.7996    2.241       
1817.9796   0.997       0.667       1.0         0.2366      0.0579      2.239       2317.5866   857.2638    2352.5263   896.53      2.2425      
1818.132    0.997       0.6218      1.0         0.2383      0.0717      2.242       2330.9873   867.6459    2375.9036   929.1904    2.2427      
1818.2844   0.9705      0.6039      1.0         0.2399      0.078       2.242       2340.5106   874.9284    2382.3214   940.7174    2.2414      
1818.4368   0.997       0.6245      1.0         0.2418      0.0745      2.237       2340.7433   874.1813    2360.5814   918.7658    2.2373      
1818.5892   0.997       0.659       1.0         0.2454      0.0688      2.228       2333.5747   868.5654    2324.7571   883.0623    2.2298      
1818.7416   0.997       0.6832      0.9931      0.2507      0.0676      2.218       2323.9501   863.9115    2287.3157   853.493     2.2201      
1818.894    0.997       0.7022      0.9829      0.2518      0.0637      2.214       2319.2993   862.7251    2267.0466   837.8176    2.2167      
1819.0464   0.997       0.7193      1.0         0.249       0.0563      2.216       2327.5871   866.0863    2277.3904   831.826     2.2208      
1819.1988   0.997       0.711       1.0         0.2468      0.0563      2.22        2344.5264   876.6791    2289.5642   842.1373    2.2246      
1819.3512   0.997       0.6699      0.9899      0.2473      0.0679      2.224       2357.0162   887.3369    2305.5059   870.7109    2.2258      
1819.5036   0.997       0.6497      0.9869      0.2468      0.0728      2.227       2360.3753   889.4271    2318.0536   887.2378    2.2276      
