#----------------------------------------------------------------------------
~VERSION INFORMATION
VERS.            2.0                  :CWLS LOG ASCII STANDARD -VERSION 2.0
WRAP.            NO                   :ONE LINE PER DEPTH STEP
#
#--------------------------------------------------------------------
~WELL INFORMATION
#MNEM .UNIT      DATA                 :DESCRIPTION OF MNEMONIC
#----------      ------------         -------------------------------
STRT  .m         0.0                  :START DEPTH
STEP  .m         0.1524               :STEP DEPTH
STOP  .m         4000.0               :STOP DEPTH
NULL  .          -999.25              :NULL VALUE
COMP  .                               :COMPANY
WELL  .          Well4                :WELL
LOC   .                               :LOCATION - AREA
FLD   .                               :FIELD
CTRY  .                               :COUNTRY
DATE  .                               :WELL DATE

XWELL .m          0                    :X POS
YWELL .m          0                    :Y POS
EDF   .          0.0                  :DERRICK FLOOR ELEVATION
#
#----------------------------------------------------------------------------
~CURVE INFORMATION
#MNEM.UNIT                                  : CURVE DESCRIPTION
#----------                                 -------------------------------
DEPT        .m                              : 1      DEPTH
RHOB        .g/cm3                          : 2      Rho
Vs          .m/s                            : 3      Vs
Vp          .m/s                            : 4      Vp
Vclay       .fract                          : 5      Volume
Vcoal       .fract                          : 6      Volume
Vqz         .fract                          : 7      Volume
Vcal        .fract                          : 8      Volume
PHI_isolated.fract                          : 9      Por
PHI_bound   .fract                          : 10     Por
Vsh         .fract                          : 11     Volume
PHIE        .fract                          : 12     Por
PHIT        .fract                          : 13     Por
Sot         .fract                          : 14     Sat
Sgt         .fract                          : 15     Sat
Swt         .fract                          : 16     Sat
#
#----------------------------------------------------------------------------
~A          RHOB        Vs          Vp          Vclay       Vcoal       Vqz         Vcal        PHI_isolatedPHI_bound   Vsh         PHIE        PHIT        Sot         Sgt         Swt         
# ...
2553.9192   2.4922      1874.7      3573.2      0.5182      0.0         0.2606      0.0         0.0198      0.2016      0.7198      0.0         0.2213      0.0         0.0         0.9995      
2554.0716   2.4969      1868.5      3557.4      0.5138      0.0         0.2681      0.0         0.0184      0.1998      0.7136      0.0         0.2182      0.0         0.0         0.9995      
2554.224    2.4989      1859.0      3537.5      0.5092      0.0         0.274       0.0         0.0186      0.198       0.7072      0.0         0.2166      0.0         0.0         0.9995      
2554.3764   2.5011      1849.7      3533.6      0.4924      0.0         0.2934      0.0         0.0227      0.1915      0.6839      0.0         0.2142      0.0         0.0         0.9995      
2554.5288   2.504       1846.2      3532.7      0.4846      0.0         0.3027      0.0         0.0242      0.1885      0.6731      0.0         0.2127      0.0         0.0         0.9995      
2554.6812   2.5065      1851.9      3537.0      0.4876      0.0         0.2998      0.0         0.023       0.1896      0.6773      0.0         0.2126      0.0         0.0         0.9995      
2554.8336   2.5126      1858.4      3532.4      0.4984      0.0         0.287       0.0         0.0209      0.1938      0.6921      0.0         0.2146      0.0         0.0         0.9995      
2554.986    2.5156      1860.1      3520.9      0.5031      0.0         0.2808      0.0         0.0203      0.1957      0.6988      0.0         0.216       0.0         0.0         0.9995      
2555.1384   2.5199      1832.6      3503.9      0.509       0.0         0.2727      0.0         0.0204      0.1979      0.7069      0.0         0.2183      0.0         0.0         0.9995      
2555.2908   2.5206      1815.1      3485.5      0.5103      0.0         0.2699      0.0         0.0212      0.1985      0.7089      0.0         0.2197      0.0         0.0         0.9995      
2555.4432   2.5172      1807.6      3472.3      0.5121      0.0         0.2661      0.0         0.0227      0.1991      0.7112      0.0         0.2218      0.0         0.0         0.9995      
2555.5956   2.5133      1810.9      3466.8      0.5115      0.0         0.2653      0.0         0.0242      0.1989      0.7104      0.0         0.2231      0.0         0.0         0.9996      
2555.748    2.5033      1814.3      3466.5      0.5072      0.0         0.2684      0.0         0.0271      0.1973      0.7045      0.0         0.2244      0.0         0.0         0.9996      
2555.9004   2.4981      1815.3      3463.9      0.5046      0.0         0.2709      0.0         0.0282      0.1962      0.7008      0.0         0.2244      0.0         0.0         0.9996      
2556.0528   2.4892      1809.8      3457.4      0.5083      0.0         0.2657      0.0         0.0283      0.1977      0.706       0.0         0.226       0.0         0.0         0.9996      
2556.2052   2.4849      1801.5      3449.6      0.5131      0.0         0.2593      0.0         0.0282      0.1996      0.7127      0.0         0.2278      0.0         0.0         0.9996      
2556.3576   2.4852      1801.9      3442.8      0.5288      0.0         0.2393      0.0         0.0262      0.2057      0.7345      0.0         0.2319      0.0         0.0         0.9996      
2556.51     2.487       1798.8      3438.6      0.5357      0.0         0.2299      0.0         0.0261      0.2084      0.744       0.0         0.2345      0.0         0.0         0.9996      
2556.6624   2.4927      1798.5      3439.7      0.5434      0.0         0.2195      0.0         0.0257      0.2113      0.7547      0.0         0.237       0.0         0.0         0.9996      
2556.8148   2.4955      1799.8      3443.8      0.544       0.0         0.219       0.0         0.0254      0.2116      0.7556      0.0         0.237       0.0         0.0         0.9996      
2556.9672   2.5002      1799.7      3448.4      0.5446      0.0         0.2205      0.0         0.0231      0.2118      0.7564      0.0         0.2349      0.0         0.0         0.9996      
2557.1196   2.503       1807.0      3452.3      0.5484      0.0         0.219       0.0         0.0192      0.2133      0.7617      0.0         0.2325      0.0         0.0         0.9996      
2557.272    2.5135      1824.3      3455.4      0.547       0.0         0.2259      0.0         0.0144      0.2128      0.7598      0.0         0.2272      0.0         0.0         0.9996      
2557.4244   2.5229      1837.4      3458.9      0.5404      0.0         0.2373      0.0         0.0122      0.2101      0.7505      0.0         0.2223      0.0         0.0         0.9996      
2557.5768   2.5485      1837.1      3461.5      0.5222      0.0         0.2654      0.0         0.0094      0.203       0.7252      0.0         0.2124      0.0         0.0         0.9995      
2557.7292   2.5682      1831.3      3464.6      0.5055      0.0         0.2876      0.0         0.0103      0.1966      0.7021      0.0         0.2069      0.0         0.0         0.9995      
2557.8816   2.5699      1843.5      3477.8      0.5037      0.0         0.2887      0.0         0.0117      0.1959      0.6996      0.0         0.2077      0.0         0.0         0.9995      
2558.034    2.5583      1826.2      3509.4      0.5148      0.0         0.2697      0.0         0.0151      0.2002      0.715       0.0         0.2153      0.0         0.0         0.9995      
2558.1864   2.5496      1814.3      3535.6      0.5237      0.0         0.2565      0.0         0.0161      0.2037      0.7274      0.0         0.2198      0.0         0.0         0.9995      
2558.3388   2.5366      1808.6      3525.8      0.5302      0.0         0.2437      0.0         0.0199      0.2062      0.7364      0.0         0.2261      0.0         0.0         0.9996      
2558.4912   2.5323      1827.0      3496.9      0.5322      0.0         0.2407      0.0         0.0202      0.207       0.7392      0.0         0.2272      0.0         0.0         0.9996      
2558.6436   2.5231      1816.8      3471.2      0.5315      0.0         0.2416      0.0         0.0201      0.2067      0.7382      0.0         0.2268      0.0         0.0         0.9996      
2558.796    2.5175      1819.9      3454.6      0.5333      0.0         0.2396      0.0         0.0196      0.2074      0.7407      0.0         0.227       0.0         0.0         0.9996      
2558.9484   2.5068      1827.7      3447.4      0.5306      0.0         0.2419      0.0         0.021       0.2064      0.737       0.0         0.2274      0.0         0.0         0.9996      
2559.1008   2.5029      1835.9      3444.1      0.5285      0.0         0.2436      0.0         0.0222      0.2056      0.7341      0.0         0.2278      0.0         0.0         0.9996      
2559.2532   2.4985      1843.4      3441.8      0.5262      0.0         0.2442      0.0         0.0249      0.2046      0.7308      0.0         0.2295      0.0         0.0         0.9996      
2559.4056   2.4973      1811.8      3438.9      0.5296      0.0         0.2393      0.0         0.0251      0.206       0.7356      0.0         0.231       0.0         0.0         0.9996      
2559.558    2.4957      1810.4      3435.8      0.542       0.0         0.2253      0.0         0.0219      0.2108      0.7528      0.0         0.2327      0.0         0.0         0.9996      
2559.7104   2.4955      1815.9      3433.9      0.5479      0.0         0.2195      0.0         0.0197      0.2131      0.7609      0.0         0.2328      0.0         0.0         0.9996      
2559.8628   2.4973      1820.6      3435.5      0.5544      0.0         0.2132      0.0         0.0167      0.2156      0.77        0.0         0.2323      0.0         0.0         0.9996      
2560.0152   2.4994      1821.6      3446.3      0.5548      0.0         0.2132      0.0         0.0162      0.2158      0.7706      0.0         0.232       0.0         0.0         0.9996      
2560.1676   2.5057      1820.6      3468.0      0.5517      0.0         0.2176      0.0         0.0161      0.2146      0.7663      0.0         0.2307      0.0         0.0         0.9996      
