#----------------------------------------------------------------------------
~VERSION INFORMATION
VERS.            2.0                  :CWLS LOG ASCII STANDARD -VERSION 2.0
WRAP.            NO                   :ONE LINE PER DEPTH STEP
#
#--------------------------------------------------------------------
~WELL INFORMATION
#MNEM .UNIT      DATA                 :DESCRIPTION OF MNEMONIC
#----------      ------------         -------------------------------
STRT  .m         1900.0               :START DEPTH
STEP  .m         0.1524               :STEP DEPTH
STOP  .m         2100.0               :STOP DEPTH
NULL  .          -999.25              :NULL VALUE
COMP  .                               :COMPANY
WELL  .          Grana2018            :WELL
LOC   .                               :LOCATION - AREA
FLD   .                               :FIELD
CTRY  .                               :COUNTRY
DATE  .                               :WELL DATE

XWELL .m          0                    :X POS
YWELL .m          0                    :Y POS
EDF   .          0.0                  :DERRICK FLOOR ELEVATION
#
#----------------------------------------------------------------------------
~CURVE INFORMATION
#MNEM.UNIT                                  : CURVE DESCRIPTION
#----------                                 -------------------------------
DEPT        .m                              : 1      DEPTH
VCL         .fract                          : 2      Volume
PHIT        .fract                          : 3      Por
SW          .fract                          : 4      Sat
VP          .m/s                            : 5      Vp
VS          .m/s                            : 6      Vs
RHOB        .g/cm3                          : 7      Rho
#
#----------------------------------------------------------------------------
~A          VOL_CLAY    PHI         SW          VP          VS          RHOB        
# ...
2022.5296   0.4566      0.1197      0.9924      3968.417    2091.7226   2.5788      
2022.682    0.423       0.1298      0.9739      3948.0378   2094.5464   2.5635      
2022.8344   0.3639      0.1492      0.9212      3894.7487   2069.888    2.5227      
2022.9868   0.3201      0.1651      0.8688      3867.6226   2060.5029   2.4871      
2023.1392   0.2875      0.1806      0.8234      3848.2339   2066.7228   2.4472      
2023.2916   0.2456      0.2081      0.7673      3811.8789   2114.2182   2.3767      
2023.444    0.228       0.2239      0.7487      3769.122    2140.0541   2.3317      
2023.5964   0.2089      0.2421      0.725       3703.7728   2147.061    2.2801      
2023.7488   0.2031      0.245       0.7067      3682.4616   2138.4841   2.2652      
2023.9012   0.1951      0.244       0.6821      3672.1057   2125.1434   2.2595      
2024.0536   0.1912      0.2431      0.6693      3672.0      2122.8366   2.2595      
2024.206    0.1825      0.2432      0.6555      3671.1308   2125.3853   2.2595      
2024.3584   0.1822      0.2439      0.6481      3662.6276   2126.7782   2.2595      
2024.5108   0.1907      0.246       0.6437      3655.2634   2130.9385   2.2569      
2024.6632   0.2059      0.2465      0.6408      3659.4681   2134.6978   2.2528      
2024.8156   0.2343      0.2462      0.6446      3702.5861   2149.9048   2.2447      
2024.968    0.2483      0.2442      0.6471      3743.5879   2157.7485   2.2389      
2025.1204   0.2478      0.2404      0.6587      3795.9537   2165.3847   2.2449      
2025.2728   0.2332      0.2377      0.6671      3830.921    2169.6882   2.254       
2025.4252   0.1958      0.2379      0.6694      3863.4111   2169.2657   2.2694      
2025.5776   0.1726      0.24        0.6644      3863.8947   2165.9824   2.2773      
2025.73     0.1626      0.2499      0.6371      3838.0734   2155.2841   2.2734      
2025.8824   0.1637      0.2572      0.6193      3837.1148   2151.7024   2.2559      
2026.0348   0.1764      0.2614      0.5991      3867.9021   2141.5136   2.228       
2026.1872   0.1873      0.2602      0.5947      3893.0621   2141.497    2.2199      
2026.3396   0.1989      0.2561      0.5924      3990.6172   2141.5      2.2197      
2026.492    0.2199      0.2465      0.5913      4184.9887   2141.7423   2.2186      
2026.6444   0.2391      0.2412      0.6055      4296.5355   2140.3319   2.2361      
2026.7968   0.2988      0.2181      0.7099      4339.3562   2099.4642   2.3163      
2026.9492   0.3332      0.2006      0.7973      4246.8411   2067.8844   2.3759      
2027.1016   0.3543      0.1663      0.9335      3995.5574   2004.2031   2.4759      
2027.254    0.339       0.1519      0.9807      3935.1596   1995.1378   2.5041      
2027.4064   0.2881      0.1369      0.9923      3946.7862   1998.0537   2.5126      
2027.5588   0.2797      0.1316      0.9947      3946.5826   1993.9777   2.5195      
2027.7112   0.2991      0.132       0.9949      3933.5045   1985.9109   2.5314      
2027.8636   0.3146      0.1407      0.9949      3904.6914   1978.4889   2.5326      
2028.016    0.3218      0.1522      0.9949      3851.6105   1970.3403   2.5277      
2028.1684   0.3203      0.1535      0.9949      3826.5869   1962.6416   2.5265      
2028.3208   0.3404      0.1488      0.9949      3830.6574   1957.4357   2.5292      
2028.4732   0.3744      0.1467      0.9949      3849.3006   1963.2097   2.5295      
2028.6256   0.4402      0.1465      0.9949      3880.7779   1986.4169   2.5295      
2028.778    0.4662      0.1471      0.9949      3888.8021   2005.1473   2.5295      
2028.9304   0.4579      0.1583      0.9949      3901.7659   2037.4075   2.5213      
2029.0828   0.4353      0.1671      0.9949      3915.1545   2063.6873   2.512       
2029.2352   0.3795      0.1891      0.9949      3955.3086   2106.7526   2.4662      
2029.3876   0.3539      0.1993      0.9949      3968.3701   2136.3291   2.437       
2029.54     0.3302      0.2083      0.9949      3979.7683   2161.4726   2.4145      
2029.6924   0.2815      0.2221      0.9949      4010.6993   2188.8123   2.3824      
2029.8448   0.2568      0.2245      0.9949      4032.3788   2207.3103   2.3706      
2029.9972   0.2215      0.2262      0.9949      4065.6965   2232.8845   2.354       
2030.1496   0.2011      0.2256      0.9949      4062.6551   2235.896    2.3541      
2030.302    0.1771      0.2222      0.9949      4080.9989   2241.2059   2.3544      
2030.4544   0.1703      0.2195      0.9949      4081.9837   2241.715    2.3563      
2030.6068   0.1644      0.2168      0.9949      4090.5738   2232.2095   2.3635      
2030.7592   0.1731      0.2154      0.9949      4096.5147   2228.1002   2.3682      
2030.9116   0.2066      0.213       0.9949      4107.2435   2227.2072   2.3788      
2031.064    0.2341      0.2114      0.9949      4113.1765   2227.2      2.3843      
2031.2164   0.2777      0.2086      0.9949      4133.3392   2227.2      2.3852      
2031.3688   0.3065      0.2021      0.9949      4140.6031   2227.2      2.3864      
2031.5212   0.3145      0.1902      0.9949      4151.6511   2227.2      2.4075      
2031.6736   0.3075      0.183       0.9949      4158.4629   2227.2      2.4243      
2031.826    0.2758      0.1824      0.9949      4172.266    2229.3451   2.4366      
2031.9784   0.2531      0.184       0.9949      4190.6437   2238.772    2.4347      
2032.1308   0.25        0.1833      0.9949      4273.043    2289.5694   2.4344      
2032.2832   0.2586      0.1802      0.9949      4355.6409   2321.0879   2.4348      
2032.4356   0.288       0.1607      0.9949      4431.7919   2331.7411   2.4548      
2032.588    0.3047      0.1399      0.9949      4429.361    2330.82     2.4823      
2032.7404   0.3107      0.1117      0.9949      4424.1572   2321.171    2.521       
2032.8928   0.3143      0.1009      0.9949      4394.6336   2311.7288   2.576       
2033.0452   0.2929      0.1154      0.9949      4362.5424   2300.5054   2.5804      
2033.1976   0.2412      0.1676      0.9949      4247.6876   2262.5362   2.528       
2033.35     0.2         0.2079      0.9949      4134.5565   2232.4801   2.4588      
2033.5024   0.1486      0.2435      0.9949      3973.8779   2190.6033   2.3666      
2033.6548   0.1347      0.2516      0.9949      3914.9218   2177.5278   2.3321      
2033.8072   0.1384      0.2548      0.9949      3881.1883   2160.3849   2.3074      
2033.9596   0.1474      0.2548      0.9949      3874.1275   2156.125    2.3056      
2034.112    0.1714      0.2516      0.9949      3872.6123   2155.8513   2.3087      
2034.2644   0.1834      0.2497      0.9949      3872.6      2156.1483   2.3086      
2034.4168   0.1982      0.251       0.9949      3872.7021   2145.8174   2.3046      
2034.5692   0.1984      0.2548      0.9949      3873.3171   2135.0476   2.3002      
2034.7216   0.1868      0.2579      0.9949      3861.9649   2121.6504   2.2963      
2034.874    0.1732      0.2598      0.9949      3842.5265   2115.3364   2.2963      
2035.0264   0.1559      0.2574      0.9949      3799.4434   2063.2476   2.2968      
2035.1788   0.1519      0.2544      0.9949      3771.0821   2008.8338   2.2988      
2035.3312   0.1736      0.2443      0.9949      3758.1097   1924.9801   2.3116      
2035.4836   0.2003      0.2333      0.9949      3750.7364   1877.9871   2.3258      
2035.636    0.2926      0.2052      0.9949      3751.3651   1855.9501   2.3884      
2035.7884   0.355       0.1875      0.9949      3751.8128   1854.6405   2.4337      
2035.9408   0.4188      0.1736      0.9949      3685.0615   1842.0426   2.4805      
2036.0932   0.4749      0.1557      0.9949      3587.9731   1808.6968   2.535       
2036.2456   0.4703      0.1483      0.9949      3650.3085   1838.7195   2.5479      
2036.398    0.4404      0.1395      0.9949      3913.0526   1955.625    2.5574      
2036.5504   0.4195      0.1333      0.9949      3955.8328   1995.6697   2.558       
2036.7028   0.4116      0.1252      0.9949      4003.4337   2056.3043   2.5628      
2036.8552   0.4152      0.1224      0.9949      4028.5664   2076.189    2.5683      
