#----------------------------------------------------------------------------
~VERSION INFORMATION
VERS.            2.0                  :CWLS LOG ASCII STANDARD -VERSION 2.0
WRAP.            NO                   :ONE LINE PER DEPTH STEP
#
#--------------------------------------------------------------------
~WELL INFORMATION
#MNEM .UNIT      DATA                 :DESCRIPTION OF MNEMONIC
#----------      ------------         -------------------------------
STRT  .m         1900.0               :START DEPTH
STEP  .m         0.1524               :STEP DEPTH
STOP  .m         2100.0               :STOP DEPTH
NULL  .          -999.25              :NULL VALUE
COMP  .                               :COMPANY
WELL  .          Grana2018            :WELL
LOC   .                               :LOCATION - AREA
FLD   .                               :FIELD
CTRY  .                               :COUNTRY
DATE  .                               :WELL DATE

XWELL .m          0                    :X POS
YWELL .m          0                    :Y POS
EDF   .          0.0                  :DERRICK FLOOR ELEVATION
#
#----------------------------------------------------------------------------
~CURVE INFORMATION
#MNEM.UNIT                                  : CURVE DESCRIPTION
#----------                                 -------------------------------
DEPT        .m                              : 1      DEPTH
VCL         .fract                          : 2      Volume
PHIT        .fract                          : 3      Por
SW          .fract                          : 4      Sat
VP          .m/s                            : 5      Vp
VS          .m/s                            : 6      Vs
RHOB        .g/cm3                          : 7      Rho
#
#----------------------------------------------------------------------------
~A          VOL_CLAY    PHI         SW          VP          VS          RHOB        
# ...
1964.6176   0.3848      0.1334      0.8162      4059.6929   2146.6475   2.4454      
1964.77     0.4053      0.1223      0.9089      4094.0394   2175.717    2.481       
1964.9224   0.3971      0.1109      0.9851      4115.8908   2216.3638   2.5056      
1965.0748   0.3881      0.1065      0.9948      4112.5142   2237.3292   2.5094      
1965.2272   0.38        0.111       0.9464      4093.4123   2257.4442   2.5125      
1965.3796   0.3723      0.1189      0.8987      4074.9599   2269.2268   2.5104      
1965.532    0.3333      0.1383      0.7893      4037.5939   2286.5556   2.4851      
1965.6844   0.2927      0.1515      0.7184      4004.612    2285.6384   2.4672      
1965.8368   0.2166      0.1693      0.6266      3937.6681   2254.2826   2.4364      
1965.9892   0.1699      0.1813      0.56        3895.3619   2229.5205   2.4215      
1966.1416   0.1231      0.198       0.4538      3861.1186   2204.0819   2.3808      
1966.294    0.063       0.225       0.2778      3813.8684   2171.6267   2.2917      
1966.4464   0.0417      0.2381      0.1961      3792.9355   2149.2323   2.2297      
1966.5988   0.0146      0.2513      0.107       3751.5743   2123.2044   2.1332      
1966.7512   0.0142      0.254       0.0874      3718.504    2111.3828   2.1043      
1966.9036   0.0227      0.2569      0.0692      3663.7116   2108.2348   2.094       
1967.056    0.0352      0.257       0.0667      3656.1703   2108.2829   2.0894      
1967.2084   0.0716      0.2489      0.0717      3655.5019   2098.3066   2.0819      
1967.3608   0.0956      0.2408      0.0819      3668.5312   2090.2778   2.0846      
1967.5132   0.1188      0.2315      0.1069      3671.9734   2089.246    2.1137      
1967.6656   0.1218      0.2307      0.1175      3672.0      2089.463    2.1322      
1967.818    0.0853      0.2392      0.1136      3671.8937   2084.5667   2.1401      
1967.9704   0.0529      0.2469      0.1099      3671.2781   2079.8346   2.131       
1968.1228   0.0218      0.2522      0.1021      3679.5588   2086.8714   2.1141      
1968.2752   0.0128      0.2539      0.1         3676.3406   2089.008    2.1139      
1968.4276   0.01        0.2572      0.088       3672.0549   2089.2779   2.1125      
1968.58     0.0083      0.2588      0.0795      3672.0      2089.6763   2.1092      
1968.7324   0.0081      0.2628      0.0719      3671.8425   2084.592    2.0939      
1968.8848   0.0081      0.2659      0.0687      3671.22     2084.4019   2.0822      
1969.0372   0.008       0.2714      0.081       3678.6239   2084.4      2.0605      
1969.1896   0.0083      0.2756      0.1044      3673.1912   2084.4444   2.0493      
1969.342    0.0095      0.2761      0.1321      3672.4022   2087.6005   2.048       
1969.4944   0.0101      0.2762      0.167       3656.014    2089.1849   2.0534      
1969.6468   0.0086      0.2746      0.1682      3648.633    2089.2      2.0671      
1969.7992   0.0081      0.2762      0.1455      3628.2176   2088.6094   2.0813      
1969.9516   0.0081      0.2778      0.1294      3607.8666   2081.3711   2.0866      
1970.104    0.0081      0.2834      0.1065      3574.6714   2078.7572   2.0806      
1970.2564   0.0081      0.2859      0.0967      3561.0049   2068.4335   2.0713      
1970.4088   0.0081      0.287       0.0791      3540.0696   2033.7813   2.0537      
1970.5612   0.0081      0.284       0.0808      3540.9426   2008.9633   2.0559      
1970.7136   0.0082      0.2812      0.0895      3541.1981   1971.2618   2.0671      
1970.866    0.0098      0.2812      0.0932      3541.2      1961.5337   2.0776      
1971.0184   0.0102      0.2798      0.1042      3541.2      1995.6789   2.0751      
1971.1708   0.0114      0.2771      0.1202      3541.2      2024.4236   2.0696      
1971.3232   0.0164      0.267       0.1583      3541.2      2060.5293   2.0863      
1971.4756   0.0207      0.2616      0.1834      3541.2      2060.6366   2.1061      
1971.628    0.0326      0.254       0.2209      3540.645    2061.5468   2.1398      
1971.7804   0.041       0.2543      0.2229      3535.4844   2069.3923   2.1598      
1971.9328   0.0465      0.2578      0.2111      3517.0292   2069.6417   2.1586      
1972.0852   0.0468      0.2595      0.1991      3524.3427   2066.7811   2.1563      
1972.2376   0.0452      0.2611      0.1875      3511.8483   2061.6126   2.155       
1972.39     0.0461      0.2627      0.1703      3513.4487   2060.6075   2.1547      
1972.5424   0.0487      0.2641      0.1646      3526.4754   2060.6      2.1555      
1972.6948   0.0622      0.2697      0.1658      3539.9839   2060.7478   2.1497      
1972.8472   0.0627      0.2723      0.1658      3560.719    2063.8381   2.1385      
1972.9996   0.0621      0.273       0.1657      3567.8208   2074.6277   2.1157      
1973.152    0.0532      0.2715      0.1639      3581.2673   2078.516    2.1101      
1973.3044   0.0464      0.2637      0.1579      3595.3053   2088.7553   2.113       
1973.4568   0.0466      0.2602      0.1536      3615.6735   2081.198    2.1202      
1973.6092   0.0481      0.2603      0.147       3656.8288   2064.5879   2.126       
1973.7616   0.0448      0.2626      0.1385      3671.3473   2065.193    2.1165      
1973.914    0.0269      0.2657      0.1264      3669.4247   2071.0913   2.1097      
1974.0664   0.0226      0.2633      0.1199      3655.9233   2078.8214   2.1146      
1974.2188   0.0112      0.2561      0.1218      3624.3625   2079.5952   2.1372      
1974.3712   0.0098      0.2537      0.1319      3611.197    2079.6      2.1513      
1974.5236   0.0099      0.2572      0.1345      3592.336    2079.6088   2.1778      
1974.676    0.0083      0.2632      0.1324      3593.1932   2079.2356   2.1765      
1974.8284   0.0084      0.2793      0.1106      3582.7094   2084.1987   2.1516      
1974.9808   0.0102      0.2908      0.0903      3574.7871   2084.3      2.1101      
1975.1332   0.0082      0.3041      0.0621      3585.0784   2078.5799   2.0492      
1975.2856   0.0081      0.3089      0.0473      3593.2323   2074.678    2.0042      
1975.438    0.0081      0.3077      0.0391      3592.4378   2075.4875   1.9705      
1975.5904   0.0081      0.3034      0.0307      3619.3479   2066.3824   1.959       
1975.7428   0.0081      0.2987      0.0322      3619.7523   2062.735    1.9666      
1975.8952   0.0081      0.292       0.0374      3619.7004   2052.0007   1.9875      
1976.0476   0.0081      0.2894      0.0485      3619.7      2041.237    2.0023      
1976.2      0.0081      0.2865      0.0708      3620.9698   2022.9949   2.0196      
1976.3524   0.0081      0.2865      0.0797      3640.3081   2014.7781   2.025       
1976.5048   0.0083      0.2864      0.0752      3647.2246   2014.4608   2.0254      
1976.6572   0.0098      0.2856      0.0637      3660.8505   2021.7039   2.0211      
1976.8096   0.0097      0.2836      0.0533      3672.759    2047.9562   2.0179      
1976.962    0.0084      0.2805      0.054       3671.5542   2063.2379   2.0203      
1977.1144   0.0081      0.2762      0.0605      3671.9905   2076.9302   2.0335      
1977.2668   0.0081      0.2764      0.0663      3672.0      2080.286    2.0466      
1977.4192   0.0089      0.2812      0.0689      3678.306    2084.969    2.0451      
1977.5716   0.01        0.284       0.0689      3697.5953   2088.971    2.037       
1977.724    0.008       0.2851      0.0687      3699.8857   2095.8807   2.0276      
1977.8764   0.0081      0.284       0.0677      3706.6726   2103.4092   2.0263      
1978.0288   0.0081      0.2826      0.0655      3737.2406   2109.3757   2.0262      
1978.1812   0.0081      0.2813      0.0714      3767.8253   2113.2202   2.0264      
1978.3336   0.0081      0.2813      0.0794      3803.1978   2113.028    2.0326      
1978.486    0.0081      0.2814      0.0791      3811.9362   2113.0873   2.0323      
1978.6384   0.0081      0.2807      0.0792      3830.4951   2116.5487   2.0324      
1978.7908   0.0081      0.2782      0.0716      3870.4251   2127.5169   2.0354      
1978.9432   0.0081      0.2767      0.075       3912.0488   2127.3941   2.0379      
