#----------------------------------------------------------------------------
~VERSION INFORMATION
VERS.            2.0                  :CWLS LOG ASCII STANDARD -VERSION 2.0
WRAP.            NO                   :ONE LINE PER DEPTH STEP
#
#--------------------------------------------------------------------
~WELL INFORMATION
#MNEM .UNIT      DATA                 :DESCRIPTION OF MNEMONIC
#----------      ------------         -------------------------------
STRT  .m         0.0                  :START DEPTH
STEP  .m         0.1524               :STEP DEPTH
STOP  .m         4000.0               :STOP DEPTH
NULL  .          -999.25              :NULL VALUE
COMP  .                               :COMPANY
WELL  .          Well5                :WELL
LOC   .                               :LOCATION - AREA
FLD   .                               :FIELD
CTRY  .                               :COUNTRY
DATE  .                               :WELL DATE

XWELL .m          0                    :X POS
YWELL .m          0                    :Y POS
EDF   .          0.0                  :DERRICK FLOOR ELEVATION
#
#----------------------------------------------------------------------------
~CURVE INFORMATION
#MNEM.UNIT                                  : CURVE DESCRIPTION
#----------                                 -------------------------------
DEPT        .m                              : 1      DEPTH
GR          .API                            : 2      GR
PR          .unitless                       : 3      Poisson_Ratio
RHOB        .g/cm3                          : 4      Rho
CALI        .m                              : 5      Cal
VELC        .m/s                            : 6      Vp
VELS        .m/s                            : 7      Vs
Vcdry       .fract                          : 8      Volume
Vbw         .fract                          : 9      Volume
Vcal        .fract                          : 10     Volume
Vqz         .fract                          : 11     Volume
Vparphi     .fract                          : 12     Volume
Voil        .fract                          : 13     Volume
Vgas        .fract                          : 14     Volume
Vw          .fract                          : 15     Volume
Vp_elastic  .m/s                            : 16     Vp
Vs_elastic  .m/s                            : 17     Vs
Rho_elastic .g/cm3                          : 18     Rho
#
#----------------------------------------------------------------------------
~A          GR          PR          RHOB        CALI        VELC        VELS        Vcdry       Vbw         Vcal        Vqz         Vparphi     Voil        Vgas        Vw          Vp_elastic  Vs_elastic  Rho_elastic 
# ...
3608.832    105.9783    0.2256      2.5782      0.3052      4132.7941   2460.0027   0.604       0.1237      0.0         0.2491      0.0232      0.0         0.0         0.0         4107.2266   2404.6885   2.5947      
3608.9844   106.4015    0.2273      2.5794      0.305       4137.2941   2457.9      0.6163      0.1263      0.0         0.2353      0.0221      0.0         0.0         0.0         4107.473    2404.8648   2.5947      
3609.1368   106.6858    0.2269      2.5812      0.3048      4141.7941   2461.694    0.6482      0.1328      0.0         0.199       0.0199      0.0         0.0         0.0         4107.7265   2405.0463   2.5947      
3609.2892   106.5619    0.2259      2.5838      0.305       4146.2935   2467.3933   0.6297      0.129       0.0         0.2216      0.0198      0.0         0.0         0.0         4107.9873   2405.2331   2.5948      
3609.4416   107.1555    0.2254      2.5883      0.3073      4151.8909   2471.9967   0.5988      0.1227      0.0         0.2591      0.0195      0.0         0.0         0.0         4108.2552   2405.4251   2.5948      
3609.594    109.9612    0.2267      2.5971      0.3084      4160.9853   2473.697    0.5688      0.1165      0.0         0.2976      0.0171      0.0         0.0         0.0         4108.5302   2405.6223   2.5948      
3609.7464   109.0407    0.2285      2.6016      0.3093      4175.6753   2477.0931   0.5554      0.1137      0.0         0.3144      0.0164      0.0         0.0         0.0         4108.8123   2405.8246   2.5949      
3609.8988   104.4949    0.2299      2.6023      0.3101      4201.9689   2488.5854   0.5376      0.1101      0.0         0.3334      0.019       0.0         0.0         0.0         4109.1014   2406.032    2.5949      
3610.0512   103.459     0.2305      2.5994      0.3116      4223.5783   2499.3867   0.5256      0.1077      0.0         0.3455      0.0213      0.0         0.0         0.0         4109.3973   2406.2445   2.5949      
3610.2036   104.8296    0.23        2.593       0.3121      4236.9811   2508.8827   0.5194      0.1064      0.0         0.3506      0.0236      0.0         0.0         0.0         4109.7002   2406.4621   2.595       
3610.356    105.9108    0.226       2.588       0.312       4252.5786   2530.2676   0.512       0.1048      0.0         0.3576      0.0255      0.0         0.0         0.0         4110.0099   2406.6846   2.595       
3610.5084   104.9804    0.2196      2.5845      0.3111      4269.6676   2559.3661   0.4859      0.0995      0.0         0.3876      0.0269      0.0         0.0         0.0         4110.3264   2406.9121   2.595       
3610.6608   102.5147    0.2207      2.5829      0.3091      4313.9435   2582.5722   0.4305      0.0882      0.0         0.4526      0.0289      0.0         0.0         0.0         4110.6496   2407.1446   2.5951      
3610.8132   97.2779     0.2226      2.5859      0.3081      4355.7999   2602.0999   0.3461      0.0709      0.0         0.55        0.0329      0.0         0.0         0.0         4110.9795   2407.382    2.5951      
3610.9656   93.848      0.2213      2.5888      0.3073      4345.1162   2599.5043   0.3042      0.0623      0.0         0.5964      0.0304      0.0         0.0025      0.0043      4111.3161   2407.6242   2.5951      
3611.118    93.0195     0.2199      2.5862      0.307       4330.6225   2595.1073   0.3184      0.0652      0.0         0.5781      0.0348      0.0         0.0012      0.0023      4111.6592   2407.8713   2.5952      
3611.2704   94.29       0.2182      2.5744      0.3069      4309.6202   2587.5139   0.3714      0.0761      0.0         0.5126      0.0399      0.0         0.0         0.0         4112.0088   2408.1233   2.5952      
3611.4228   95.1632     0.2217      2.5585      0.3068      4297.5116   2569.9263   0.396       0.0811      0.0         0.4779      0.045       0.0         0.0         0.0         4112.3649   2408.38     2.5952      
3611.5752   96.6199     0.228       2.546       0.3076      4290.5139   2546.6154   0.4106      0.0841      0.0         0.4561      0.0493      0.0         0.0         0.0         4112.7274   2408.6414   2.5953      
3611.7276   97.9304     0.2263      2.5387      0.3082      4268.7263   2538.8075   0.413       0.0846      0.0         0.4503      0.0519      0.0         0.0         0.0         4113.0962   2408.9076   2.5953      
3611.88     99.8435     0.2241      2.5312      0.3084      4250.229    2534.3075   0.4412      0.0903      0.0         0.4173      0.0511      0.0         0.0         0.0         4113.4714   2409.1784   2.5953      
3612.0324   96.3834     0.2213      2.5248      0.3085      4222.7367   2526.4107   0.4434      0.0908      0.0         0.4141      0.0518      0.0         0.0         0.0         4113.8528   2409.4539   2.5954      
3612.1848   94.1149     0.2183      2.5255      0.3087      4194.3223   2517.9      0.446       0.0913      0.0         0.4129      0.0498      0.0         0.0         0.0         4114.2404   2409.7341   2.5954      
3612.3372   91.6365     0.2154      2.5334      0.3085      4182.2055   2518.7979   0.4244      0.0869      0.0         0.4408      0.0479      0.0         0.0         0.0         4114.6342   2410.0188   2.5954      
3612.4896   89.7981     0.2125      2.5371      0.3084      4179.7026   2525.4904   0.4122      0.0844      0.0         0.4566      0.0467      0.0         0.0         0.0         4115.0341   2410.3081   2.5954      
3612.642    88.4355     0.2092      2.5365      0.3085      4178.1      2533.5879   0.4237      0.0868      0.0         0.4433      0.0463      0.0         0.0         0.0         4115.4401   2410.6019   2.5955      
3612.7944   87.3704     0.2053      2.5414      0.3087      4178.1      2544.387    0.4574      0.0936      0.0         0.4037      0.0453      0.0         0.0         0.0         4115.852    2410.9001   2.5955      
3612.9468   88.0629     0.202       2.5521      0.3085      4178.6986   2553.5      0.4806      0.0984      0.0         0.3767      0.0443      0.0         0.0         0.0         4116.2699   2411.2029   2.5955      
3613.0992   92.3197     0.2042      2.5568      0.3084      4183.7933   2550.8035   0.4834      0.099       0.0         0.3736      0.044       0.0         0.0         0.0         4116.6937   2411.5101   2.5956      
3613.2516   93.3467     0.2063      2.5564      0.3084      4188.9      2548.1048   0.4708      0.0964      0.0         0.3865      0.0464      0.0         0.0         0.0         4117.1233   2411.8216   2.5956      
3613.404    91.0986     0.202       2.5482      0.3085      4160.7397   2542.5075   0.4704      0.0963      0.0         0.3827      0.0505      0.0         0.0         0.0         4117.5587   2412.1375   2.5956      
3613.5564   90.85       0.1967      2.5311      0.3093      4128.2069   2536.6069   0.5019      0.1028      0.0         0.3422      0.0531      0.0         0.0         0.0         4117.9998   2412.4578   2.5957      
3613.7088   91.5613     0.1979      2.5189      0.3109      4125.4      2531.806    0.537       0.11        0.0         0.2999      0.0532      0.0         0.0         0.0         4118.4466   2412.7823   2.5957      
3613.8612   90.8376     0.203       2.5201      0.3119      4140.2893   2527.5054   0.5528      0.1132      0.0         0.2816      0.0524      0.0         0.0         0.0         4118.8991   2413.1111   2.5957      
3614.0136   91.5226     0.2057      2.5275      0.3121      4145.9      2523.505    0.5532      0.1133      0.0         0.2824      0.0512      0.0         0.0         0.0         4119.3571   2413.4442   2.5958      
3614.166    92.4927     0.2048      2.5319      0.3121      4135.9127   2519.905    0.5396      0.1105      0.0         0.2983      0.0515      0.0         0.0         0.0         4119.8206   2413.7814   2.5958      
3614.3184   94.8952     0.2042      2.5297      0.3121      4126.6085   2515.8071   0.5392      0.1104      0.0         0.299       0.0514      0.0         0.0         0.0         4120.2897   2414.1228   2.5958      
