#----------------------------------------------------------------------------
~VERSION INFORMATION
VERS.            2.0                  :CWLS LOG ASCII STANDARD -VERSION 2.0
WRAP.            NO                   :ONE LINE PER DEPTH STEP
#
#--------------------------------------------------------------------
~WELL INFORMATION
#MNEM .UNIT      DATA                 :DESCRIPTION OF MNEMONIC
#----------      ------------         -------------------------------
STRT  .m         0.0                  :START DEPTH
STEP  .m         0.1524               :STEP DEPTH
STOP  .m         4000.0               :STOP DEPTH
NULL  .          -999.25              :NULL VALUE
COMP  .                               :COMPANY
WELL  .          Well5                :WELL
LOC   .                               :LOCATION - AREA
FLD   .                               :FIELD
CTRY  .                               :COUNTRY
DATE  .                               :WELL DATE

XWELL .m          0                    :X POS
YWELL .m          0                    :Y POS
EDF   .          0.0                  :DERRICK FLOOR ELEVATION
#
#----------------------------------------------------------------------------
~CURVE INFORMATION
#MNEM.UNIT                                  : CURVE DESCRIPTION
#----------                                 -------------------------------
DEPT        .m                              : 1      DEPTH
GR          .API                            : 2      GR
PR          .unitless                       : 3      Poisson_Ratio
RHOB        .g/cm3                          : 4      Rho
CALI        .m                              : 5      Cal
VELC        .m/s                            : 6      Vp
VELS        .m/s                            : 7      Vs
Vcdry       .fract                          : 8      Volume
Vbw         .fract                          : 9      Volume
Vcal        .fract                          : 10     Volume
Vqz         .fract                          : 11     Volume
Vparphi     .fract                          : 12     Volume
Voil        .fract                          : 13     Volume
Vgas        .fract                          : 14     Volume
Vw          .fract                          : 15     Volume
Vp_elastic  .m/s                            : 16     Vp
Vs_elastic  .m/s                            : 17     Vs
Rho_elastic .g/cm3                          : 18     Rho
#
#----------------------------------------------------------------------------
~A          GR          PR          RHOB        CALI        VELC        VELS        Vcdry       Vbw         Vcal        Vqz         Vparphi     Voil        Vgas        Vw          Vp_elastic  Vs_elastic  Rho_elastic 
# ...
3326.892    104.8892    0.2272      2.5139      0.3025      4313.9818   2563.0388   0.5552      0.1137      0.0         0.2699      0.0615      0.0         0.0         0.0         3937.9197   2404.5625   2.499       
3327.0444   107.1548    0.2226      2.4801      0.3021      4247.7855   2537.4333   0.5157      0.1057      0.0         0.3021      0.0766      0.0         0.0         0.0         3937.3513   2404.4209   2.4988      
3327.1968   108.0031    0.218       2.4616      0.3029      4183.7128   2512.3368   0.5133      0.1052      0.0         0.3001      0.0814      0.0         0.0         0.0         3936.7881   2404.2806   2.4986      
3327.3492   107.347     0.2005      2.4573      0.3034      4053.0661   2480.6411   0.4957      0.1016      0.0         0.3198      0.083       0.0         0.0         0.0         3936.2305   2404.1417   2.4984      
3327.5016   106.5117    0.1824      2.4575      0.3041      3930.4303   2449.738    0.4905      0.1005      0.0         0.3268      0.0822      0.0         0.0         0.0         3935.6784   2404.0041   2.4982      
3327.654    105.3832    0.1905      2.461       0.3053      3917.8165   2422.5353   0.4878      0.0999      0.0         0.3326      0.0797      0.0         0.0         0.0         3935.132    2403.868    2.498       
3327.8064   104.2371    0.1982      2.4669      0.3068      3905.3      2395.9001   0.4837      0.0991      0.0         0.3411      0.076       0.0         0.0         0.0         3934.5915   2403.7333   2.4978      
3327.9588   106.0124    0.1999      2.4752      0.3085      3935.4599   2410.0812   0.4971      0.1018      0.0         0.332       0.0691      0.0         0.0         0.0         3934.0569   2403.6001   2.4976      
3328.1112   106.1782    0.2017      2.4868      0.3104      3966.2548   2424.4734   0.5221      0.107       0.0         0.3079      0.0631      0.0         0.0         0.0         3933.5284   2403.4685   2.4974      
3328.2636   106.5189    0.1976      2.5017      0.3118      4005.2482   2458.6544   0.572       0.1172      0.0         0.2538      0.0571      0.0         0.0         0.0         3933.0061   2403.3384   2.4971      
3328.416    106.3916    0.1935      2.519       0.3121      4045.2235   2493.8638   0.6038      0.1237      0.0         0.2209      0.0515      0.0         0.0         0.0         3932.4903   2403.2098   2.4969      
3328.5684   106.8844    0.2098      2.5425      0.3121      4152.6554   2516.5701   0.5629      0.1153      0.0         0.2763      0.0455      0.0         0.0         0.0         3931.9808   2403.0829   2.4967      
3328.7208   107.7144    0.2255      2.5759      0.3107      4265.6996   2539.4999   0.4685      0.0959      0.0         0.3995      0.0361      0.0         0.0         0.0         3931.478    2402.9576   2.4965      
3328.8732   102.4671    0.2247      2.6027      0.3082      4259.8079   2538.5014   0.3755      0.0769      0.0         0.5139      0.0336      0.0         0.0         0.0         3930.982    2402.8341   2.4963      
3329.0256   93.6883     0.2238      2.6109      0.3063      4253.714    2537.4026   0.3673      0.0752      0.0         0.5234      0.0341      0.0         0.0         0.0         3930.4928   2402.7122   2.4961      
3329.178    88.9574     0.2184      2.5946      0.3053      4209.7571   2526.9137   0.434       0.0889      0.0         0.4364      0.0407      0.0         0.0         0.0         3930.0106   2402.592    2.4959      
3329.3304   92.4714     0.2129      2.5557      0.3049      4166.7001   2516.5154   0.5259      0.1077      0.0         0.315       0.0512      0.0         0.0         0.0         3929.5356   2402.4737   2.4957      
3329.4828   100.079     0.2189      2.518       0.3048      4172.3926   2503.0176   0.5613      0.115       0.0         0.2543      0.0695      0.0         0.0         0.0         3929.0678   2402.3572   2.4955      
3329.6352   112.3065    0.2247      2.4899      0.305       4178.0      2489.7228   0.5782      0.1184      0.0         0.2217      0.0816      0.0         0.0         0.0         3928.6075   2402.2425   2.4953      
3329.7876   120.0436    0.2234      2.4689      0.3052      4129.9625   2464.6326   0.5831      0.1194      0.0         0.2135      0.0841      0.0         0.0         0.0         3928.1546   2402.1296   2.4951      
3329.94     121.3436    0.2222      2.4541      0.305       4082.8769   2440.0307   0.5576      0.1142      0.0         0.2442      0.0839      0.0         0.0         0.0         3927.7094   2402.0187   2.4949      
3330.0924   120.9998    0.2134      2.4493      0.3048      4005.3      2417.7289   0.5137      0.1052      0.0         0.2997      0.0814      0.0         0.0         0.0         3927.272    2401.9097   2.4947      
3330.2448   119.6455    0.2043      2.4591      0.3051      3930.4003   2395.9184   0.4806      0.0984      0.0         0.343       0.078       0.0         0.0         0.0         3926.8425   2401.8027   2.4946      
3330.3972   116.7006    0.209       2.4808      0.3058      3932.9967   2385.6134   0.4636      0.095       0.0         0.3653      0.0761      0.0         0.0         0.0         3926.421    2401.6977   2.4944      
3330.5496   113.3458    0.2135      2.4868      0.3057      3935.4944   2375.4087   0.4588      0.094       0.0         0.3695      0.0777      0.0         0.0         0.0         3926.0077   2401.5948   2.4942      
3330.702    112.2171    0.2188      2.4788      0.3051      3950.7798   2370.5064   0.4851      0.0994      0.0         0.3372      0.0783      0.0         0.0         0.0         3925.6027   2401.4939   2.494       
3330.8544   115.494     0.2239      2.4856      0.3048      3966.1999   2365.6014   0.5345      0.1095      0.0         0.2827      0.0733      0.0         0.0         0.0         3925.2062   2401.3951   2.4938      
3331.0068   123.6932    0.2202      2.5015      0.305       3948.2235   2365.0008   0.5899      0.1208      0.0         0.226       0.0634      0.0         0.0         0.0         3924.8182   2401.2984   2.4936      
3331.1592   134.1884    0.2165      2.5226      0.3062      3930.4001   2364.3012   0.6333      0.1297      0.0         0.1878      0.0494      0.0         0.0         0.0         3924.4389   2401.2039   2.4934      
3331.3116   141.0916    0.2169      2.5621      0.3063      3930.4      2363.1016   0.6545      0.134       0.0         0.178       0.0336      0.0         0.0         0.0         3924.0684   2401.1116   2.4932      
3331.464    144.2781    0.2174      2.6195      0.3063      3930.4997   2361.9026   0.6878      0.1409      0.0         0.158       0.0132      0.0         0.0         0.0         3923.7069   2401.0215   2.4931      
3331.6164   148.0809    0.2275      2.6613      0.3076      3966.1526   2355.7081   0.7175      0.1469      0.0         0.1356      1.0E-4      0.0         0.0         0.0         3923.3544   2400.9337   2.4929      
3331.7688   148.3178    0.2371      2.6572      0.3085      4002.5999   2349.6052   0.7322      0.15        0.0         0.1179      0.0         0.0         0.0         0.0         3923.0112   2400.8482   2.4927      
3331.9212   143.8405    0.2344      2.6216      0.3085      3984.3239   2346.7037   0.716       0.1467      0.0         0.1296      0.0078      0.0         0.0         0.0         3922.6773   2400.765    2.4925      
3332.0736   137.3763    0.2316      2.5715      0.3085      3966.2001   2344.0      0.6579      0.1348      0.0         0.1825      0.0248      0.0         0.0         0.0         3922.3528   2400.6842   2.4924      
3332.226    131.3304    0.2304      2.5218      0.3087      3966.2      2347.4954   0.5837      0.1196      0.0         0.2542      0.0426      0.0         0.0         0.0         3922.038    2400.6057   2.4922      
3332.3784   122.8612    0.2291      2.4895      0.3086      3966.2      2350.9956   0.528       0.1082      0.0         0.3059      0.0579      0.0         0.0         0.0         3921.7329   2400.5297   2.492       
