#----------------------------------------------------------------------------
~VERSION INFORMATION
VERS.            2.0                  :CWLS LOG ASCII STANDARD -VERSION 2.0
WRAP.            NO                   :ONE LINE PER DEPTH STEP
#
#--------------------------------------------------------------------
~WELL INFORMATION
#MNEM .UNIT      DATA                 :DESCRIPTION OF MNEMONIC
#----------      ------------         -------------------------------
STRT  .m         0.0                  :START DEPTH
STEP  .m         0.1524               :STEP DEPTH
STOP  .m         4000.0               :STOP DEPTH
NULL  .          -999.25              :NULL VALUE
COMP  .                               :COMPANY
WELL  .          Well5                :WELL
LOC   .                               :LOCATION - AREA
FLD   .                               :FIELD
CTRY  .                               :COUNTRY
DATE  .                               :WELL DATE

XWELL .m          0                    :X POS
YWELL .m          0                    :Y POS
EDF   .          0.0                  :DERRICK FLOOR ELEVATION
#
#----------------------------------------------------------------------------
~CURVE INFORMATION
#MNEM.UNIT                                  : CURVE DESCRIPTION
#----------                                 -------------------------------
DEPT        .m                              : 1      DEPTH
GR          .API                            : 2      GR
PR          .unitless                       : 3      Poisson_Ratio
RHOB        .g/cm3                          : 4      Rho
CALI        .m                              : 5      Cal
VELC        .m/s                            : 6      Vp
VELS        .m/s                            : 7      Vs
Vcdry       .fract                          : 8      Volume
Vbw         .fract                          : 9      Volume
Vcal        .fract                          : 10     Volume
Vqz         .fract                          : 11     Volume
Vparphi     .fract                          : 12     Volume
Voil        .fract                          : 13     Volume
Vgas        .fract                          : 14     Volume
Vw          .fract                          : 15     Volume
Vp_elastic  .m/s                            : 16     Vp
Vs_elastic  .m/s                            : 17     Vs
Rho_elastic .g/cm3                          : 18     Rho
#
#----------------------------------------------------------------------------
~A          GR          PR          RHOB        CALI        VELC        VELS        Vcdry       Vbw         Vcal        Vqz         Vparphi     Voil        Vgas        Vw          Vp_elastic  Vs_elastic  Rho_elastic 
# ...
3535.5276   104.7629    0.2298      2.5333      0.3235      4053.1823   2400.5938   0.4045      0.0829      0.0         0.4577      0.055       0.0         0.0         0.0         4086.0666   2409.4954   2.5766      
3535.68     107.8972    0.2309      2.5502      0.3236      4066.7      2405.3909   0.4451      0.0911      0.0         0.4155      0.0483      0.0         0.0         0.0         4086.2926   2409.7808   2.5766      
3535.8324   109.5208    0.2266      2.5569      0.3239      4066.7      2417.7837   0.4662      0.0955      0.0         0.3926      0.0457      0.0         0.0         0.0         4086.5251   2410.0765   2.5765      
3535.9848   111.4718    0.2222      2.5377      0.3237      4066.7      2430.2922   0.4848      0.0993      0.0         0.3686      0.0472      0.0         0.0         0.0         4086.7638   2410.3823   2.5764      
3536.1372   108.7658    0.2203      2.525       0.3236      4064.0034   2434.1952   0.4969      0.1018      0.0         0.3511      0.0502      0.0         0.0         0.0         4087.0088   2410.6982   2.5763      
3536.2896   108.4687    0.2185      2.5203      0.3238      4061.5048   2437.6      0.5105      0.1046      0.0         0.3342      0.0507      0.0         0.0         0.0         4087.2599   2411.024    2.5762      
3536.442    107.0939    0.2172      2.5203      0.324       4054.909    2437.4004   0.522       0.107       0.0         0.3201      0.051       0.0         0.0         0.0         4087.517    2411.3596   2.5761      
3536.5944   105.4921    0.2159      2.5214      0.3245      4047.7142   2436.6016   0.5376      0.1101      0.0         0.3014      0.051       0.0         0.0         0.0         4087.7802   2411.7048   2.576       
3536.7468   107.2111    0.2119      2.525       0.3256      4025.8335   2434.2037   0.5612      0.115       0.0         0.2752      0.0486      0.0         0.0         0.0         4088.0492   2412.0595   2.5759      
3536.8992   108.4591    0.2062      2.5321      0.3269      3995.2345   2430.7045   0.5688      0.1165      0.0         0.2678      0.0469      0.0         0.0         0.0         4088.324    2412.4236   2.5758      
3537.0516   108.1725    0.202       2.5393      0.3274      3972.2201   2427.3043   0.5549      0.1137      0.0         0.2845      0.047       0.0         0.0         0.0         4088.6045   2412.7969   2.5757      
3537.204    107.6397    0.2005      2.5449      0.3279      3960.7126   2424.1038   0.5205      0.1066      0.0         0.3244      0.0485      0.0         0.0         0.0         4088.8906   2413.1793   2.5756      
3537.3564   108.669     0.1995      2.545       0.3305      3952.5      2421.5      0.5119      0.1048      0.0         0.3342      0.0491      0.0         0.0         0.0         4089.1823   2413.5707   2.5755      
3537.5088   111.1197    0.202       2.5401      0.3311      3966.1819   2423.6971   0.5434      0.1113      0.0         0.2971      0.0481      0.0         0.0         0.0         4089.4794   2413.9709   2.5754      
3537.6612   113.2017    0.2044      2.5342      0.3302      3980.0719   2425.8956   0.5798      0.1188      0.0         0.2541      0.0473      0.0         0.0         0.0         4089.7819   2414.3798   2.5753      
3537.8136   112.8412    0.2125      2.5317      0.3283      4026.6351   2432.8904   0.5744      0.1176      0.0         0.2587      0.0491      0.0         0.0         0.0         4090.0896   2414.7972   2.5752      
3537.966    108.647     0.2213      2.5334      0.3272      4079.3489   2440.589    0.526       0.1078      0.0         0.313       0.0533      0.0         0.0         0.0         4090.4025   2415.2231   2.5751      
3538.1184   104.6018    0.2245      2.5358      0.3254      4110.1708   2449.7874   0.4823      0.0988      0.0         0.3634      0.0556      0.0         0.0         0.0         4090.7205   2415.6573   2.575       
3538.2708   103.0404    0.2246      2.5402      0.3234      4127.5719   2459.8871   0.4407      0.0902      0.0         0.4151      0.054       0.0         0.0         0.0         4091.0436   2416.0996   2.5748      
3538.4232   102.9573    0.227       2.5569      0.3254      4155.3546   2469.4882   0.4151      0.085       0.0         0.4516      0.0483      0.0         0.0         0.0         4091.3715   2416.5499   2.5747      
3538.5756   104.3681    0.2332      2.5719      0.3282      4201.0414   2477.9893   0.3913      0.0801      0.0         0.4855      0.043       0.0         0.0         0.0         4091.7043   2417.0081   2.5746      
3538.728    107.1617    0.239       2.5826      0.3303      4244.6626   2485.8941   0.3808      0.078       0.0         0.5019      0.0393      0.0         0.0         0.0         4092.0419   2417.474    2.5744      
3538.8804   108.7107    0.2419      2.5838      0.3311      4265.7716   2488.9955   0.3811      0.078       0.0         0.5022      0.0387      0.0         0.0         0.0         4092.3841   2417.9476   2.5743      
3539.0328   109.0641    0.2447      2.5755      0.3314      4287.9999   2492.8955   0.3931      0.0805      0.0         0.485       0.0414      0.0         0.0         0.0         4092.7308   2418.4286   2.5742      
3539.1852   108.1854    0.2413      2.5629      0.3312      4274.318    2495.9968   0.3989      0.0817      0.0         0.4732      0.0462      0.0         0.0         0.0         4093.0821   2418.917    2.574       
3539.3376   106.9982    0.2381      2.5559      0.3311      4260.6179   2498.0      0.4002      0.0819      0.0         0.4677      0.0501      0.0         0.0         0.0         4093.4378   2419.4126   2.5739      
3539.49     106.6074    0.2356      2.5575      0.3313      4247.0212   2497.9003   0.4067      0.0834      0.0         0.4587      0.0512      0.0         0.0         0.0         4093.7977   2419.9152   2.5738      
3539.6424   109.1502    0.2358      2.5619      0.3317      4227.2281   2485.5199   0.4276      0.0876      0.0         0.436       0.0487      0.0         0.0         0.0         4094.162    2420.4248   2.5736      
3539.7948   111.142     0.2377      2.5669      0.3318      4203.9428   2466.011    0.4517      0.0925      0.0         0.4104      0.0454      0.0         0.0         0.0         4094.5303   2420.9412   2.5735      
3539.9472   111.953     0.2288      2.5738      0.3316      4149.5681   2460.7046   0.4836      0.099       0.0         0.3758      0.0415      0.0         0.0         0.0         4094.9027   2421.4643   2.5733      
3540.0996   112.6239    0.2194      2.5753      0.3329      4099.9002   2458.1      0.4888      0.1001      0.0         0.3715      0.0396      0.0         0.0         0.0         4095.2791   2421.9938   2.5732      
3540.252    113.1517    0.2189      2.5745      0.3341      4102.9942   2461.4981   0.4893      0.1002      0.0         0.3718      0.0387      0.0         0.0         0.0         4095.6593   2422.5298   2.573       
3540.4044   113.5786    0.2202      2.5785      0.3351      4110.8862   2462.4      0.4862      0.0996      0.0         0.3769      0.0374      0.0         0.0         0.0         4096.0434   2423.0721   2.5729      
3540.5568   114.0834    0.2248      2.5799      0.3371      4126.7839   2459.0049   0.4763      0.0975      0.0         0.3893      0.0369      0.0         0.0         0.0         4096.4311   2423.6204   2.5727      
3540.7092   115.5306    0.2282      2.581       0.3384      4136.7898   2454.9056   0.4606      0.0943      0.0         0.409       0.0361      0.0         0.0         0.0         4096.8225   2424.1748   2.5725      
3540.8616   116.0723    0.231       2.5858      0.339       4143.2      2450.4059   0.4658      0.0954      0.0         0.4042      0.0347      0.0         0.0         0.0         4097.2174   2424.735    2.5724      
3541.014    115.4276    0.2316      2.5833      0.3388      4138.4064   2445.9052   0.4768      0.0977      0.0         0.3901      0.0354      0.0         0.0         0.0         4097.6157   2425.3009   2.5722      
