#----------------------------------------------------------------------------
~VERSION INFORMATION
VERS.            2.0                  :CWLS LOG ASCII STANDARD -VERSION 2.0
WRAP.            NO                   :ONE LINE PER DEPTH STEP
#
#--------------------------------------------------------------------
~WELL INFORMATION
#MNEM .UNIT      DATA                 :DESCRIPTION OF MNEMONIC
#----------      ------------         -------------------------------
STRT  .m         0.0                  :START DEPTH
STEP  .m         0.1524               :STEP DEPTH
STOP  .m         4000.0               :STOP DEPTH
NULL  .          -999.25              :NULL VALUE
COMP  .                               :COMPANY
WELL  .          Well4                :WELL
LOC   .                               :LOCATION - AREA
FLD   .                               :FIELD
CTRY  .                               :COUNTRY
DATE  .                               :WELL DATE

XWELL .m          0                    :X POS
YWELL .m          0                    :Y POS
EDF   .          0.0                  :DERRICK FLOOR ELEVATION
#
#----------------------------------------------------------------------------
~CURVE INFORMATION
#MNEM.UNIT                                  : CURVE DESCRIPTION
#----------                                 -------------------------------
DEPT        .m                              : 1      DEPTH
RHOB        .g/cm3                          : 2      Rho
Vs          .m/s                            : 3      Vs
Vp          .m/s                            : 4      Vp
Vclay       .fract                          : 5      Volume
Vcoal       .fract                          : 6      Volume
Vqz         .fract                          : 7      Volume
Vcal        .fract                          : 8      Volume
PHI_isolated.fract                          : 9      Por
PHI_bound   .fract                          : 10     Por
Vsh         .fract                          : 11     Volume
PHIE        .fract                          : 12     Por
PHIT        .fract                          : 13     Por
Sot         .fract                          : 14     Sat
Sgt         .fract                          : 15     Sat
Swt         .fract                          : 16     Sat
#
#----------------------------------------------------------------------------
~A          RHOB        Vs          Vp          Vclay       Vcoal       Vqz         Vcal        PHI_isolatedPHI_bound   Vsh         PHIE        PHIT        Sot         Sgt         Swt         
# ...
1011.3264   1.9605      -999.25     -999.25     -999.25     -999.25     -999.25     -999.25     -999.25     -999.25     -999.25     -999.25     -999.25     -999.25     -999.25     -999.25     
1011.4788   1.9813      -999.25     -999.25     -999.25     -999.25     -999.25     -999.25     -999.25     -999.25     -999.25     -999.25     -999.25     -999.25     -999.25     -999.25     
1011.6312   1.9923      -999.25     -999.25     -999.25     -999.25     -999.25     -999.25     -999.25     -999.25     -999.25     -999.25     -999.25     -999.25     -999.25     -999.25     
1011.7836   2.0         -999.25     2073.6      0.5388      0.0         0.131       0.0         0.0         0.3302      0.869       0.0         0.3302      0.0         0.0         0.9997      
1011.936    1.9997      -999.25     2054.8      0.5441      0.0         0.1224      0.0         0.0         0.3335      0.8776      0.0         0.3335      0.0         0.0         0.9997      
1012.0884   1.9932      -999.25     2042.6      0.5503      0.0         0.1124      0.0         0.0         0.3372      0.8875      0.0         0.3372      0.0         0.0         0.9997      
1012.2408   1.9804      -999.25     2028.6      0.5522      0.0         0.1094      0.0         0.0         0.3384      0.8906      0.0         0.3384      0.0         0.0         0.9997      
1012.3932   1.942       -999.25     2015.9      0.5554      0.0         0.1041      0.0         0.0         0.3404      0.8958      0.0         0.3404      0.0         0.0         0.9997      
1012.5456   1.9234      -999.25     2005.3      0.5545      0.0         0.1056      0.0         0.0         0.3399      0.8943      0.0         0.3399      0.0         0.0         0.9997      
1012.698    1.9288      -999.25     2001.0      0.5508      0.0         0.0899      0.0216      0.0         0.3376      0.8884      0.0         0.3376      0.0         0.0         0.9997      
1012.8504   1.942       -999.25     2003.9      0.551       0.0         0.097       0.0142      0.0         0.3377      0.8887      0.0         0.3377      0.0         0.0         0.9997      
1013.0028   1.9711      -999.25     2011.5      0.5507      0.0         0.1118      0.0         0.0         0.3375      0.8882      0.0         0.3375      0.0         0.0         0.9997      
1013.1552   1.9773      -999.25     2018.4      0.5589      0.0         0.0985      0.0         0.0         0.3425      0.9015      0.0         0.3425      0.0         0.0         0.9997      
1013.3076   1.9641      -999.25     2019.5      0.5699      0.0         0.0809      0.0         0.0         0.3493      0.9191      0.0         0.3493      0.0         0.0         0.9997      
1013.46     1.9491      -999.25     2013.7      0.5805      0.0         0.0638      0.0         0.0         0.3558      0.9362      0.0         0.3558      0.0         0.0         0.9997      
1013.6124   1.9212      -999.25     2003.7      0.5936      0.0         0.0426      0.0         0.0         0.3638      0.9574      0.0         0.3638      0.0         0.0         0.9997      
1013.7648   1.9143      -999.25     1988.7      0.6072      0.0         0.0206      0.0         0.0         0.3722      0.9794      0.0         0.3722      0.0         0.0         0.9997      
1013.9172   1.9211      -999.25     1975.9      0.62        0.0         0.0         0.0         0.0         0.38        1.0         0.0         0.38        0.0         0.0         0.9997      
1014.0696   1.9311      -999.25     1964.3      0.62        0.0         0.0         0.0         0.0         0.38        1.0         0.0         0.38        0.0         0.0         0.9997      
1014.222    1.9416      -999.25     1956.1      0.62        0.0         0.0         0.0         0.0         0.38        1.0         0.0         0.38        0.0         0.0         0.9997      
1014.3744   1.943       -999.25     1952.9      0.6152      0.0         0.0076      0.0         0.0         0.3771      0.9923      0.0         0.3771      0.0         0.0         0.9997      
1014.5268   1.9677      -999.25     1955.9      0.5954      0.0         0.0397      0.0         0.0         0.365       0.9604      0.0         0.365       0.0         0.0         0.9997      
1014.6792   2.0011      -999.25     1962.3      0.581       0.0         0.0628      0.0         0.0         0.3561      0.9371      0.0         0.3561      0.0         0.0         0.9997      
1014.8316   2.0093      -999.25     1970.6      0.5753      0.0         0.0721      0.0         0.0         0.3526      0.9279      0.0         0.3526      0.0         0.0         0.9997      
1014.984    2.0058      -999.25     1978.5      0.5747      0.0         0.0731      0.0         0.0         0.3522      0.9269      0.0         0.3522      0.0         0.0         0.9997      
1015.1364   2.0005      -999.25     1984.4      0.5746      0.0         0.0732      0.0         0.0         0.3522      0.9268      0.0         0.3522      0.0         0.0         0.9997      
1015.2888   2.0014      -999.25     1986.3      0.5733      0.0         0.0754      0.0         0.0         0.3514      0.9246      0.0         0.3514      0.0         0.0         0.9997      
1015.4412   2.0045      -999.25     1984.5      0.5712      0.0         0.0788      0.0         0.0         0.3501      0.9212      0.0         0.3501      0.0         0.0         0.9997      
1015.5936   2.0045      -999.25     1980.3      0.5694      0.0         0.0816      0.0         0.0         0.349       0.9184      0.0         0.349       0.0         0.0         0.9997      
1015.746    2.0036      -999.25     1977.3      0.5658      0.0         0.0874      0.0         0.0         0.3467      0.9125      0.0         0.3467      0.0         0.0         0.9997      
1015.8984   2.0016      -999.25     1975.6      0.5608      0.0         0.0955      0.0         0.0         0.3437      0.9045      0.0         0.3437      0.0         0.0         0.9997      
1016.0508   2.0009      -999.25     1979.6      0.5561      0.0         0.103       0.0         0.0         0.3409      0.897       0.0         0.3409      0.0         0.0         0.9997      
1016.2032   1.9998      -999.25     1988.7      0.5537      0.0         0.107       0.0         0.0         0.3394      0.8931      0.0         0.3394      0.0         0.0         0.9997      
1016.3556   2.0008      -999.25     2003.0      0.554       0.0         0.1065      0.0         0.0         0.3395      0.8935      0.0         0.3395      0.0         0.0         0.9997      
1016.508    2.0099      -999.25     2018.0      0.5556      0.0         0.1038      0.0         0.0         0.3405      0.8962      0.0         0.3405      0.0         0.0         0.9997      
1016.6604   2.0176      -999.25     2029.8      0.5586      0.0         0.099       0.0         0.0         0.3423      0.9009      0.0         0.3423      0.0         0.0         0.9997      
1016.8128   2.0313      -999.25     2035.8      0.5613      0.0         0.0948      0.0         0.0         0.3439      0.9052      0.0         0.3439      0.0         0.0         0.9997      
1016.9652   2.034       -999.25     2035.7      0.5659      0.0         0.0873      0.0         0.0         0.3469      0.9128      0.0         0.3469      0.0         0.0         0.9997      
1017.1176   2.0295      -999.25     2033.1      0.5717      0.0         0.0779      0.0         0.0         0.3504      0.9221      0.0         0.3504      0.0         0.0         0.9997      
1017.27     2.0238      -999.25     2029.5      0.577       0.0         0.0693      0.0         0.0         0.3537      0.9307      0.0         0.3537      0.0         0.0         0.9997      
1017.4224   2.0097      -999.25     2025.5      0.5818      0.0         0.0616      0.0         0.0         0.3566      0.9384      0.0         0.3566      0.0         0.0         0.9997      
1017.5748   2.0029      -999.25     2021.7      0.5885      0.0         0.0481      0.0028      0.0         0.3608      0.9492      0.0         0.3608      0.0         0.0         0.9997      
