#----------------------------------------------------------------------------
~VERSION INFORMATION
VERS.            2.0                  :CWLS LOG ASCII STANDARD -VERSION 2.0
WRAP.            NO                   :ONE LINE PER DEPTH STEP
#
#--------------------------------------------------------------------
~WELL INFORMATION
#MNEM .UNIT      DATA                 :DESCRIPTION OF MNEMONIC
#----------      ------------         -------------------------------
STRT  .m         0.0                  :START DEPTH
STEP  .m         0.1524               :STEP DEPTH
STOP  .m         4000.0               :STOP DEPTH
NULL  .          -999.25              :NULL VALUE
COMP  .                               :COMPANY
WELL  .          Well5                :WELL
LOC   .                               :LOCATION - AREA
FLD   .                               :FIELD
CTRY  .                               :COUNTRY
DATE  .                               :WELL DATE

XWELL .m          0                    :X POS
YWELL .m          0                    :Y POS
EDF   .          0.0                  :DERRICK FLOOR ELEVATION
#
#----------------------------------------------------------------------------
~CURVE INFORMATION
#MNEM.UNIT                                  : CURVE DESCRIPTION
#----------                                 -------------------------------
DEPT        .m                              : 1      DEPTH
GR          .API                            : 2      GR
PR          .unitless                       : 3      Poisson_Ratio
RHOB        .g/cm3                          : 4      Rho
CALI        .m                              : 5      Cal
VELC        .m/s                            : 6      Vp
VELS        .m/s                            : 7      Vs
Vcdry       .fract                          : 8      Volume
Vbw         .fract                          : 9      Volume
Vcal        .fract                          : 10     Volume
Vqz         .fract                          : 11     Volume
Vparphi     .fract                          : 12     Volume
Voil        .fract                          : 13     Volume
Vgas        .fract                          : 14     Volume
Vw          .fract                          : 15     Volume
Vp_elastic  .m/s                            : 16     Vp
Vs_elastic  .m/s                            : 17     Vs
Rho_elastic .g/cm3                          : 18     Rho
#
#----------------------------------------------------------------------------
~A          GR          PR          RHOB        CALI        VELC        VELS        Vcdry       Vbw         Vcal        Vqz         Vparphi     Voil        Vgas        Vw          Vp_elastic  Vs_elastic  Rho_elastic 
# ...
2689.7076   -999.25     -999.25     -999.25     0.3612      -999.25     -999.25     0.6556      0.255       0.0         0.0         0.0895      0.0         0.0         0.0         2440.4399   1172.5842   2.205       
2689.86     -999.25     -999.25     -999.25     0.3612      -999.25     -999.25     0.6522      0.2537      0.0         0.0         0.0941      0.0         0.0         0.0         2440.5068   1172.6221   2.205       
2690.0124   -999.25     -999.25     -999.25     0.3613      -999.25     -999.25     0.6617      0.2573      0.0         0.0         0.081       0.0         0.0         0.0         2440.574    1172.6602   2.205       
2690.1648   -999.25     -999.25     -999.25     0.3625      -999.25     -999.25     0.6645      0.2584      0.0         0.0         0.0771      0.0         0.0         0.0         2440.6414   1172.6984   2.2051      
2690.3172   -999.25     -999.25     -999.25     0.3645      -999.25     -999.25     0.6582      0.256       0.0         0.0         0.0859      0.0         0.0         0.0         2440.7091   1172.7368   2.2051      
2690.4696   -999.25     -999.25     -999.25     0.3649      -999.25     -999.25     0.6541      0.2544      0.0         0.0         0.0915      0.0         0.0         0.0         2440.777    1172.7754   2.2052      
2690.622    -999.25     -999.25     -999.25     0.3651      -999.25     -999.25     0.6541      0.2544      0.0         0.0         0.0915      0.0         0.0         0.0         2440.8452   1172.8141   2.2052      
2690.7744   -999.25     -999.25     -999.25     0.3659      -999.25     -999.25     0.6617      0.2573      0.0         0.0         0.0811      0.0         0.0         0.0         2440.9137   1172.8529   2.2052      
2690.9268   -999.25     -999.25     -999.25     0.3673      -999.25     -999.25     0.667       0.2594      0.0         0.0         0.0737      0.0         0.0         0.0         2440.9824   1172.8919   2.2053      
2691.0792   -999.25     -999.25     -999.25     0.3672      -999.25     -999.25     0.6673      0.2595      0.0         0.0         0.0731      0.0         0.0         0.0         2441.0514   1172.9311   2.2053      
2691.2316   -999.25     -999.25     -999.25     0.3667      -999.25     -999.25     0.6656      0.2588      0.0         0.0         0.0756      0.0         0.0         0.0         2441.1206   1172.9704   2.2054      
2691.384    -999.25     -999.25     -999.25     0.3665      -999.25     -999.25     0.6652      0.2587      0.0         0.0         0.0762      0.0         0.0         0.0         2441.1901   1173.0098   2.2054      
2691.5364   -999.25     -999.25     -999.25     0.3639      -999.25     -999.25     0.6649      0.2586      0.0         0.0         0.0766      0.0         0.0         0.0         2441.2599   1173.0494   2.2054      
2691.6888   -999.25     -999.25     -999.25     0.3618      -999.25     -999.25     0.6616      0.2573      0.0         0.0         0.081       0.0         0.0         0.0         2441.3299   1173.0892   2.2055      
2691.8412   -999.25     -999.25     -999.25     0.3617      -999.25     -999.25     0.6552      0.2548      0.0         0.0         0.0901      0.0         0.0         0.0         2441.4002   1173.1291   2.2055      
2691.9936   -999.25     -999.25     -999.25     0.3616      -999.25     -999.25     0.6543      0.2544      0.0         0.0         0.0913      0.0         0.0         0.0         2441.4708   1173.1692   2.2056      
2692.146    -999.25     -999.25     -999.25     0.3612      -999.25     -999.25     0.6618      0.2574      0.0         0.0         0.0808      0.0         0.0         0.0         2441.5416   1173.2094   2.2056      
2692.2984   -999.25     -999.25     -999.25     0.3612      -999.25     -999.25     0.6725      0.2615      0.0         0.0         0.066       0.0         0.0         0.0         2441.6127   1173.2498   2.2057      
2692.4508   -999.25     -999.25     -999.25     0.3618      -999.25     -999.25     0.6815      0.265       0.0         0.0         0.0533      0.0         0.0         0.0         2441.684    1173.2903   2.2057      
2692.6032   -999.25     -999.25     -999.25     0.363       -999.25     -999.25     0.6849      0.2663      0.0         0.0         0.0488      0.0         0.0         0.0         2441.7556   1173.331    2.2057      
2692.7556   -999.25     -999.25     -999.25     0.3633      -999.25     -999.25     0.6834      0.2658      0.0         0.0         0.051       0.0         0.0         0.0         2441.8275   1173.3718   2.2058      
2692.908    -999.25     -999.25     -999.25     0.3624      -999.25     -999.25     0.6814      0.265       0.0         0.0         0.0536      0.0         0.0         0.0         2441.8996   1173.4128   2.2058      
2693.0604   -999.25     -999.25     -999.25     0.3619      -999.25     -999.25     0.6836      0.2658      0.0         0.0         0.0506      0.0         0.0         0.0         2441.972    1173.4539   2.2059      
2693.2128   -999.25     -999.25     -999.25     0.3603      -999.25     -999.25     0.6822      0.2653      0.0         0.0         0.0525      0.0         0.0         0.0         2442.0447   1173.4952   2.2059      
2693.3652   -999.25     -999.25     -999.25     0.357       -999.25     -999.25     0.6747      0.2624      0.0         0.0         0.063       0.0         0.0         0.0         2442.1176   1173.5366   2.206       
2693.5176   -999.25     -999.25     -999.25     0.3545      -999.25     -999.25     0.6668      0.2593      0.0         0.0         0.0739      0.0         0.0         0.0         2442.1907   1173.5782   2.206       
2693.67     -999.25     -999.25     -999.25     0.3542      -999.25     -999.25     0.6653      0.2587      0.0         0.0         0.0759      0.0         0.0         0.0         2442.2642   1173.6199   2.206       
2693.8224   -999.25     -999.25     -999.25     0.3543      -999.25     -999.25     0.6681      0.2598      0.0         0.0         0.0721      0.0         0.0         0.0         2442.3379   1173.6618   2.2061      
2693.9748   -999.25     -999.25     -999.25     0.3538      -999.25     -999.25     0.6703      0.2606      0.0         0.0         0.069       0.0         0.0         0.0         2442.4118   1173.7038   2.2061      
2694.1272   -999.25     -999.25     -999.25     0.3536      -999.25     -999.25     0.6787      0.264       0.0         0.0         0.0573      0.0         0.0         0.0         2442.486    1173.746    2.2062      
2694.2796   -999.25     -999.25     -999.25     0.3547      -999.25     -999.25     0.6893      0.2681      0.0         0.0         0.0427      0.0         0.0         0.0         2442.5605   1173.7884   2.2062      
2694.432    -999.25     -999.25     -999.25     0.3565      -999.25     -999.25     0.6939      0.2698      0.0         0.0         0.0363      0.0         0.0         0.0         2442.6352   1173.8309   2.2063      
2694.5844   -999.25     -999.25     -999.25     0.3581      -999.25     -999.25     0.6893      0.2681      0.0         0.0         0.0426      0.0         0.0         0.0         2442.7102   1173.8735   2.2063      
2694.7368   -999.25     -999.25     -999.25     0.3585      -999.25     -999.25     0.6851      0.2664      0.0         0.0         0.0485      0.0         0.0         0.0         2442.7855   1173.9163   2.2064      
2694.8892   -999.25     -999.25     -999.25     0.3576      -999.25     -999.25     0.6878      0.2674      0.0         0.0         0.0448      0.0         0.0         0.0         2442.861    1173.9593   2.2064      
2695.0416   -999.25     -999.25     -999.25     0.3572      -999.25     -999.25     0.6908      0.2687      0.0         0.0         0.0405      0.0         0.0         0.0         2442.9367   1174.0024   2.2064      
2695.194    -999.25     -999.25     -999.25     0.3572      -999.25     -999.25     0.6867      0.267       0.0         0.0         0.0463      0.0         0.0         0.0         2443.0128   1174.0456   2.2065      
