#----------------------------------------------------------------------------
~VERSION INFORMATION
VERS.            2.0                  :CWLS LOG ASCII STANDARD -VERSION 2.0
WRAP.            NO                   :ONE LINE PER DEPTH STEP
#
#--------------------------------------------------------------------
~WELL INFORMATION
#MNEM .UNIT      DATA                 :DESCRIPTION OF MNEMONIC
#----------      ------------         -------------------------------
STRT  .m         0.0                  :START DEPTH
STEP  .m         0.1524               :STEP DEPTH
STOP  .m         4000.0               :STOP DEPTH
NULL  .          -999.25              :NULL VALUE
COMP  .                               :COMPANY
WELL  .          Well5                :WELL
LOC   .                               :LOCATION - AREA
FLD   .                               :FIELD
CTRY  .                               :COUNTRY
DATE  .                               :WELL DATE

XWELL .m          0                    :X POS
YWELL .m          0                    :Y POS
EDF   .          0.0                  :DERRICK FLOOR ELEVATION
#
#----------------------------------------------------------------------------
~CURVE INFORMATION
#MNEM.UNIT                                  : CURVE DESCRIPTION
#----------                                 -------------------------------
DEPT        .m                              : 1      DEPTH
GR          .API                            : 2      GR
PR          .unitless                       : 3      Poisson_Ratio
RHOB        .g/cm3                          : 4      Rho
CALI        .m                              : 5      Cal
VELC        .m/s                            : 6      Vp
VELS        .m/s                            : 7      Vs
Vcdry       .fract                          : 8      Volume
Vbw         .fract                          : 9      Volume
Vcal        .fract                          : 10     Volume
Vqz         .fract                          : 11     Volume
Vparphi     .fract                          : 12     Volume
Voil        .fract                          : 13     Volume
Vgas        .fract                          : 14     Volume
Vw          .fract                          : 15     Volume
Vp_elastic  .m/s                            : 16     Vp
Vs_elastic  .m/s                            : 17     Vs
Rho_elastic .g/cm3                          : 18     Rho
#
#----------------------------------------------------------------------------
~A          GR          PR          RHOB        CALI        VELC        VELS        Vcdry       Vbw         Vcal        Vqz         Vparphi     Voil        Vgas        Vw          Vp_elastic  Vs_elastic  Rho_elastic 
# ...
3394.5576   70.7131     0.2111      2.4559      0.2989      3522.1001   2131.3521   0.1043      0.0214      0.1505      0.5733      0.0         0.0         0.0         0.1512      4055.9802   2364.8495   2.5305      
3394.71     69.8052     0.2112      2.4621      0.2984      3584.0171   2168.5503   0.0976      0.02        0.3867      0.3346      0.0         0.0         0.0         0.1602      4056.067    2364.5422   2.5307      
3394.8624   70.1381     0.2114      2.3983      0.298       3648.3508   2207.041    0.1696      0.0347      0.3134      0.313       0.0507      1.0E-4      0.0068      0.1116      4056.1544   2364.249    2.5309      
3395.0148   71.4862     0.1954      2.3336      0.2978      3674.7652   2261.0275   0.2878      0.059       0.0829      0.4195      0.1248      0.0         0.0098      0.0166      4056.2426   2363.9701   2.531       
3395.1672   74.0438     0.1776      2.3252      0.2989      3701.3999   2317.5998   0.2788      0.0571      0.048       0.4794      0.1047      0.0         0.0166      0.0156      4056.3315   2363.7057   2.5312      
3395.3196   83.2495     0.176       2.3821      0.3015      3679.1292   2307.1138   0.2748      0.0562      0.0         0.554       0.0812      0.0         0.0179      0.0156      4056.4211   2363.4559   2.5313      
3395.472    102.5384    0.1744      2.4699      0.3056      3657.0407   2296.6215   0.4254      0.0871      0.0         0.4172      0.0708      0.0         0.0         0.0         4056.5115   2363.221    2.5314      
3395.6244   122.0806    0.1768      2.5531      0.3079      3605.067    2258.8489   0.6215      0.1273      0.0         0.2135      0.0377      0.0         0.0         0.0         4056.6027   2363.001    2.5316      
3395.7768   133.8367    0.1793      2.6049      0.3084      3554.9002   2222.1537   0.7822      0.1602      0.0         0.0395      0.0181      0.0         0.0         0.0         4056.6946   2362.7963   2.5317      
3395.9292   137.2565    0.2125      2.6173      0.3084      3601.0387   2175.9593   0.8138      0.1667      0.0         0.0         0.0195      0.0         0.0         0.0         4056.7874   2362.6069   2.5318      
3396.0816   136.9346    0.2408      2.6128      0.3084      3648.1998   2131.7569   0.8112      0.1662      0.0         0.0         0.0226      0.0         0.0         0.0         4056.881    2362.433    2.5319      
3396.234    137.389     0.2454      2.6188      0.3089      3596.6669   2089.2547   0.8124      0.1664      0.0         0.0         0.0211      0.0         0.0         0.0         4056.9754   2362.2749   2.532       
3396.3864   139.434     0.2497      2.6338      0.3087      3546.4519   2048.3567   0.8157      0.1671      0.0         0.0         0.0172      0.0         0.0         0.0         4057.0706   2362.1326   2.532       
3396.5388   141.2557    0.2595      2.6413      0.3084      3513.8424   2002.5586   0.8151      0.167       0.0         0.0         0.0179      0.0         0.0         0.0         4057.1667   2362.0064   2.5321      
3396.6912   141.7715    0.2684      2.6365      0.3084      3481.7375   1958.9146   0.812       0.1663      0.0         0.0         0.0216      0.0         0.0         0.0         4057.2636   2361.8965   2.5322      
3396.8436   140.5668    0.2656      2.6206      0.3081      3456.0333   1952.6082   0.8074      0.1651      1.0E-4      0.0         0.027       0.0         0.0         0.0014      4057.3614   2361.803    2.5322      
3396.996    134.853     0.2627      2.5963      0.3067      3430.9001   1946.4      0.7418      2.0E-4      0.0628      0.0424      1.0E-4      0.0         0.0         0.8643      4057.4601   2361.7261   2.5323      
3397.1484   120.6549    0.271       2.561       0.3029      3491.7186   1956.9859   0.5626      0.1161      0.0         0.2474      0.0753      0.0         0.0         0.0         4057.5597   2361.6659   2.5323      
3397.3008   101.1753    0.2791      2.5068      0.2992      3554.7806   1967.7796   0.4001      0.0819      0.0         0.4075      0.1096      0.0         0.0         1.0E-4      4057.6602   2361.6228   2.5323      
3397.4532   84.8236     0.2715      2.4378      0.2975      3563.0891   1995.4632   0.2474      0.0507      0.0         0.5544      0.0713      0.0         0.0         0.0763      4057.7616   2361.5967   2.5323      
3397.6056   76.1266     0.2635      2.3778      0.2972      3571.486    2023.8981   0.1434      0.0294      0.0         0.6497      0.0         0.0         0.0015      0.1759      4057.8639   2361.588    2.5323      
3397.758    73.4151     0.2661      2.3466      0.297       3586.0806   2024.5991   0.1156      0.0237      0.0         0.6746      0.0         0.0         0.0071      0.1791      4057.9671   2361.5941   2.5323      
3397.9104   71.6903     0.2687      2.3434      0.2968      3601.0687   2025.2982   0.1202      0.0246      0.0         0.6686      0.0         0.0         0.0095      0.1771      4058.0711   2361.6124   2.5323      
3398.0628   69.8673     0.27        2.352       0.2969      3659.3223   2053.8442   0.1063      0.0217      0.0         0.6874      0.0         0.0         0.0056      0.1789      4058.1758   2361.6427   2.5323      
3398.2152   69.9307     -999.25     2.356       0.297       3719.3998   -999.25     0.0973      0.02        0.0         0.6978      0.0         0.0         0.0045      0.1805      4058.2813   2361.685    2.5323      
3398.3676   71.3547     -999.25     2.3503      0.2969      3683.6466   -999.25     0.0931      0.0191      0.0         0.702       0.0         0.0         0.005       0.1808      4058.3875   2361.739    2.5323      
3398.52     71.7934     -999.25     2.3414      0.2969      3648.4001   -999.25     0.1012      0.0208      0.0         0.6891      0.0         0.0         0.013       0.1761      4058.4944   2361.8047   2.5323      
3398.6724   72.1193     -999.25     2.3381      0.2971      3701.5293   -999.25     0.1273      0.0261      0.0         0.6577      0.0         0.0         0.0224      0.1663      4058.6021   2361.882    2.5323      
3398.8248   72.3031     -999.25     2.3466      0.2974      3755.9998   -999.25     0.1699      0.0348      0.0         0.6172      0.024       0.0         0.0218      0.1322      4058.7105   2361.9707   2.5322      
3398.9772   72.7764     -999.25     2.3616      0.2977      3687.9878   -999.25     0.1992      0.0408      0.0058      0.584       0.0458      0.0         0.0184      0.1059      4058.8196   2362.0707   2.5322      
3399.1296   72.6691     -999.25     2.3766      0.2977      3622.4002   -999.25     0.2068      0.0423      0.009       0.5795      0.0525      0.0         0.0184      0.0914      4058.9293   2362.1819   2.5322      
3399.282    72.0218     -999.25     2.3819      0.2974      3639.677    -999.25     0.2062      0.0422      0.0         0.5945      0.0465      0.0         0.0213      0.0893      4059.0398   2362.3042   2.5322      
3399.4344   74.7365     -999.25     2.3777      0.2974      3657.3583   -999.25     0.2108      0.0431      0.0         0.5941      0.0532      0.0         0.0266      0.072       4059.1509   2362.4374   2.5322      
3399.5868   84.745      -999.25     2.3735      0.2979      3812.5873   -999.25     0.2557      0.0523      0.0         0.5572      0.0831      0.0         0.0189      0.0328      4059.2627   2362.5814   2.5321      
3399.7392   97.6571     -999.25     2.3812      0.2996      3981.7645   -999.25     0.3628      0.0743      0.0         0.4595      0.104       0.0         0.0         0.0         4059.3752   2362.7361   2.5321      
3399.8916   94.0088     -999.25     2.4174      0.301       4055.901    -999.25     0.3767      0.0772      0.0         0.4565      0.0892      0.0         0.0         0.0         4059.4883   2362.9014   2.5321      
3400.044    85.9638     -999.25     2.4761      0.3025      4132.8094   -999.25     0.3103      0.0635      0.0         0.5438      0.0721      0.0         0.0029      0.0071      4059.6021   2363.0772   2.532       
