#----------------------------------------------------------------------------
~VERSION INFORMATION
VERS.            2.0                  :CWLS LOG ASCII STANDARD -VERSION 2.0
WRAP.            NO                   :ONE LINE PER DEPTH STEP
#
#--------------------------------------------------------------------
~WELL INFORMATION
#MNEM .UNIT      DATA                 :DESCRIPTION OF MNEMONIC
#----------      ------------         -------------------------------
STRT  .m         0.0                  :START DEPTH
STEP  .m         0.1524               :STEP DEPTH
STOP  .m         2279.904             :STOP DEPTH
NULL  .          -999.25              :NULL VALUE
COMP  .                               :COMPANY
WELL  .                               :WELL
LOC   .          311975.906,      3195343.67  :LOCATION - AREA
FLD   .                               :FIELD
CTRY  .                               :COUNTRY
DATE  .                               :WELL DATE

XWELL .m          311975               :X POS
YWELL .m          3195343              :Y POS
EDF   .          25.9                 :DERRICK FLOOR ELEVATION
#
#----------------------------------------------------------------------------
~CURVE INFORMATION
#MNEM.UNIT                                  : CURVE DESCRIPTION
#----------                                 -------------------------------
DEPT        .m                              : 1      DEPTH
VSH         .fract                          : 2      Volume
VCL         .fract                          : 3      Volume
SW          .fract                          : 4      Sat
PHIT        .fract                          : 5      Por
PHIE        .fract                          : 6      Por
RHOB        .g/cm3                          : 7      Rho
VP          .m/s                            : 8      Vp
VS          .m/s                            : 9      Vs
Vp_xw       .m/s                            : 10     Vp
Vs_xw       .m/s                            : 11     Vs
Rho_xw      .g/cm3                          : 12     Rho
#
#----------------------------------------------------------------------------
~A          VSH         VCL         SW          PHIT        PHIE        RHOB_raw    VP          VS          Vp_xw       Vs_xw       Rho_xw      
# ...
1930.6032   0.5713      0.3714      1.0         0.2401      0.1446      2.274       2567.578    1109.9188   2611.2951   1202.4854   2.2553      
1930.7556   0.5693      0.37        1.0         0.238       0.1429      2.273       2563.5      1109.6406   2623.4858   1211.3319   2.2585      
1930.908    0.5593      0.3635      0.9754      0.2389      0.1454      2.272       2548.2398   1105.4284   2616.6178   1218.4302   2.2563      
1931.0604   0.5636      0.3663      0.9571      0.2395      0.1453      2.274       2535.225    1099.395    2601.5637   1212.5557   2.2542      
1931.2128   0.5899      0.3834      0.961       0.2369      0.1382      2.277       2534.11     1096.6787   2592.8781   1195.8804   2.2574      
1931.3652   0.6069      0.3945      0.9677      0.2338      0.1324      2.28        2549.7983   1102.4092   2596.4433   1189.7799   2.2618      
1931.5176   0.6185      0.402       0.9715      0.2311      0.1277      2.279       2574.7806   1115.7995   2601.6294   1187.6329   2.2656      
1931.67     0.652       0.4238      0.9686      0.2298      0.1208      2.277       2589.5027   1120.2729   2579.2962   1161.9476   2.2661      
1931.8224   0.6844      0.4449      0.9584      0.2293      0.1149      2.274       2582.5703   1115.6324   2551.9796   1136.1836   2.2651      
1931.9748   0.6713      0.4363      0.9269      0.232       0.1198      2.266       2563.6702   1112.9011   2535.058    1139.5949   2.2599      
1932.1272   0.6423      0.4175      0.8775      0.2391      0.1317      2.253       2553.3198   1116.0266   2502.9933   1143.4085   2.2475      
1932.2796   0.6797      0.4418      0.8403      0.2457      0.1321      2.244       2555.1176   1115.2866   2428.6374   1093.7095   2.2339      
1932.432    0.7541      0.4902      0.829       0.2481      0.1221      2.247       2556.5967   1103.65     2362.6826   1031.7959   2.2266      
1932.5844   0.8177      0.5315      0.8578      0.2428      0.1061      2.259       2556.232    1089.056    2359.0168   1002.6295   2.2339      
1932.7368   0.8115      0.5275      0.9017      0.2349      0.0993      2.272       2556.2319   1085.4472   2415.817    1026.7618   2.2485      
1932.8892   0.7261      0.472       0.9217      0.2305      0.1092      2.277       2549.9226   1091.9408   2499.5489   1099.9701   2.2597      
1933.0416   0.6334      0.4117      0.9104      0.232       0.1262      2.276       2538.327    1101.0941   2558.0478   1172.3074   2.2605      
1933.194    0.6006      0.3904      0.9004      0.2344      0.1341      2.272       2528.705    1103.1829   2569.8983   1194.6157   2.2576      
1933.3464   0.6067      0.3944      0.8952      0.237       0.1356      2.268       2526.0645   1103.1568   2549.6536   1180.8896   2.2531      
1933.4988   0.6256      0.4067      0.8983      0.2388      0.1343      2.266       2538.4979   1105.4907   2526.4003   1158.3994   2.2498      
1933.6512   0.6749      0.4387      0.9205      0.2377      0.1249      2.267       2561.0018   1106.1095   2502.7312   1119.8305   2.2507      
1933.8036   0.7242      0.4707      0.9535      0.2344      0.1134      2.269       2570.9368   1099.4064   2497.788    1090.1068   2.2555      
1933.956    0.7203      0.4682      0.9656      0.2333      0.113       2.267       2559.494    1091.5741   2511.159    1096.0159   2.2579      
1934.1084   0.675       0.4388      0.9458      0.2371      0.1244      2.266       2544.0918   1091.3271   2516.7814   1121.1402   2.2529      
1934.2608   0.6467      0.4204      0.942       0.2396      0.1316      2.268       2545.728    1096.4726   2524.8188   1137.2501   2.25        
1934.4132   0.6514      0.4234      0.9729      0.2384      0.1297      2.271       2561.1709   1099.3414   2541.1727   1136.5528   2.2533      
1934.5656   0.6579      0.4276      1.0         0.2363      0.1265      2.269       2567.471    1098.1852   2559.1527   1137.052    2.2576      
1934.718    0.6253      0.4064      1.0         0.2397      0.1353      2.262       2557.8001   1097.1675   2568.4392   1154.6628   2.2537      
1934.8704   0.5299      0.3444      1.0         0.2502      0.1617      2.253       2542.8608   1100.2994   2598.9778   1209.6368   2.2415      
1935.0228   0.4085      0.2655      1.0         0.2636      0.1954      2.24        2524.847    1102.5689   2653.045    1292.8367   2.2258      
1935.1752   0.3186      0.2071      0.9983      0.2781      0.2249      2.222       2496.3733   1095.7045   2680.8673   1348.0286   2.2069      
1935.3276   0.2711      0.1762      0.988       0.2935      0.2483      2.201       2455.7416   1076.4559   2652.8605   1348.5143   2.1843      
1935.48     0.2233      0.1451      0.9636      0.3107      0.2735      2.182       2415.4448   1060.1874   2610.924    1341.9114   2.1579      
1935.6324   0.1885      0.1225      0.9392      0.3257      0.2942      2.174       2395.3979   1054.2762   2564.6019   1325.7494   2.1342      
1935.7848   0.2305      0.1498      0.9377      0.329       0.2906      2.176       2402.1562   1048.1873   2491.632    1254.8628   2.1275      
1935.9372   0.3223      0.2095      0.9538      0.3228      0.269       2.178       2402.1563   1039.5168   2426.3491   1169.3021   2.135       
1936.0896   0.3839      0.2495      0.9532      0.3178      0.2538      2.178       2424.5669   1043.8698   2389.7784   1122.6914   2.1405      
1936.242    0.3941      0.2562      0.9296      0.3167      0.2509      2.187       2452.7029   1066.8879   2374.7334   1116.7244   2.1402      
1936.3944   0.3754      0.244       0.908       0.3109      0.2482      2.208       2477.8846   1092.3438   2410.4648   1157.0674   2.1484      
1936.5468   0.3685      0.2395      0.906       0.2963      0.2348      2.225       2492.5155   1107.0207   2488.5552   1218.4059   2.1711      
1936.6992   0.3978      0.2586      0.9004      0.2824      0.216       2.231       2500.0806   1110.9972   2525.3509   1237.1236   2.1912      
1936.8516   0.462       0.3003      0.8837      0.2742      0.1971      2.239       2506.6404   1108.9115   2494.3316   1198.0721   2.2005      
1937.004    0.5493      0.3571      0.8874      0.2638      0.1721      2.254       2512.5515   1098.3716   2466.3835   1148.2429   2.2135      
1937.1564   0.6342      0.4122      0.927       0.2488      0.143       2.269       2521.8439   1086.5832   2484.9921   1120.3439   2.2356      
1937.3088   0.6675      0.4339      0.969       0.2367      0.1254      2.276       2539.8333   1087.0857   2535.0462   1128.2059   2.255       
1937.4612   0.6392      0.4155      0.9639      0.2333      0.1267      2.274       2561.8172   1106.4493   2570.543    1162.4906   2.261       
1937.6136   0.5709      0.3711      0.9144      0.238       0.1428      2.264       2577.1979   1139.8951   2584.1255   1210.9159   2.254       
1937.766    0.4851      0.3153      0.8541      0.249       0.1681      2.25        2579.4004   1166.8309   2587.9435   1261.9658   2.2371      
1937.9184   0.4342      0.2822      0.8212      0.2612      0.1888      2.244       2569.5926   1173.487    2566.8356   1275.1344   2.2182      
1938.0708   0.4354      0.283       0.844       0.2658      0.1932      2.252       2560.4839   1164.8823   2549.3058   1256.7709   2.2123      
1938.2232   0.4354      0.283       0.9162      0.2613      0.1887      2.26        2563.9945   1153.9712   2600.1071   1271.8239   2.2234      
1938.3756   0.3875      0.2518      0.9812      0.2594      0.1948      2.247       2574.1069   1153.3052   2691.2243   1334.2647   2.2319      
1938.528    0.33        0.2145      0.9789      0.272       0.217       2.214       2569.6746   1154.735    2691.7276   1357.9858   2.2146      
1938.6804   0.3133      0.2036      0.9293      0.2956      0.2433      2.177       2540.713    1147.0151   2564.2404   1286.053    2.1757      
1938.8328   0.3212      0.2088      0.8757      0.3203      0.2667      2.149       2496.3498   1123.536    2407.099    1181.5126   2.1334      
1938.9852   0.3214      0.2089      0.8446      0.3394      0.2858      2.136       2452.2841   1096.2094   2302.6235   1110.2733   2.1013      
