#----------------------------------------------------------------------------
~VERSION INFORMATION
VERS.            2.0                  :CWLS LOG ASCII STANDARD -VERSION 2.0
WRAP.            NO                   :ONE LINE PER DEPTH STEP
#
#--------------------------------------------------------------------
~WELL INFORMATION
#MNEM .UNIT      DATA                 :DESCRIPTION OF MNEMONIC
#----------      ------------         -------------------------------
STRT  .m         0.0                  :START DEPTH
STEP  .m         0.1524               :STEP DEPTH
STOP  .m         2279.904             :STOP DEPTH
NULL  .          -999.25              :NULL VALUE
COMP  .                               :COMPANY
WELL  .                               :WELL
LOC   .          311975.906,      3195343.67  :LOCATION - AREA
FLD   .                               :FIELD
CTRY  .                               :COUNTRY
DATE  .                               :WELL DATE

XWELL .m          311975               :X POS
YWELL .m          3195343              :Y POS
EDF   .          25.9                 :DERRICK FLOOR ELEVATION
#
#----------------------------------------------------------------------------
~CURVE INFORMATION
#MNEM.UNIT                                  : CURVE DESCRIPTION
#----------                                 -------------------------------
DEPT        .m                              : 1      DEPTH
VSH         .fract                          : 2      Volume
VCL         .fract                          : 3      Volume
SW          .fract                          : 4      Sat
PHIT        .fract                          : 5      Por
PHIE        .fract                          : 6      Por
RHOB        .g/cm3                          : 7      Rho
VP          .m/s                            : 8      Vp
VS          .m/s                            : 9      Vs
Vp_xw       .m/s                            : 10     Vp
Vs_xw       .m/s                            : 11     Vs
Rho_xw      .g/cm3                          : 12     Rho
#
#----------------------------------------------------------------------------
~A          VSH         VCL         SW          PHIT        PHIE        RHOB_raw    VP          VS          Vp_xw       Vs_xw       Rho_xw      
# ...
1998.8784   0.997       0.7012      1.0         0.1779      0.002       2.318       2558.6109   1038.9848   2570.1771   998.621     2.3281      
1999.0308   0.997       0.6922      1.0         0.1757      0.002       2.32        2574.0186   1049.9148   2586.8762   1011.3778   2.332       
1999.1832   0.997       0.6841      1.0         0.1736      0.002       2.321       2585.2211   1057.6495   2602.7363   1023.3295   2.3357      
1999.3356   0.997       0.6874      1.0         0.1745      0.002       2.322       2589.9425   1061.2475   2596.0387   1018.338    2.3341      
1999.488    0.997       0.6837      1.0         0.1735      0.002       2.325       2588.3149   1060.5729   2603.5114   1023.9177   2.3359      
1999.6404   0.997       0.6651      1.0         0.1689      0.002       2.327       2584.1238   1057.2797   2639.9851   1051.6318   2.344       
1999.7928   0.997       0.6665      1.0         0.1692      0.002       2.325       2583.3792   1057.1591   2637.4062   1049.6143   2.3434      
1999.9452   0.997       0.71        1.0         0.1801      0.002       2.323       2586.3382   1063.2194   2553.9463   986.2671    2.3243      
2000.0976   0.997       0.7544      1.0         0.1912      0.002       2.323       2590.6914   1071.6198   2476.4524   927.0672    2.3048      
2000.25     0.997       0.745       1.0         0.1888      0.002       2.324       2596.9813   1075.555    2492.4661   939.2758    2.309       
2000.4024   0.997       0.7044      1.0         0.1787      0.002       2.325       2604.0372   1076.671    2564.2312   994.097     2.3267      
2000.5548   0.997       0.6944      1.0         0.1762      0.002       2.327       2607.2229   1077.817    2582.9364   1008.3225   2.3311      
2000.7072   0.997       0.7233      1.0         0.1834      0.002       2.329       2602.5689   1077.7504   2530.0713   968.0387    2.3185      
2000.8596   0.997       0.7438      1.0         0.1886      0.002       2.329       2592.2758   1073.5514   2494.09     940.6308    2.3094      
2001.012    0.997       0.7346      1.0         0.1862      0.002       2.33        2584.5626   1068.1081   2510.3342   952.9398    2.3136      
2001.1644   0.997       0.713       1.0         0.1808      0.002       2.331       2587.0417   1067.3522   2548.6979   982.21      2.323       
2001.3168   0.997       0.6892      1.0         0.1748      0.002       2.331       2597.403    1070.7066   2593.278    1016.0558   2.3336      
2001.4692   0.997       0.67        1.0         0.17        0.002       2.329       2606.7777   1074.3915   2630.7618   1044.4853   2.342       
2001.6216   0.997       0.6609      1.0         0.1681      0.0025      2.325       2611.1093   1075.9388   2647.2898   1057.4869   2.3455      
2001.774    0.997       0.6591      1.0         0.1704      0.0052      2.322       2612.2282   1076.7367   2637.8839   1053.9011   2.3421      
2001.9264   0.997       0.6634      1.0         0.1693      0.0029      2.323       2613.4597   1078.7226   2639.5038   1052.331    2.3435      
2002.0788   0.997       0.6788      1.0         0.1721      0.002       2.328       2618.7147   1085.604    2613.8486   1031.5399   2.3383      
2002.2312   0.997       0.7007      1.0         0.1776      0.002       2.333       2630.6685   1098.3504   2571.8968   999.717     2.3286      
2002.3836   0.997       0.7062      1.0         0.179       0.002       2.336       2646.1539   1110.5176   2561.5815   991.9003    2.3262      
2002.536    0.997       0.6809      1.0         0.1726      0.002       2.333       2658.8494   1115.434    2609.8585   1028.4825   2.3374      
2002.6884   0.997       0.6505      1.0         0.1665      0.0035      2.328       2663.5187   1114.5538   2663.8095   1071.3095   2.3485      
2002.8408   0.997       0.6292      1.0         0.1709      0.0132      2.325       2656.8092   1109.6013   2661.3322   1082.1832   2.3434      
2002.9932   0.9747      0.614       1.0         0.1739      0.02        2.323       2642.3687   1102.7582   2660.6213   1090.5132   2.3399      
2003.1456   0.9658      0.6084      1.0         0.1751      0.0227      2.322       2632.3972   1097.7207   2659.9869   1093.405    2.3384      
2003.298    0.9703      0.6113      1.0         0.1747      0.0216      2.322       2632.6248   1097.3727   2659.2446   1091.3642   2.3389      
2003.4504   0.9551      0.6018      1.0         0.1742      0.0234      2.324       2636.8385   1102.131    2670.4854   1102.5641   2.3402      
2003.6028   0.9252      0.5831      1.0         0.1758      0.0298      2.324       2641.1103   1109.9437   2680.6111   1118.7308   2.3391      
2003.7552   0.9148      0.5766      1.0         0.1772      0.0327      2.323       2646.0174   1114.3394   2680.1468   1122.344    2.3374      
2003.9076   0.9342      0.5888      1.0         0.1783      0.0308      2.32        2648.6612   1112.8107   2662.9539   1106.2531   2.3349      
2004.06     0.9875      0.622       1.0         0.1746      0.0188      2.321       2650.066    1108.6735   2650.0231   1080.6047   2.3383      
2004.2124   0.997       0.6641      1.0         0.1683      0.002       2.325       2655.9303   1110.8193   2643.665    1053.9664   2.3449      
2004.3648   0.997       0.681       1.0         0.1725      0.002       2.332       2665.4534   1119.5799   2610.2545   1028.626    2.3375      
2004.5172   0.997       0.6614      1.0         0.1676      0.002       2.338       2674.0579   1125.6718   2649.2446   1058.1543   2.3462      
2004.6696   0.997       0.6336      1.0         0.1607      0.002       2.342       2681.3275   1129.4223   2707.2681   1102.0479   2.3584      
2004.822    0.9769      0.6155      1.0         0.1618      0.0077      2.343       2683.2405   1130.8337   2718.6931   1118.4122   2.3579      
2004.9744   0.9562      0.6025      1.0         0.1664      0.0155      2.339       2670.3546   1124.9813   2708.1598   1121.0876   2.3519      
2005.1268   0.9601      0.605       1.0         0.1713      0.0198      2.332       2643.5571   1105.1481   2681.5933   1106.3156   2.3444      
2005.2792   0.997       0.6353      1.0         0.1736      0.0146      2.325       2615.5455   1081.08     2643.0363   1069.6238   2.3389      
2005.4316   0.997       0.6687      1.0         0.1713      0.0039      2.324       2596.1402   1065.8453   2625.7179   1042.7322   2.3402      
2005.584    0.997       0.6745      1.0         0.1708      0.002       2.327       2588.8209   1062.0641   2623.3521   1038.4577   2.3405      
2005.7364   0.997       0.6704      1.0         0.1698      0.002       2.329       2594.7501   1065.5764   2631.3725   1044.5639   2.3423      
2005.8888   0.997       0.6745      1.0         0.1708      0.002       2.33        2608.9176   1075.5066   2623.3523   1038.4578   2.3405      
2006.0412   0.997       0.6744      1.0         0.1708      0.002       2.328       2618.8938   1080.8824   2623.433    1038.5507   2.3405      
2006.1936   0.997       0.6667      1.0         0.17        0.0032      2.326       2615.7707   1078.642    2633.4646   1047.5899   2.3422      
2006.346    0.997       0.6302      1.0         0.1733      0.0156      2.326       2607.157    1076.469    2648.9382   1075.4326   2.3397      
2006.4984   0.9313      0.5871      1.0         0.1757      0.0288      2.328       2606.7993   1082.9118   2677.2064   1114.611    2.3389      
2006.6508   0.9146      0.5767      1.0         0.1745      0.0302      2.331       2618.4683   1094.3173   2693.3127   1129.0993   2.3414      
2006.8032   0.9531      0.6007      1.0         0.1701      0.0198      2.334       2636.8867   1102.2215   2691.5681   1113.8722   2.3465      
2006.9556   0.9929      0.6256      1.0         0.1663      0.0098      2.336       2651.8646   1106.1045   2686.9412   1096.9018   2.3505      
2007.108    0.997       0.6324      1.0         0.1672      0.009       2.334       2652.7185   1104.7801   2676.3776   1087.7724   2.3487      
2007.2604   0.9941      0.6263      1.0         0.1743      0.0176      2.325       2636.0163   1094.3597   2647.6208   1076.9689   2.3385      
