#----------------------------------------------------------------------------
~VERSION INFORMATION
VERS.            2.0                  :CWLS LOG ASCII STANDARD -VERSION 2.0
WRAP.            NO                   :ONE LINE PER DEPTH STEP
#
#--------------------------------------------------------------------
~WELL INFORMATION
#MNEM .UNIT      DATA                 :DESCRIPTION OF MNEMONIC
#----------      ------------         -------------------------------
STRT  .m         0.0                  :START DEPTH
STEP  .m         0.1524               :STEP DEPTH
STOP  .m         4000.0               :STOP DEPTH
NULL  .          -999.25              :NULL VALUE
COMP  .                               :COMPANY
WELL  .          Well5                :WELL
LOC   .                               :LOCATION - AREA
FLD   .                               :FIELD
CTRY  .                               :COUNTRY
DATE  .                               :WELL DATE

XWELL .m          0                    :X POS
YWELL .m          0                    :Y POS
EDF   .          0.0                  :DERRICK FLOOR ELEVATION
#
#----------------------------------------------------------------------------
~CURVE INFORMATION
#MNEM.UNIT                                  : CURVE DESCRIPTION
#----------                                 -------------------------------
DEPT        .m                              : 1      DEPTH
GR          .API                            : 2      GR
PR          .unitless                       : 3      Poisson_Ratio
RHOB        .g/cm3                          : 4      Rho
CALI        .m                              : 5      Cal
VELC        .m/s                            : 6      Vp
VELS        .m/s                            : 7      Vs
Vcdry       .fract                          : 8      Volume
Vbw         .fract                          : 9      Volume
Vcal        .fract                          : 10     Volume
Vqz         .fract                          : 11     Volume
Vparphi     .fract                          : 12     Volume
Voil        .fract                          : 13     Volume
Vgas        .fract                          : 14     Volume
Vw          .fract                          : 15     Volume
Vp_elastic  .m/s                            : 16     Vp
Vs_elastic  .m/s                            : 17     Vs
Rho_elastic .g/cm3                          : 18     Rho
#
#----------------------------------------------------------------------------
~A          GR          PR          RHOB        CALI        VELC        VELS        Vcdry       Vbw         Vcal        Vqz         Vparphi     Voil        Vgas        Vw          Vp_elastic  Vs_elastic  Rho_elastic 
# ...
2903.982    126.0352    -999.25     2.4862      0.3155      -999.25     -999.25     0.4954      0.1926      0.0         0.2472      0.0647      0.0         0.0         0.0         2745.8105   1361.5004   2.3649      
2904.1344   129.6143    -999.25     2.4874      0.3158      -999.25     -999.25     0.5112      0.1988      0.0         0.2324      0.0577      0.0         0.0         0.0         2746.1436   1361.7206   2.3651      
2904.2868   129.3105    -999.25     2.4806      0.3159      -999.25     -999.25     0.4987      0.1939      0.0         0.2503      0.057       0.0         0.0         0.0         2746.4768   1361.941    2.3652      
2904.4392   130.6921    -999.25     2.4765      0.3159      -999.25     -999.25     0.5143      0.2         0.0         0.2264      0.0593      0.0         0.0         0.0         2746.8102   1362.1614   2.3654      
2904.5916   134.3335    -999.25     2.4816      0.3159      -999.25     -999.25     0.546       0.2124      0.0         0.1859      0.0558      0.0         0.0         0.0         2747.1437   1362.3819   2.3655      
2904.744    137.9109    -999.25     2.4934      0.3162      -999.25     -999.25     0.5758      0.2239      0.0         0.1508      0.0497      0.0         0.0         0.0         2747.4773   1362.6026   2.3657      
2904.8964   141.3182    -999.25     2.5033      0.3163      -999.25     -999.25     0.5898      0.2293      0.0         0.1424      0.0383      0.0         0.0         0.0         2747.811    1362.8233   2.3659      
2905.0488   143.5496    -999.25     2.5022      0.316       -999.25     -999.25     0.5921      0.2302      0.0         0.1471      0.0308      0.0         0.0         0.0         2748.1448   1363.0442   2.366       
2905.2012   143.5575    -999.25     2.497       0.316       -999.25     -999.25     0.5806      0.2258      0.0         0.1589      0.0348      0.0         0.0         0.0         2748.4787   1363.2651   2.3662      
2905.3536   142.595     -999.25     2.4969      0.3162      -999.25     -999.25     0.5824      0.2264      0.0         0.1527      0.0383      0.0         0.0         0.0         2748.8128   1363.4862   2.3663      
2905.506    142.9705    -999.25     2.5059      0.316       -999.25     -999.25     0.6027      0.2344      0.0         0.1306      0.0322      0.0         0.0         0.0         2749.147    1363.7074   2.3665      
2905.6584   145.2458    -999.25     2.5146      0.3161      -999.25     -999.25     0.6251      0.2431      0.0         0.1017      0.03        0.0         0.0         0.0         2749.4812   1363.9287   2.3666      
2905.8108   148.2581    -999.25     2.5124      0.3161      -999.25     -999.25     0.6195      0.2409      0.0         0.117       0.0226      0.0         0.0         0.0         2749.8156   1364.1501   2.3668      
2905.9632   151.0107    -999.25     2.4981      0.316       -999.25     -999.25     0.6043      0.235       0.0         0.1367      0.024       0.0         0.0         0.0         2750.1502   1364.3716   2.3669      
2906.1156   153.2209    -999.25     2.4796      0.3159      -999.25     -999.25     0.6057      0.2355      0.0         0.1329      0.0259      0.0         0.0         0.0         2750.4848   1364.5932   2.3671      
2906.268    154.4034    -999.25     2.4665      0.3161      -999.25     -999.25     0.6143      0.2389      0.0         0.1152      0.0317      0.0         0.0         0.0         2750.8195   1364.8149   2.3672      
2906.4204   154.466     -999.25     2.4632      0.3163      -999.25     -999.25     0.6203      0.2412      0.0         0.1036      0.0349      0.0         0.0         0.0         2751.1544   1365.0367   2.3674      
2906.5728   153.9766    -999.25     2.4673      0.3165      -999.25     -999.25     0.6139      0.2387      0.0         0.119       0.0284      0.0         0.0         0.0         2751.4893   1365.2586   2.3675      
2906.7252   153.1869    -999.25     2.4843      0.318       -999.25     -999.25     0.6158      0.2395      0.0         0.122       0.0226      0.0         0.0         0.0         2751.8244   1365.4807   2.3677      
2906.8776   149.9844    -999.25     2.525       0.3193      -999.25     -999.25     0.6164      0.2397      0.0         0.1313      0.0129      0.0         0.0         0.0         2752.1596   1365.7028   2.3679      
2907.03     137.9369    -999.25     2.5923      0.3199      -999.25     -999.25     0.5863      0.228       0.0         0.1772      0.0086      0.0         0.0         0.0         2752.4949   1365.925    2.368       
2907.1824   124.5427    -999.25     2.6416      0.32        -999.25     -999.25     0.5299      0.2061      0.0         0.2557      0.0081      0.0         0.0         0.0         2752.8304   1366.1474   2.3682      
2907.3348   118.8607    -999.25     2.6303      0.3198      -999.25     -999.25     0.5024      0.1954      0.0         0.2821      0.0204      0.0         0.0         0.0         2753.1659   1366.3698   2.3683      
2907.4872   123.8341    -999.25     2.5724      0.3202      -999.25     -999.25     0.5131      0.1996      0.0         0.2535      0.0335      0.0         0.0         0.0         2753.5015   1366.5924   2.3685      
2907.6396   134.582     -999.25     2.5237      0.3202      -999.25     -999.25     0.5498      0.2138      0.0         0.2026      0.034       0.0         0.0         0.0         2753.8373   1366.8151   2.3686      
2907.792    140.6423    -999.25     2.5061      0.32        -999.25     -999.25     0.5524      0.2148      0.0         0.2026      0.0301      0.0         0.0         0.0         2754.1732   1367.0378   2.3688      
2907.9444   138.8351    -999.25     2.5099      0.3198      -999.25     -999.25     0.5358      0.2083      0.0         0.225       0.0308      0.0         0.0         0.0         2754.5092   1367.2607   2.3689      
2908.0968   134.6516    -999.25     2.5139      0.3199      -999.25     -999.25     0.531       0.2065      0.0         0.2286      0.034       0.0         0.0         0.0         2754.8453   1367.4837   2.3691      
2908.2492   133.1782    -999.25     2.5163      0.3201      -999.25     -999.25     0.5303      0.2062      0.0         0.2273      0.0361      0.0         0.0         0.0         2755.1815   1367.7068   2.3692      
2908.4016   133.1694    -999.25     2.5196      0.3206      -999.25     -999.25     0.5318      0.2068      0.0         0.2267      0.0347      0.0         0.0         0.0         2755.5178   1367.93     2.3694      
2908.554    132.8464    -999.25     2.5215      0.322       -999.25     -999.25     0.5183      0.2016      0.0         0.248       0.0321      0.0         0.0         0.0         2755.8543   1368.1533   2.3696      
2908.7064   132.0754    -999.25     2.51        0.3231      -999.25     -999.25     0.5042      0.1961      0.0         0.2612      0.0385      0.0         0.0         0.0         2756.1908   1368.3767   2.3697      
2908.8588   130.8819    -999.25     2.5032      0.3238      -999.25     -999.25     0.5009      0.1948      0.0         0.2565      0.0478      0.0         0.0         0.0         2756.5275   1368.6002   2.3699      
2909.0112   130.3296    -999.25     2.5033      0.3243      -999.25     -999.25     0.502       0.1952      0.0         0.2518      0.0508      0.0         0.0         0.0         2756.8643   1368.8238   2.37        
2909.1636   131.361     -999.25     2.5081      0.3259      -999.25     -999.25     0.5145      0.2001      0.0         0.2373      0.0481      0.0         0.0         0.0         2757.2011   1369.0476   2.3702      
2909.316    132.2756    -999.25     2.5178      0.3274      -999.25     -999.25     0.5227      0.2033      0.0         0.2325      0.0415      0.0         0.0         0.0         2757.5381   1369.2714   2.3703      
2909.4684   132.491     -999.25     2.5239      0.3259      -999.25     -999.25     0.5326      0.2071      0.0         0.2217      0.0387      0.0         0.0         0.0         2757.8753   1369.4953   2.3705      
