#----------------------------------------------------------------------------
~VERSION INFORMATION
VERS.            2.0                  :CWLS LOG ASCII STANDARD -VERSION 2.0
WRAP.            NO                   :ONE LINE PER DEPTH STEP
#
#--------------------------------------------------------------------
~WELL INFORMATION
#MNEM .UNIT      DATA                 :DESCRIPTION OF MNEMONIC
#----------      ------------         -------------------------------
STRT  .m         0.0                  :START DEPTH
STEP  .m         0.1524               :STEP DEPTH
STOP  .m         2279.904             :STOP DEPTH
NULL  .          -999.25              :NULL VALUE
COMP  .                               :COMPANY
WELL  .                               :WELL
LOC   .          311975.906,      3195343.67  :LOCATION - AREA
FLD   .                               :FIELD
CTRY  .                               :COUNTRY
DATE  .                               :WELL DATE

XWELL .m          311975               :X POS
YWELL .m          3195343              :Y POS
EDF   .          25.9                 :DERRICK FLOOR ELEVATION
#
#----------------------------------------------------------------------------
~CURVE INFORMATION
#MNEM.UNIT                                  : CURVE DESCRIPTION
#----------                                 -------------------------------
DEPT        .m                              : 1      DEPTH
VSH         .fract                          : 2      Volume
VCL         .fract                          : 3      Volume
SW          .fract                          : 4      Sat
PHIT        .fract                          : 5      Por
PHIE        .fract                          : 6      Por
RHOB        .g/cm3                          : 7      Rho
VP          .m/s                            : 8      Vp
VS          .m/s                            : 9      Vs
Vp_xw       .m/s                            : 10     Vp
Vs_xw       .m/s                            : 11     Vs
Rho_xw      .g/cm3                          : 12     Rho
#
#----------------------------------------------------------------------------
~A          VSH         VCL         SW          PHIT        PHIE        RHOB_raw    VP          VS          Vp_xw       Vs_xw       Rho_xw      
# ...
1367.3328   0.997       0.7389      1.0         0.3004      0.067       2.095       2179.3673   752.7811    2104.9713   715.3302    2.143       
1367.4852   0.997       0.7388      1.0         0.3006      0.0672      2.095       2168.4207   745.1036    2104.4324   714.9909    2.1427      
1367.6376   0.997       0.734       1.0         0.299       0.0671      2.098       2151.6763   736.3256    2110.9926   720.8132    2.1454      
1367.79     0.997       0.7536      1.0         0.2932      0.0552      2.101       2151.6763   730.5443    2120.1188   721.3867    2.1529      
1367.9424   0.997       0.7354      1.0         0.2972      0.0649      2.099       2133.9318   722.9715    2115.6907   723.603     2.148       
1368.0948   0.997       0.7177      0.9715      0.3013      0.0746      2.097       2121.8973   717.764     2093.8471   725.7216    2.141       
1368.2472   0.997       0.7217      0.9764      0.3019      0.074       2.096       2119.5959   714.5899    2093.317    722.1945    2.1402      
1368.3996   0.997       0.7358      1.0         0.2985      0.0661      2.099       2120.923    711.5769    2111.7268   720.802     2.146       
1368.552    0.997       0.7419      1.0         0.2958      0.0615      2.102       2120.9822   710.861     2117.1722   722.7476    2.1497      
1368.7044   0.997       0.7113      1.0         0.2997      0.0751      2.103       2121.6762   713.4815    2118.2828   732.3104    2.1456      
1368.8568   0.997       0.6819      0.9558      0.3026      0.0873      2.104       2122.9766   720.6317    2096.4007   744.2639    2.14        
1369.0092   0.997       0.6717      0.9367      0.3041      0.0921      2.104       2119.6531   719.5262    2085.8122   747.5649    2.137       
1369.1616   0.997       0.6956      1.0         0.2975      0.0779      2.109       2108.45     704.6099    2131.6289   746.0779    2.1498      
1369.314    0.997       0.7214      1.0         0.2836      0.0558      2.123       2095.0751   692.0774    2162.6578   759.0693    2.1691      
1369.4664   0.997       0.7478      1.0         0.2657      0.0297      2.142       2089.8755   690.1212    2207.2851   779.2712    2.1942      
1369.6188   0.997       0.7621      1.0         0.2513      0.0108      2.159       2100.8824   697.9125    2247.9521   799.2992    2.2148      
1369.7712   0.997       0.765       1.0         0.2487      0.0073      2.162       2131.5476   719.9512    2255.3124   802.6801    2.2185      
1369.9236   0.997       0.7628      1.0         0.2578      0.0171      2.15        2172.9187   748.9318    2226.0542   785.9098    2.2051      
1370.076    0.997       0.7486      1.0         0.2743      0.0381      2.13        2201.7872   767.2483    2179.5462   761.5714    2.1814      
1370.2284   0.997       0.7095      1.0         0.2918      0.0679      2.113       2202.2007   771.8664    2142.7631   749.4682    2.1575      
1370.3808   0.997       0.6654      0.88        0.3072      0.0973      2.098       2178.309    770.2116    2049.2393   745.5716    2.1289      
1370.5332   0.997       0.6543      0.798       0.32        0.1136      2.081       2139.1935   757.4565    1976.1951   726.3066    2.1042      
1370.6856   0.997       0.671       0.7508      0.3305      0.1188      2.063       2097.5448   736.7289    1917.096    695.3746    2.0837      
1370.838    0.997       0.6666      0.7098      0.3392      0.1289      2.051       2074.1043   730.1142    1876.917    680.5279    2.0673      
1370.9904   0.9736      0.6158      0.6764      0.345       0.1507      2.051       2080.7356   743.4219    1868.9909   697.6955    2.0584      
1371.1428   0.8953      0.5662      0.6715      0.3432      0.1645      2.062       2112.3462   776.6238    1896.608    732.5868    2.0635      
1371.2952   0.8739      0.5527      0.6952      0.3342      0.1599      2.078       2154.7068   804.0763    1940.9403   762.0002    2.0801      
1371.4476   0.9119      0.5768      0.7517      0.3201      0.1382      2.094       2189.9258   816.3529    1995.0548   776.9011    2.105       
1371.6      0.9191      0.5813      0.7928      0.3104      0.1271      2.107       2204.1432   818.3918    2041.611    795.465     2.1227      
1371.7524   0.9312      0.5889      0.8189      0.305       0.1193      2.113       2198.689    808.5093    2066.6746   802.0905    2.1324      
1371.9048   0.997       0.6424      0.8798      0.2988      0.0962      2.111       2187.8011   787.7384    2086.6595   778.2736    2.1429      
1372.0572   0.997       0.6652      0.8949      0.2984      0.0886      2.107       2183.1152   777.0993    2084.1764   764.1739    2.1432      
1372.2096   0.997       0.6784      0.9133      0.297       0.0831      2.107       2185.9329   775.8511    2091.8318   758.6276    2.1458      
1372.362    0.997       0.6759      0.918       0.2963      0.0832      2.11        2191.497    777.8596    2097.7001   761.6081    2.1473      
1372.5144   0.997       0.6745      0.9087      0.2978      0.0851      2.109       2194.811    782.2991    2088.7664   759.4287    2.1445      
1372.6668   0.997       0.664       0.8458      0.3068      0.0975      2.098       2190.6626   782.1977    2034.1365   747.6867    2.1272      
1372.8192   0.997       0.6553      0.7627      0.3217      0.1151      2.078       2152.6686   772.756     1954.8598   722.5612    2.099       
1372.9716   0.997       0.6428      0.692       0.3369      0.1342      2.058       2134.443    767.3723    1886.3215   698.8714    2.0709      
1373.124    0.9877      0.6246      0.6471      0.3478      0.151       2.045       2138.2134   775.9564    1845.6707   687.006     2.0513      
1373.2764   0.9313      0.5889      0.6232      0.3537      0.1681      2.044       2166.5614   796.2897    1836.2056   695.6737    2.042       
1373.4288   0.9934      0.6282      0.6625      0.3428      0.1448      2.054       2204.9463   810.0013    1864.236    695.2846    2.0602      
1373.5812   0.997       0.6641      0.7267      0.3284      0.1191      2.069       2236.6371   818.6539    1915.7611   703.8917    2.0856      
1373.7336   0.997       0.7044      0.8013      0.3165      0.0944      2.078       2252.8224   821.7621    1966.0733   704.575     2.1071      
1373.886    0.997       0.7477      0.8515      0.3122      0.0766      2.075       2257.5436   821.4477    1985.3859   689.2323    2.1147      
1374.0384   0.997       0.7371      0.7851      0.3215      0.0892      2.063       2258.2126   821.2345    1931.3805   677.4709    2.0965      
1374.1908   0.997       0.7156      0.7057      0.3355      0.11        2.046       2247.9885   817.2827    1866.112    662.1683    2.0702      
1374.3432   0.997       0.6908      0.6375      0.352       0.1343      2.026       2218.7443   803.2879    1803.7548   643.1859    2.0405      
1374.4956   0.997       0.6656      0.5809      0.3706      0.1609      2.003       2182.3384   785.556     1743.6703   619.7462    2.0079      
1374.648    0.997       0.6337      0.5356      0.3899      0.1903      1.976       2156.9932   773.7758    1690.9198   597.5663    1.9749      
1374.8004   0.9695      0.613       0.4954      0.4115      0.2184      1.942       2145.3769   770.5231    1633.1517   565.1207    1.9376      
1374.9528   0.9355      0.5915      0.465       0.4317      0.2454      1.911       2142.1359   772.7825    1584.8055   535.5687    1.9032      
1375.1052   0.9121      0.5767      0.4628      0.4354      0.2537      1.908       2147.5845   779.4909    1580.5058   534.8045    1.8976      
1375.2576   0.9441      0.597       0.4921      0.4171      0.229       1.936       2162.9461   783.5509    1624.392    561.4018    1.9291      
1375.41     0.997       0.6357      0.5375      0.3931      0.1929      1.97        2180.821    785.4874    1683.1659   590.2778    1.9698      
1375.5624   0.997       0.6466      0.5627      0.3827      0.1791      1.986       2190.2685   789.186     1713.5879   605.2894    1.9881      
1375.7148   0.9827      0.6214      0.558       0.3854      0.1897      1.987       2184.3815   791.5225    1714.205    612.2631    1.9846      
