#----------------------------------------------------------------------------
~VERSION INFORMATION
VERS.            2.0                  :CWLS LOG ASCII STANDARD -VERSION 2.0
WRAP.            NO                   :ONE LINE PER DEPTH STEP
#
#--------------------------------------------------------------------
~WELL INFORMATION
#MNEM .UNIT      DATA                 :DESCRIPTION OF MNEMONIC
#----------      ------------         -------------------------------
STRT  .m         0.0                  :START DEPTH
STEP  .m         0.1524               :STEP DEPTH
STOP  .m         4000.0               :STOP DEPTH
NULL  .          -999.25              :NULL VALUE
COMP  .                               :COMPANY
WELL  .          Well5                :WELL
LOC   .                               :LOCATION - AREA
FLD   .                               :FIELD
CTRY  .                               :COUNTRY
DATE  .                               :WELL DATE

XWELL .m          0                    :X POS
YWELL .m          0                    :Y POS
EDF   .          0.0                  :DERRICK FLOOR ELEVATION
#
#----------------------------------------------------------------------------
~CURVE INFORMATION
#MNEM.UNIT                                  : CURVE DESCRIPTION
#----------                                 -------------------------------
DEPT        .m                              : 1      DEPTH
GR          .API                            : 2      GR
PR          .unitless                       : 3      Poisson_Ratio
RHOB        .g/cm3                          : 4      Rho
CALI        .m                              : 5      Cal
VELC        .m/s                            : 6      Vp
VELS        .m/s                            : 7      Vs
Vcdry       .fract                          : 8      Volume
Vbw         .fract                          : 9      Volume
Vcal        .fract                          : 10     Volume
Vqz         .fract                          : 11     Volume
Vparphi     .fract                          : 12     Volume
Voil        .fract                          : 13     Volume
Vgas        .fract                          : 14     Volume
Vw          .fract                          : 15     Volume
Vp_elastic  .m/s                            : 16     Vp
Vs_elastic  .m/s                            : 17     Vs
Rho_elastic .g/cm3                          : 18     Rho
#
#----------------------------------------------------------------------------
~A          GR          PR          RHOB        CALI        VELC        VELS        Vcdry       Vbw         Vcal        Vqz         Vparphi     Voil        Vgas        Vw          Vp_elastic  Vs_elastic  Rho_elastic 
# ...
3185.922    143.6825    -999.25     2.5113      0.3391      3163.9351   -999.25     0.7363      0.2199      0.0         0.0         0.0438      0.0         0.0         0.0         3449.6154   1917.9066   2.5581      
3186.0744   145.9736    -999.25     2.5126      0.3391      3136.7277   -999.25     0.7354      0.2197      0.0         0.0         0.045       0.0         0.0         0.0         3450.0437   1918.3782   2.5578      
3186.2268   146.9326    0.3018      2.5201      0.3387      3119.5175   1662.0268   0.7379      0.2204      0.0         0.0         0.0417      0.0         0.0         0.0         3450.4768   1918.8585   2.5576      
3186.3792   146.8382    0.3063      2.529       0.3386      3108.6      1642.6197   0.746       0.2229      0.0         0.0         0.0313      0.0         0.0         0.0         3450.9146   1919.3476   2.5573      
3186.5316   146.7467    0.3125      2.5309      0.3391      3122.1999   1630.4088   0.753       0.2249      0.0         0.0         0.0221      0.0         0.0         0.0         3451.3569   1919.8452   2.557       
3186.684    146.5704    0.3134      2.5329      0.3401      3118.8082   1625.8      0.7566      0.226       0.0         0.0         0.0174      0.0         0.0         0.0         3451.8037   1920.3512   2.5567      
3186.8364   146.1448    0.3038      2.5464      0.3405      3081.7318   1635.9999   0.7614      0.2274      0.0         0.0         0.0111      0.0         0.0         0.0         3452.255    1920.8655   2.5564      
3186.9888   145.9889    0.302       2.5606      0.3406      3063.8001   1631.909    0.7627      0.2278      0.0         0.0033      0.0062      0.0         0.0         0.0         3452.7106   1921.388    2.5561      
3187.1412   146.6595    0.3093      2.5692      0.3411      3067.1      1611.5134   0.7536      0.2251      0.0         0.0204      9.0E-4      0.0         0.0         0.0         3453.1705   1921.9186   2.5557      
3187.2936   148.7409    0.3114      2.5714      0.342       3066.4015   1604.7      0.7585      0.2266      0.0         0.015       0.0         0.0         0.0         0.0         3453.6346   1922.4571   2.5553      
3187.446    150.6275    0.3103      2.5676      0.3428      3063.2      1606.4962   0.77        0.23        0.0         0.0         0.0         0.0         0.0         0.0         3454.1028   1923.0034   2.5549      
3187.5984   151.4403    0.3111      2.5589      0.3435      3081.6712   1613.5894   0.7641      0.2283      0.0         0.0         0.0076      0.0         0.0         0.0         3454.575    1923.5574   2.5545      
3187.7508   151.8205    0.3127      2.5493      0.3447      3108.5999   1622.8819   0.7553      0.2257      0.0         0.0         0.019       0.0         0.0         0.0         3455.0512   1924.1189   2.5541      
3187.9032   151.1836    0.3         2.5436      0.346       3085.9337   1649.3629   0.7525      0.2248      0.0         0.0         0.0227      0.0         0.0         0.0         3455.5313   1924.6879   2.5537      
3188.0556   148.5355    0.2837      2.544       0.347       3056.3001   1679.5688   0.7577      0.2263      0.0         0.0         0.0159      0.0         0.0         0.0         3456.0153   1925.2642   2.5532      
3188.208    144.7966    0.2985      2.5504      0.3479      3170.4441   1699.1739   0.7452      0.2226      0.0         0.022       0.0103      0.0         0.0         0.0         3456.5029   1925.8477   2.5527      
3188.3604   141.4196    0.3127      2.568       0.3491      3293.7558   1719.3633   0.7124      0.2128      0.0         0.0709      0.004       0.0         0.0         0.0         3456.9943   1926.4383   2.5522      
3188.5128   138.4864    0.3145      2.605       0.3506      3392.7663   1765.0383   0.6623      0.1978      0.0         0.14        0.0         0.0         0.0         0.0         3457.4892   1927.0358   2.5517      
3188.6652   131.0539    0.3162      2.667       0.3526      3497.7124   1813.3309   0.5702      0.1703      0.0         0.2595      0.0         0.0         0.0         0.0         3457.9876   1927.6401   2.5512      
3188.8176   116.5407    0.3071      2.7183      0.355       3546.5351   1871.2217   0.4773      0.1426      0.0         0.3802      0.0         0.0         0.0         0.0         3458.4895   1928.2512   2.5507      
3188.97     99.9454     0.297       2.7158      0.3569      3596.7237   1932.8283   0.4116      0.1229      0.0         0.4651      0.0         0.0         0.0         0.0         3458.9947   1928.8688   2.5501      
3189.1224   90.8561     0.2935      2.6809      0.3575      3665.8074   1981.8341   0.3798      0.1135      0.0         0.493       0.014       0.0         0.0         0.0         3459.5032   1929.4929   2.5496      
3189.2748   94.8867     0.2898      2.652       0.3584      3737.8137   2033.3324   0.403       0.1203      0.0         0.4518      0.0247      0.0         0.0         0.0         3460.0149   1930.1233   2.549       
3189.4272   108.8771    0.2844      2.6337      0.36        3798.3194   2084.8308   0.4634      0.1384      0.0         0.3815      0.0168      0.0         0.0         0.0         3460.5297   1930.76     2.5484      
3189.5796   125.7015    0.2786      2.6204      0.3611      3860.7686   2138.8727   0.5149      0.1538      0.0         0.3313      0.0         0.0         0.0         0.0         3461.0476   1931.4027   2.5478      
3189.732    132.4262    0.2772      2.6083      0.3614      3875.4807   2151.6831   0.4938      0.1475      0.0         0.3587      0.0         0.0         0.0         0.0         3461.5685   1932.0514   2.5472      
3189.8844   127.5527    0.2757      2.5996      0.3615      3890.1999   2164.6747   0.458       0.1368      0.0         0.4052      0.0         0.0         0.0         0.0         3462.0922   1932.7059   2.5465      
3190.0368   121.2376    0.2579      2.5933      0.3614      3855.8447   2202.1499   0.434       0.1296      0.0         0.4363      0.0         0.0         0.0         0.0         3462.6188   1933.3662   2.5459      
3190.1892   118.3408    0.2381      2.5877      0.3612      3822.1001   2240.9806   0.4269      0.1275      0.0         0.4456      0.0         0.0         0.0         0.0         3463.1481   1934.032    2.5452      
3190.3416   116.6983    0.2423      2.5829      0.3612      3858.3519   2250.088    0.41        0.1225      0.0         0.4675      0.0         0.0         0.0         0.0         3463.6802   1934.7034   2.5445      
3190.494    115.0634    0.2465      2.5802      0.3613      3895.2546   2259.2805   0.3943      0.1177      0.0         0.4879      0.0         0.0         0.0         0.0         3464.2148   1935.38     2.5439      
3190.6464   113.2744    0.2399      2.5828      0.3613      3927.8568   2297.5489   0.3891      0.1162      0.0         0.4931      0.0017      0.0         0.0         0.0         3464.7519   1936.0619   2.5432      
3190.7988   111.0422    0.233       2.592       0.3613      3961.0665   2337.1999   0.3931      0.1174      0.0         0.4822      0.0073      0.0         0.0         0.0         3465.2914   1936.749    2.5424      
3190.9512   108.8513    0.2393      2.6042      0.3614      3981.7728   2330.9082   0.4004      0.1196      0.0         0.4676      0.0125      0.0         0.0         0.0         3465.8334   1937.441    2.5417      
3191.1036   108.138     0.2455      2.6103      0.3614      4002.4999   2324.7099   0.4082      0.1219      0.0         0.4549      0.015       0.0         0.0         0.0         3466.3776   1938.1378   2.541       
3191.256    110.5757    0.2396      2.6076      0.3611      3955.8606   2315.0127   0.4248      0.1269      0.0         0.4368      0.0115      0.0         0.0         0.0         3466.924    1938.8394   2.5402      
3191.4084   114.131     0.2336      2.599       0.3599      3910.217    2305.316    0.4394      0.1313      0.0         0.4235      0.0059      0.0         0.0         0.0         3467.4726   1939.5456   2.5395      
