#----------------------------------------------------------------------------
~VERSION INFORMATION
VERS.            2.0                  :CWLS LOG ASCII STANDARD -VERSION 2.0
WRAP.            NO                   :ONE LINE PER DEPTH STEP
#
#--------------------------------------------------------------------
~WELL INFORMATION
#MNEM .UNIT      DATA                 :DESCRIPTION OF MNEMONIC
#----------      ------------         -------------------------------
STRT  .m         0.0                  :START DEPTH
STEP  .m         0.1524               :STEP DEPTH
STOP  .m         2279.904             :STOP DEPTH
NULL  .          -999.25              :NULL VALUE
COMP  .                               :COMPANY
WELL  .                               :WELL
LOC   .          311975.906,      3195343.67  :LOCATION - AREA
FLD   .                               :FIELD
CTRY  .                               :COUNTRY
DATE  .                               :WELL DATE

XWELL .m          311975               :X POS
YWELL .m          3195343              :Y POS
EDF   .          25.9                 :DERRICK FLOOR ELEVATION
#
#----------------------------------------------------------------------------
~CURVE INFORMATION
#MNEM.UNIT                                  : CURVE DESCRIPTION
#----------                                 -------------------------------
DEPT        .m                              : 1      DEPTH
VSH         .fract                          : 2      Volume
VCL         .fract                          : 3      Volume
SW          .fract                          : 4      Sat
PHIT        .fract                          : 5      Por
PHIE        .fract                          : 6      Por
RHOB        .g/cm3                          : 7      Rho
VP          .m/s                            : 8      Vp
VS          .m/s                            : 9      Vs
Vp_xw       .m/s                            : 10     Vp
Vs_xw       .m/s                            : 11     Vs
Rho_xw      .g/cm3                          : 12     Rho
#
#----------------------------------------------------------------------------
~A          VSH         VCL         SW          PHIT        PHIE        RHOB_raw    VP          VS          Vp_xw       Vs_xw       Rho_xw      
# ...
2186.6352   0.714       0.4553      0.7758      0.2281      0.1214      2.274       2649.8589   1194.6465   2471.3583   1128.9203   2.2571      
2186.7876   0.733       0.4674      0.7639      0.2263      0.1168      2.278       2650.7111   1195.5288   2461.6365   1119.3499   2.2585      
2186.94     0.732       0.4668      0.7195      0.2279      0.1186      2.279       2650.8718   1202.795    2439.3832   1116.0761   2.2539      
2187.0924   0.6996      0.4462      0.6367      0.2378      0.1332      2.276       2646.8888   1212.3825   2390.0142   1113.9123   2.2352      
2187.2448   0.68        0.4337      0.5447      0.2548      0.1531      2.263       2625.7867   1210.5207   2298.2609   1081.0702   2.2037      
2187.3972   0.644       0.4109      0.4685      0.2745      0.1783      2.238       2573.4218   1194.4748   2214.6945   1051.8769   2.1686      
2187.5496   0.5508      0.3517      0.4188      0.2902      0.2078      2.21        2493.702    1172.315    2204.4316   1078.8315   2.1431      
2187.702    0.4598      0.2939      0.3846      0.2997      0.2309      2.192       2409.1835   1148.1216   2233.4353   1128.7513   2.1284      
2187.8544   0.424       0.2711      0.3562      0.3048      0.2414      2.183       2344.6182   1124.3582   2237.9616   1146.1048   2.1193      
2188.0068   0.4211      0.2693      0.3388      0.3047      0.2416      2.177       2312.8406   1112.8815   2237.9404   1149.5562   2.1184      
2188.1592   0.4265      0.2727      0.3408      0.295       0.2311      2.177       2313.0696   1115.6826   2282.0946   1178.2929   2.1346      
2188.3116   0.4417      0.2824      0.3556      0.2797      0.2136      2.191       2338.8754   1132.2794   2348.3515   1216.4514   2.1605      
2188.464    0.4629      0.2958      0.3625      0.2716      0.2023      2.213       2384.2817   1155.0984   2369.5801   1222.9719   2.1737      
2188.6164   0.5074      0.3241      0.346       0.278       0.2021      2.224       2433.9307   1166.7502   2287.3483   1157.7854   2.1604      
2188.7688   0.5648      0.3605      0.3163      0.2938      0.2094      2.211       2457.4427   1162.6433   2153.9327   1057.9466   2.1301      
2188.9212   0.564       0.3601      0.2923      0.3088      0.2245      2.183       2435.3478   1148.5507   2081.8164   1012.7956   2.1034      
2189.0736   0.4816      0.3077      0.2768      0.3181      0.2461      2.16        2379.8789   1135.6041   2104.158    1050.1742   2.0895      
2189.226    0.3975      0.2543      0.258       0.3214      0.2618      2.151       2319.3348   1131.8492   2163.7323   1115.4934   2.0856      
2189.3784   0.3768      0.2411      0.2284      0.3195      0.2631      2.151       2319.3347   1131.5864   2189.7425   1143.4059   2.0874      
2189.5308   0.3815      0.2441      0.1923      0.3218      0.2647      2.154       2276.3317   1123.5371   2167.0952   1131.1195   2.0808      
2189.6832   0.3563      0.2281      0.1623      0.3342      0.2808      2.149       2259.5681   1118.2829   2126.7434   1112.3181   2.0582      
2189.8356   0.3018      0.1934      0.1476      0.3507      0.3054      2.131       2258.8817   1122.2165   2100.5409   1107.5488   2.0306      
2189.988    0.2564      0.1646      0.1465      0.3612      0.3226      2.109       2255.6071   1124.8437   2097.7501   1115.5625   2.0139      
2190.1404   0.2357      0.1514      0.1552      0.3602      0.3248      2.096       2241.3456   1121.7334   2128.4735   1142.1269   2.017       
2190.2928   0.2275      0.1462      0.1716      0.3498      0.3155      2.099       2221.634    1114.6409   2196.6559   1192.9341   2.0365      
2190.4452   0.2389      0.1534      0.1959      0.3333      0.2974      2.116       2209.7844   1108.6328   2276.84     1246.0678   2.0663      
2190.5976   0.2873      0.1842      0.2298      0.3161      0.273       2.141       2216.5628   1103.8048   2314.2803   1255.5511   2.0964      
2190.75     0.3548      0.2271      0.2723      0.3034      0.2503      2.165       2240.1767   1101.3641   2306.4698   1225.3338   2.1185      
2190.9024   0.4028      0.2576      0.3206      0.2922      0.2319      2.181       2270.6347   1103.4466   2319.0509   1213.3871   2.1388      
2191.0548   0.4207      0.269       0.3721      0.281       0.218       2.196       2305.2925   1113.6259   2368.1542   1233.8013   2.1602      
2191.2072   0.4246      0.2714      0.4201      0.2715      0.208       2.213       2347.8127   1130.9062   2424.7055   1263.2556   2.1787      
2191.3596   0.4345      0.2778      0.4594      0.2649      0.2         2.228       2395.671    1150.8871   2457.2599   1275.4235   2.1916      
2191.512    0.4433      0.2834      0.4918      0.2623      0.196       2.238       2442.5974   1170.8822   2468.3022   1274.5638   2.1974      
2191.6644   0.4372      0.2795      0.5238      0.2618      0.1964      2.242       2483.0295   1189.149    2485.2799   1282.6231   2.2003      
2191.8168   0.4286      0.274       0.5573      0.26        0.1959      2.244       2509.3079   1198.7567   2513.08     1298.3472   2.2055      
2191.9692   0.4431      0.2832      0.594       0.2545      0.1883      2.248       2519.4231   1197.5107   2535.4056   1301.4434   2.2159      
2192.1216   0.4858      0.3103      0.6268      0.248       0.1754      2.256       2524.1177   1188.6049   2531.2649   1277.3283   2.2266      
2192.274    0.542       0.3461      0.6366      0.2468      0.1659      2.263       2536.0771   1183.1636   2481.7991   1223.7298   2.2269      
2192.4264   0.5884      0.3756      0.6297      0.2492      0.1614      2.261       2558.1057   1185.891    2424.0424   1172.6285   2.2209      
2192.5788   0.6043      0.3857      0.6141      0.2531      0.1629      2.254       2585.1677   1199.3179   2386.3826   1146.6223   2.2132      
2192.7312   0.5791      0.3697      0.596       0.2568      0.1704      2.247       2607.9056   1220.6963   2385.0642   1157.3086   2.2072      
2192.8836   0.5257      0.3357      0.5731      0.2605      0.182       2.243       2613.6113   1235.8592   2410.0774   1195.0238   2.2019      
2193.036    0.4942      0.3157      0.5488      0.2623      0.1884      2.241       2592.2048   1233.7649   2426.1507   1220.2209   2.1988      
2193.1884   0.5069      0.3237      0.5256      0.2612      0.1855      2.24        2547.4264   1212.3041   2413.3839   1211.793    2.1987      
2193.3408   0.5109      0.3263      0.5034      0.2607      0.1844      2.24        2501.234    1192.325    2406.5732   1209.8013   2.1981      
2193.4932   0.473       0.3022      0.486       0.2635      0.1928      2.238       2481.7889   1191.7047   2427.5155   1238.7919   2.194       
2193.6456   0.4389      0.2805      0.4688      0.2723      0.2067      2.227       2505.5911   1209.6674   2414.1584   1243.9634   2.1798      
2193.798    0.4541      0.2902      0.4551      0.283       0.2151      2.21        2552.9133   1223.9469   2338.4477   1190.5911   2.1608      
2193.9504   0.4872      0.3113      0.4576      0.2869      0.2141      2.202       2552.9133   1226.3439   2286.2083   1145.0357   2.1533      
2194.1028   0.4734      0.3025      0.4801      0.2825      0.2118      2.21        2572.1029   1228.9652   2326.9218   1172.7638   2.1624      
2194.2552   0.4092      0.2616      0.5134      0.2739      0.2128      2.228       2538.121    1224.9708   2449.4341   1270.034    2.1809      
2194.4076   0.3457      0.2213      0.5448      0.2659      0.2142      2.245       2490.473    1209.0477   2582.0493   1376.5958   2.1982      
2194.56     0.3235      0.2072      0.5653      0.2617      0.2133      2.253       2470.7571   1199.3051   2642.808    1422.7532   2.2071      
2194.7124   0.3439      0.2201      0.5761      0.2608      0.2093      2.253       2482.8667   1199.8442   2621.73     1398.9115   2.2084      
2194.8648   0.3924      0.251       0.5764      0.2616      0.203       2.248       2516.1246   1209.2026   2552.6747   1334.3687   2.2053      
2195.0172   0.4418      0.2824      0.5685      0.261       0.195       2.245       2555.2959   1224.0682   2494.827    1279.6989   2.204       
