#----------------------------------------------------------------------------
~VERSION INFORMATION
VERS.            2.0                  :CWLS LOG ASCII STANDARD -VERSION 2.0
WRAP.            NO                   :ONE LINE PER DEPTH STEP
#
#--------------------------------------------------------------------
~WELL INFORMATION
#MNEM .UNIT      DATA                 :DESCRIPTION OF MNEMONIC
#----------      ------------         -------------------------------
STRT  .m         0.0                  :START DEPTH
STEP  .m         0.1524               :STEP DEPTH
STOP  .m         2279.904             :STOP DEPTH
NULL  .          -999.25              :NULL VALUE
COMP  .                               :COMPANY
WELL  .                               :WELL
LOC   .          311975.906,      3195343.67  :LOCATION - AREA
FLD   .                               :FIELD
CTRY  .                               :COUNTRY
DATE  .                               :WELL DATE

XWELL .m          311975               :X POS
YWELL .m          3195343              :Y POS
EDF   .          25.9                 :DERRICK FLOOR ELEVATION
#
#----------------------------------------------------------------------------
~CURVE INFORMATION
#MNEM.UNIT                                  : CURVE DESCRIPTION
#----------                                 -------------------------------
DEPT        .m                              : 1      DEPTH
VSH         .fract                          : 2      Volume
VCL         .fract                          : 3      Volume
SW          .fract                          : 4      Sat
PHIT        .fract                          : 5      Por
PHIE        .fract                          : 6      Por
RHOB        .g/cm3                          : 7      Rho
VP          .m/s                            : 8      Vp
VS          .m/s                            : 9      Vs
Vp_xw       .m/s                            : 10     Vp
Vs_xw       .m/s                            : 11     Vs
Rho_xw      .g/cm3                          : 12     Rho
#
#----------------------------------------------------------------------------
~A          VSH         VCL         SW          PHIT        PHIE        RHOB_raw    VP          VS          Vp_xw       Vs_xw       Rho_xw      
# ...
1555.0896   0.997       0.7355      1.0         0.269       0.052       2.161       2166.4932   744.9871    2202.3376   780.1477    2.19        
1555.242    0.997       0.7291      1.0         0.2629      0.0478      2.17        2189.2293   761.2255    2225.28     796.6012    2.1995      
1555.3944   0.997       0.7087      1.0         0.2626      0.0535      2.173       2204.5102   771.045     2236.4361   810.4522    2.2012      
1555.5468   0.997       0.6986      1.0         0.2655      0.0595      2.17        2204.6377   771.7796    2231.8924   811.0559    2.1974      
1555.6992   0.997       0.7042      1.0         0.2693      0.0616      2.164       2195.3346   766.4285    2216.4538   799.3728    2.1914      
1555.8516   0.997       0.6864      1.0         0.2768      0.0744      2.157       2186.4046   759.5429    2200.8026   795.2009    2.1812      
1556.004    0.997       0.6634      0.9941      0.2851      0.0894      2.15        2179.4301   756.8184    2182.0153   792.7085    2.1698      
1556.1564   0.997       0.6701      0.9635      0.2898      0.0922      2.143       2173.4947   757.4276    2145.9704   778.5697    2.1604      
1556.3088   0.997       0.6905      0.9584      0.2917      0.088       2.138       2174.5181   759.6989    2127.3376   761.699     2.1561      
1556.4612   0.997       0.707       0.9801      0.2895      0.0811      2.139       2186.7484   764.1775    2139.0719   755.9096    2.1598      
1556.6136   0.997       0.7089      1.0         0.283       0.074       2.148       2204.0494   772.5678    2170.2026   767.913     2.1707      
1556.766    0.997       0.6831      1.0         0.2763      0.0749      2.161       2216.2913   780.7777    2204.0879   798.4356    2.1822      
1556.9184   0.997       0.6456      1.0         0.2753      0.085       2.168       2220.7325   784.0556    2227.233    826.3594    2.1859      
1557.0708   0.997       0.6429      1.0         0.2795      0.09        2.162       2219.3585   783.3701    2214.634    818.9593    2.1797      
1557.2232   0.997       0.6742      1.0         0.2835      0.0848      2.151       2214.2637   780.1009    2185.2371   788.9413    2.1719      
1557.3756   0.997       0.6998      1.0         0.2849      0.0786      2.145       2210.6821   778.3321    2168.4659   769.6194    2.1684      
1557.528    0.997       0.7086      1.0         0.2845      0.0757      2.144       2213.3801   779.8696    2165.6502   765.0044    2.1685      
1557.6804   0.997       0.716       1.0         0.2821      0.0711      2.146       2221.1713   785.239     2169.7627   765.4049    2.1716      
1557.8328   0.997       0.7185      1.0         0.2775      0.0657      2.152       2230.2398   792.0529    2183.0947   773.3022    2.1783      
1557.9852   0.997       0.708       1.0         0.2712      0.0625      2.162       2240.2231   799.9237    2208.3542   792.9452    2.1884      
1558.1376   0.997       0.6869      1.0         0.2661      0.0637      2.172       2254.1719   810.2934    2235.9608   817.6585    2.1972      
1558.29     0.997       0.6648      1.0         0.2626      0.0668      2.18        2271.8655   822.7904    2259.9338   840.669     2.2038      
1558.4424   0.997       0.6562      1.0         0.2613      0.068       2.183       2286.7941   833.3614    2269.3567   849.7627    2.2062      
1558.5948   0.997       0.6641      1.0         0.2605      0.0648      2.183       2292.6257   836.7228    2267.6279   845.7848    2.2069      
1558.7472   0.997       0.6699      1.0         0.2607      0.0633      2.182       2287.07     833.6946    2263.6576   841.1796    2.2063      
1558.8996   0.997       0.6639      1.0         0.2643      0.0687      2.178       2273.5914   824.2556    2254.5621   837.5803    2.2013      
1559.052    0.997       0.6579      1.0         0.2709      0.077       2.17        2259.6038   814.6157    2235.3319   827.3509    2.1917      
1559.2044   0.997       0.6542      0.992       0.2757      0.083       2.164       2248.9824   806.975     2216.5244   819.4952    2.1843      
1559.3568   0.997       0.6555      1.0         0.2741      0.081       2.166       2241.2432   800.8266    2225.8419   822.0076    2.1871      
1559.5092   0.997       0.6664      1.0         0.2706      0.0744      2.169       2238.1497   798.9027    2231.716    822.0455    2.1917      
1559.6616   0.997       0.6759      1.0         0.2702      0.0712      2.168       2242.1996   801.3254    2227.9889   816.3573    2.1917      
1559.814    0.997       0.6764      1.0         0.2731      0.0739      2.164       2251.458    807.8049    2218.0596   809.7724    2.1874      
1559.9664   0.997       0.6707      1.0         0.273       0.0754      2.165       2259.4346   812.4358    2221.381    813.8698    2.1878      
1560.1188   0.997       0.6525      1.0         0.2691      0.0769      2.173       2258.2453   811.4343    2244.458    835.1656    2.1947      
1560.2712   0.9961      0.6222      1.0         0.2679      0.0848      2.179       2246.096    804.3725    2266.2896   860.316     2.1983      
1560.4236   0.9703      0.6061      1.0         0.2704      0.092       2.178       2228.8371   793.2035    2267.3517   866.993     2.1955      
1560.576    0.9946      0.6213      1.0         0.271       0.0881      2.175       2212.5102   780.1014    2255.9656   853.9024    2.1937      
1560.7284   0.997       0.6544      1.0         0.2676      0.0749      2.175       2201.7077   771.9871    2248.5338   837.1189    2.1969      
1560.8808   0.997       0.6704      1.0         0.263       0.0656      2.179       2200.9287   771.5337    2255.4249   835.8021    2.2028      
1561.0332   0.997       0.6514      1.0         0.2628      0.0711      2.182       2210.2315   777.3863    2266.8811   849.9469    2.2042      
1561.1856   0.997       0.6254      1.0         0.2663      0.0823      2.181       2224.849    787.8589    2269.9886   861.5279    2.2005      
1561.338    0.997       0.6256      1.0         0.2686      0.0845      2.178       2239.3465   798.4236    2261.7822   856.1274    2.1971      
1561.4904   0.997       0.6408      1.0         0.2692      0.0806      2.175       2249.7108   805.5312    2250.7668   843.4378    2.1953      
1561.6428   0.997       0.6467      1.0         0.268       0.0777      2.176       2251.8064   806.5802    2251.5221   841.8033    2.1967      
1561.7952   0.997       0.6426      1.0         0.268       0.0789      2.177       2243.4842   800.4829    2253.8756   844.8028    2.197       
1561.9476   0.997       0.6261      1.0         0.2725      0.0882      2.174       2229.1597   795.7174    2247.9109   846.8736    2.1912      
1562.1      0.9593      0.5991      0.9422      0.2812      0.105       2.166       2216.2117   799.2182    2201.9088   847.9831    2.1761      
1562.2524   0.9486      0.5924      0.9032      0.2879      0.1136      2.158       2207.7189   801.8908    2162.6597   837.985     2.1639      
1562.4048   0.9776      0.6106      0.9002      0.2901      0.1105      2.153       2202.2806   795.8814    2142.8452   819.4544    2.1593      
1562.5572   0.997       0.6287      0.9105      0.2902      0.1053      2.151       2199.0073   789.4944    2137.5658   806.1973    2.1588      
1562.7096   0.997       0.6289      0.9079      0.2914      0.1064      2.15        2200.7057   791.2717    2132.1503   803.4147    2.1568      
1562.862    0.9772      0.6103      0.8923      0.2933      0.1138      2.15        2213.4918   805.3524    2128.3091   812.4959    2.1539      
1563.0144   0.9374      0.5855      0.886       0.2929      0.1207      2.154       2238.5223   827.868     2141.1483   831.774     2.1555      
1563.1668   0.94        0.587       0.9075      0.2887      0.1161      2.16        2266.6907   842.1297    2165.3859   840.1793    2.1632      
1563.3192   0.9856      0.6155      0.9312      0.286       0.105       2.16        2284.3096   844.6914    2169.8786   824.8372    2.1672      
1563.4716   0.997       0.6241      0.9158      0.2886      0.105       2.155       2281.6048   843.6626    2148.1834   812.9612    2.1618      
