#----------------------------------------------------------------------------
~VERSION INFORMATION
VERS.            2.0                  :CWLS LOG ASCII STANDARD -VERSION 2.0
WRAP.            NO                   :ONE LINE PER DEPTH STEP
#
#--------------------------------------------------------------------
~WELL INFORMATION
#MNEM .UNIT      DATA                 :DESCRIPTION OF MNEMONIC
#----------      ------------         -------------------------------
STRT  .m         0.0                  :START DEPTH
STEP  .m         0.1524               :STEP DEPTH
STOP  .m         4000.0               :STOP DEPTH
NULL  .          -999.25              :NULL VALUE
COMP  .                               :COMPANY
WELL  .          Well5                :WELL
LOC   .                               :LOCATION - AREA
FLD   .                               :FIELD
CTRY  .                               :COUNTRY
DATE  .                               :WELL DATE

XWELL .m          0                    :X POS
YWELL .m          0                    :Y POS
EDF   .          0.0                  :DERRICK FLOOR ELEVATION
#
#----------------------------------------------------------------------------
~CURVE INFORMATION
#MNEM.UNIT                                  : CURVE DESCRIPTION
#----------                                 -------------------------------
DEPT        .m                              : 1      DEPTH
GR          .API                            : 2      GR
PR          .unitless                       : 3      Poisson_Ratio
RHOB        .g/cm3                          : 4      Rho
CALI        .m                              : 5      Cal
VELC        .m/s                            : 6      Vp
VELS        .m/s                            : 7      Vs
Vcdry       .fract                          : 8      Volume
Vbw         .fract                          : 9      Volume
Vcal        .fract                          : 10     Volume
Vqz         .fract                          : 11     Volume
Vparphi     .fract                          : 12     Volume
Voil        .fract                          : 13     Volume
Vgas        .fract                          : 14     Volume
Vw          .fract                          : 15     Volume
Vp_elastic  .m/s                            : 16     Vp
Vs_elastic  .m/s                            : 17     Vs
Rho_elastic .g/cm3                          : 18     Rho
#
#----------------------------------------------------------------------------
~A          GR          PR          RHOB        CALI        VELC        VELS        Vcdry       Vbw         Vcal        Vqz         Vparphi     Voil        Vgas        Vw          Vp_elastic  Vs_elastic  Rho_elastic 
# ...
3467.862    75.0605     0.2438      2.4255      0.2926      3829.2969   2228.7647   0.1171      0.024       0.0         0.719       0.0         0.0         0.0224      0.1175      4094.4531   2445.4226   2.4887      
3468.0144   74.2337     0.2347      2.421       0.2925      3831.6943   2255.9696   0.1223      0.0251      0.0         0.7129      0.0         0.0         0.0217      0.118       4094.3554   2445.219    2.4885      
3468.1668   70.9608     0.2326      2.4072      0.2925      3855.8679   2276.1733   0.0917      0.0188      0.0         0.7369      0.0         0.0         0.0302      0.1226      4094.2557   2445.0111   2.4882      
3468.3192   70.4956     0.2304      2.3912      0.2927      3880.4676   2296.6717   0.0915      0.0187      0.0         0.7323      0.0         0.0         0.0332      0.1242      4094.1539   2444.799    2.488       
3468.4716   71.9738     0.2275      2.3825      0.2931      3905.2673   2319.3699   0.0958      0.0196      0.0         0.7261      0.0         0.0         0.036       0.1225      4094.05     2444.5826   2.4878      
3468.624    73.0732     0.2245      2.3835      0.2933      3930.3778   2342.5648   0.0964      0.0197      0.0         0.7275      0.0         0.0         0.0385      0.1179      4093.9442   2444.3622   2.4876      
3468.7764   73.5504     0.2155      2.3903      0.2933      3943.0833   2374.4575   0.0896      0.0184      0.0         0.7407      0.0         0.0         0.0396      0.1118      4093.8364   2444.1377   2.4874      
3468.9288   73.7862     0.2059      2.4107      0.2933      3955.9      2407.2663   0.0881      0.018       0.0         0.7496      0.0         0.0         0.0381      0.1058      4093.7268   2443.9091   2.4872      
3469.0812   75.5128     0.1945      2.4402      0.2933      3943.1167   2428.3721   0.1366      0.028       0.0         0.7125      0.0         0.0         0.0246      0.0984      4093.6152   2443.6767   2.4869      
3469.2336   78.4487     0.1824      2.4586      0.2933      3930.5      2449.7729   0.1512      0.031       0.0         0.7         0.0         0.0         0.0244      0.0933      4093.5018   2443.4404   2.4867      
3469.386    78.8886     0.1901      2.4627      0.2935      3992.3176   2469.6738   0.186       0.0381      0.0         0.6671      0.0151      0.0         0.0211      0.0726      4093.3865   2443.2002   2.4865      
3469.5384   76.3284     0.1976      2.467       0.2935      4055.8706   2489.7771   0.1699      0.0348      0.0         0.6843      0.0124      0.0         0.0233      0.0753      4093.2695   2442.9564   2.4863      
3469.6908   74.8579     0.1949      2.4612      0.2935      4069.3822   2505.1797   0.159       0.0326      0.0         0.6988      0.001       0.0         0.0244      0.0844      4093.1507   2442.7089   2.486       
3469.8432   75.8051     0.1921      2.4559      0.2937      4082.984    2520.673    0.112       0.0229      0.0         0.7482      0.0         0.0         0.0276      0.0893      4093.0302   2442.4578   2.4858      
3469.9956   77.009      0.1825      2.4524      0.2937      4093.9856   2551.2594   0.0983      0.0202      0.0         0.7631      0.0         0.0         0.0257      0.0927      4092.908    2442.2032   2.4856      
3470.148    76.2753     0.1725      2.4534      0.2934      4104.9826   2582.5716   0.0913      0.0187      0.0         0.7703      0.0         0.0         0.023       0.0966      4092.7841   2441.9451   2.4853      
3470.3004   75.0355     0.1699      2.4563      0.2933      4121.5781   2599.0782   0.1058      0.0217      0.0         0.7589      0.0         0.0         0.0203      0.0933      4092.6586   2441.6836   2.4851      
3470.4528   75.1351     0.1673      2.4581      0.2935      4138.3999   2615.7999   0.0752      0.0154      0.0         0.7895      0.0         0.0         0.0248      0.0951      4092.5315   2441.4188   2.4849      
3470.6052   75.8944     0.1692      2.4579      0.2938      4138.4      2611.3059   0.0923      0.0189      0.0         0.7783      0.0         0.0         0.018       0.0925      4092.4028   2441.1507   2.4846      
3470.7576   74.814      0.1711      2.453       0.2937      4138.4      2606.8075   0.0727      0.0149      0.0         0.7977      0.0         0.0         0.0209      0.0938      4092.2726   2440.8794   2.4844      
3470.91     73.8563     0.1729      2.4479      0.2939      4132.8074   2599.0102   0.0762      0.0156      0.0         0.7909      0.0         0.0         0.0233      0.094       4092.1409   2440.605    2.4841      
3471.0624   73.391      0.1746      2.4436      0.2942      4127.2      2591.3114   0.05        0.0102      0.0         0.8124      0.0         0.0         0.0304      0.0969      4092.0078   2440.3275   2.4839      
3471.2148   74.0729     0.1794      2.4405      0.2947      4129.9963   2581.4129   0.0771      0.0158      0.0         0.7888      0.0         0.0         0.0265      0.0917      4091.8732   2440.0471   2.4836      
3471.3672   75.8351     0.1841      2.4393      0.2955      4132.8      2571.7112   0.0699      0.0144      0.0         0.795       0.0         0.0         0.0279      0.093       4091.7371   2439.7637   2.4834      
3471.5196   77.7951     0.185       2.4396      0.2951      4124.411    2564.1099   0.0596      0.0122      0.0         0.802       0.0         0.0         0.0353      0.0908      4091.5998   2439.4774   2.4831      
3471.672    79.7699     0.1859      2.4419      0.2946      4116.1      2556.6      0.0755      0.0154      0.0         0.7869      0.0         0.0         0.0357      0.0865      4091.461    2439.1884   2.4829      
3471.8244   81.0602     0.188       2.4456      0.2951      4124.389    2556.6      0.0827      0.0169      0.0         0.7815      0.0         0.0         0.0332      0.0858      4091.321    2438.8966   2.4826      
3471.9768   81.5118     0.19        2.4496      0.2961      4132.7853   2556.6      0.0917      0.0187      0.0         0.7744      0.0         0.0         0.0332      0.0818      4091.1797   2438.6021   2.4824      
3472.1292   81.6206     0.1886      2.4552      0.2965      4149.6777   2570.5815   0.1023      0.0209      0.0         0.7658      0.0         0.0         0.0323      0.0786      4091.0371   2438.3051   2.4821      
3472.2816   81.2152     0.1872      2.4658      0.296       4166.6686   2584.78     0.1058      0.0217      0.0         0.7663      0.0         0.0         0.0295      0.0765      4090.8933   2438.0055   2.4819      
3472.434    79.5398     0.1905      2.48        0.2955      4206.9467   2601.2781   0.0974      0.0199      0.0         0.7824      0.0         0.0         0.0273      0.0729      4090.7483   2437.7034   2.4816      
3472.5864   77.4001     0.1938      2.4945      0.2961      4247.8673   2618.0803   0.103       0.0211      0.0         0.7865      0.0         0.0         0.0225      0.0672      4090.6022   2437.399    2.4814      
3472.7388   76.3876     0.1928      2.5049      0.2972      4265.7765   2631.5822   0.0778      0.0159      0.0         0.8155      0.0         0.0         0.0233      0.0676      4090.455    2437.0922   2.4811      
3472.8912   77.2617     0.1918      2.5063      0.2974      4283.6999   2645.2879   0.0799      0.0163      0.0         0.8177      0.0         0.0         0.0209      0.0653      4090.3067   2436.7832   2.4809      
3473.0436   79.1042     0.1885      2.5019      0.2973      4280.7037   2652.1915   0.0844      0.0173      0.0         0.8124      0.0         0.0         0.0214      0.0645      4090.1573   2436.472    2.4806      
3473.196    81.0465     0.1855      2.4964      0.2974      4278.0      2658.3      0.0896      0.0183      0.0         0.8058      0.0         0.0         0.0179      0.0684      4090.0069   2436.1586   2.4804      
3473.3484   80.5131     0.1879      2.4935      0.2973      4279.997    2653.2076   0.093       0.019       0.0         0.7969      0.0         0.0         0.0197      0.0713      4089.8555   2435.8432   2.4801      
