#----------------------------------------------------------------------------
~VERSION INFORMATION
VERS.            2.0                  :CWLS LOG ASCII STANDARD -VERSION 2.0
WRAP.            NO                   :ONE LINE PER DEPTH STEP
#
#--------------------------------------------------------------------
~WELL INFORMATION
#MNEM .UNIT      DATA                 :DESCRIPTION OF MNEMONIC
#----------      ------------         -------------------------------
STRT  .m         0.0                  :START DEPTH
STEP  .m         0.1524               :STEP DEPTH
STOP  .m         2279.904             :STOP DEPTH
NULL  .          -999.25              :NULL VALUE
COMP  .                               :COMPANY
WELL  .                               :WELL
LOC   .          311975.906,      3195343.67  :LOCATION - AREA
FLD   .                               :FIELD
CTRY  .                               :COUNTRY
DATE  .                               :WELL DATE

XWELL .m          311975               :X POS
YWELL .m          3195343              :Y POS
EDF   .          25.9                 :DERRICK FLOOR ELEVATION
#
#----------------------------------------------------------------------------
~CURVE INFORMATION
#MNEM.UNIT                                  : CURVE DESCRIPTION
#----------                                 -------------------------------
DEPT        .m                              : 1      DEPTH
VSH         .fract                          : 2      Volume
VCL         .fract                          : 3      Volume
SW          .fract                          : 4      Sat
PHIT        .fract                          : 5      Por
PHIE        .fract                          : 6      Por
RHOB        .g/cm3                          : 7      Rho
VP          .m/s                            : 8      Vp
VS          .m/s                            : 9      Vs
Vp_xw       .m/s                            : 10     Vp
Vs_xw       .m/s                            : 11     Vs
Rho_xw      .g/cm3                          : 12     Rho
#
#----------------------------------------------------------------------------
~A          VSH         VCL         SW          PHIT        PHIE        RHOB_raw    VP          VS          Vp_xw       Vs_xw       Rho_xw      
# ...
1623.3648   0.3354      0.2087      0.8757      0.3752      0.3151      2.115       2287.6355   960.1777    2156.9886   981.1885    2.0477      
1623.5172   0.3465      0.2155      0.8824      0.3619      0.2999      2.138       2294.73     962.4682    2207.5783   1018.1501   2.0687      
1623.6696   0.3305      0.2056      0.8985      0.3469      0.2877      2.156       2305.1617   969.4285    2294.5871   1086.7899   2.0938      
1623.822    0.3253      0.2024      0.9166      0.3349      0.2766      2.159       2314.3166   973.2607    2363.1012   1136.2745   2.114       
1623.9744   0.3333      0.2073      0.9287      0.3326      0.2729      2.155       2317.5348   970.7873    2371.7075   1136.5508   2.1182      
1624.1268   0.3495      0.2174      0.9531      0.3351      0.2725      2.157       2309.579    954.5803    2355.9111   1110.4317   2.1156      
1624.2792   0.3681      0.229       1.0         0.3336      0.2677      2.157       2290.4033   934.6966    2368.9301   1096.8201   2.1207      
1624.4316   0.3709      0.2307      1.0         0.3334      0.2671      2.142       2290.4033   925.0689    2367.4853   1094.9201   2.1209      
1624.584    0.3455      0.2149      1.0         0.3457      0.2839      2.114       2267.3359   915.1605    2334.2202   1074.7458   2.1029      
1624.7364   0.3006      0.187       1.0         0.3686      0.3148      2.089       2246.7257   904.3641    2271.5883   1033.7989   2.0692      
1624.8888   0.2612      0.1624      0.9986      0.3889      0.3422      2.079       2233.0494   900.3353    2216.6082   996.2325    2.0391      
1625.0412   0.2301      0.1431      0.9977      0.3981      0.3569      2.082       2229.8632   902.4775    2202.4204   991.088     2.0259      
1625.1936   0.1731      0.1077      1.0         0.3995      0.3685      2.089       2234.6852   912.9958    2246.2397   1041.8284   2.0256      
1625.346    0.1051      0.0654      1.0         0.3986      0.3798      2.094       2240.8793   925.8561    2315.9354   1119.7079   2.029       
1625.4984   0.089       0.0554      1.0         0.3961      0.3802      2.094       2244.2954   930.6027    2344.9923   1149.3429   2.0334      
1625.6508   0.1101      0.0685      1.0         0.3948      0.3751      2.091       2243.849    928.9815    2329.4637   1130.4485   2.0347      
1625.8032   0.1266      0.0787      1.0         0.3959      0.3733      2.088       2241.7201   925.2782    2307.4025   1106.9983   2.0326      
1625.9556   0.1358      0.0845      0.9938      0.3973      0.373       2.088       2240.1714   924.2837    2288.4349   1090.8433   2.0296      
1626.108    0.1331      0.0828      0.9837      0.3971      0.3733      2.088       2238.3618   925.703     2287.1826   1094.9477   2.0291      
1626.2604   0.1263      0.0786      0.9698      0.397       0.3744      2.087       2237.0971   927.6097    2287.8296   1103.2338   2.0282      
1626.4128   0.1652      0.1027      0.9613      0.3951      0.3656      2.086       2239.1354   925.5146    2254.8341   1068.8615   2.0293      
1626.5652   0.2607      0.1621      0.9652      0.3901      0.3435      2.089       2244.8732   915.7441    2194.9222   992.9612    2.0344      
1626.7176   0.3592      0.2234      0.9846      0.3826      0.3184      2.095       2251.574    904.0941    2162.6274   934.014     2.0446      
1626.87     0.3891      0.242       0.9993      0.3769      0.3073      2.099       2256.4569   902.4688    2172.7682   929.1161    2.0537      
1627.0224   0.3108      0.1933      0.9854      0.3784      0.3229      2.097       2258.5307   916.2744    2214.6069   989.4104    2.0527      
1627.1748   0.1886      0.1173      0.9467      0.3861      0.3524      2.09        2259.2503   941.3475    2267.4294   1080.4789   2.0413      
1627.3272   0.1351      0.084       0.9126      0.3932      0.3691      2.087       2261.2784   957.9439    2272.1005   1110.89     2.0289      
1627.4796   0.1592      0.099       0.9023      0.3936      0.3651      2.094       2265.7829   961.1404    2241.4436   1082.7602   2.0267      
1627.632    0.1932      0.1201      0.916       0.3871      0.3526      2.106       2270.1876   958.1727    2244.7836   1072.3919   2.037       
1627.7844   0.1968      0.1224      0.9343      0.3789      0.3437      2.111       2271.22     954.7656    2287.7349   1100.936    2.0511      
1627.9368   0.1834      0.114       0.9375      0.3761      0.3433      2.108       2268.4812   953.1822    2316.2703   1127.2282   2.0562      
1628.0892   0.1875      0.1166      0.9288      0.3777      0.3442      2.101       2263.6792   950.6645    2300.4364   1116.1792   2.0528      
1628.2416   0.2129      0.1324      0.9185      0.3808      0.3428      2.096       2258.5474   945.9653    2256.2286   1076.5214   2.0464      
1628.394    0.2226      0.1385      0.9148      0.3836      0.3439      2.093       2253.4872   941.066     2232.5432   1055.489    2.0414      
1628.5464   0.2217      0.1379      0.9186      0.386       0.3464      2.092       2248.4679   935.4645    2224.2288   1047.0757   2.038       
1628.6988   0.2431      0.1512      0.9308      0.3858      0.3423      2.09        2245.4859   928.2926    2211.6468   1026.3669   2.0387      
1628.8512   0.2635      0.1639      0.943       0.3864      0.3393      2.091       2247.4062   924.6393    2197.5009   1004.3741   2.0382      
1629.0036   0.2559      0.1591      0.9532      0.3865      0.3408      2.094       2251.9559   925.316     2208.3375   1011.0604   2.0391      
1629.156    0.2353      0.1464      0.9634      0.3859      0.3438      2.098       2253.6877   927.315     2233.2595   1032.8464   2.0416      
1629.3084   0.1962      0.122       0.9726      0.3856      0.3506      2.1         2250.5596   929.155     2274.6358   1073.8742   2.044       
1629.4608   0.1264      0.0786      0.9772      0.3886      0.366       2.097       2244.0323   932.7502    2332.3128   1138.9234   2.0419      
1629.6132   0.0582      0.0362      0.973       0.3947      0.3843      2.09        2236.9498   937.4059    2372.9136   1193.2975   2.0341      
1629.7656   0.0223      0.0138      0.9684      0.4016      0.3976      2.083       2232.2962   939.9597    2372.3867   1203.9864   2.0241      
1629.918    0.0182      0.0113      0.9631      0.4057      0.4025      2.078       2230.6793   940.1116    2352.168    1189.2587   2.0173      
1630.0704   0.0458      0.0285      0.959       0.4086      0.4004      2.076       2231.3652   937.6574    2307.4738   1144.397    2.0116      
1630.2228   0.1041      0.0647      0.9637      0.4066      0.3881      2.078       2235.3252   931.7647    2261.1004   1087.477    2.0135      
1630.3752   0.1561      0.097       0.9756      0.4025      0.3747      2.083       2241.3748   927.2987    2236.2729   1048.2423   2.0193      
1630.5276   0.1521      0.0946      0.9868      0.3995      0.3724      2.088       2244.9565   927.7765    2259.0878   1064.2618   2.0251      
1630.68     0.0987      0.0614      0.9889      0.3993      0.3816      2.088       2243.271    932.5713    2313.7462   1124.3234   2.0272      
1630.8324   0.0518      0.0322      0.9802      0.4018      0.3925      2.086       2236.9174   935.1551    2345.9111   1168.0861   2.0239      
1630.9848   0.042       0.0261      0.9739      0.4035      0.3961      2.082       2228.9829   933.6463    2344.4136   1171.8846   2.021       
1631.1372   0.0485      0.0302      0.965       0.4057      0.3971      2.08        2224.509    932.1945    2322.251    1154.3553   2.0166      
1631.2896   0.0489      0.0304      0.9601      0.407       0.3983      2.081       2226.9792   934.3931    2313.0648   1148.1784   2.0141      
1631.442    0.0531      0.033       0.9621      0.4061      0.3966      2.085       2235.7003   939.7807    2314.2913   1147.4203   2.0156      
1631.5944   0.0705      0.0438      0.9666      0.4024      0.3898      2.09        2247.0744   945.4905    2317.207    1143.909    2.0212      
1631.7468   0.087       0.0541      0.9656      0.3977      0.3822      2.093       2257.0935   951.3279    2323.1618   1145.5502   2.0279      
