#----------------------------------------------------------------------------
~VERSION INFORMATION
VERS.            2.0                  :CWLS LOG ASCII STANDARD -VERSION 2.0
WRAP.            NO                   :ONE LINE PER DEPTH STEP
#
#--------------------------------------------------------------------
~WELL INFORMATION
#MNEM .UNIT      DATA                 :DESCRIPTION OF MNEMONIC
#----------      ------------         -------------------------------
STRT  .m         0.0                  :START DEPTH
STEP  .m         0.1524               :STEP DEPTH
STOP  .m         4000.0               :STOP DEPTH
NULL  .          -999.25              :NULL VALUE
COMP  .                               :COMPANY
WELL  .          Well4                :WELL
LOC   .                               :LOCATION - AREA
FLD   .                               :FIELD
CTRY  .                               :COUNTRY
DATE  .                               :WELL DATE

XWELL .m          0                    :X POS
YWELL .m          0                    :Y POS
EDF   .          0.0                  :DERRICK FLOOR ELEVATION
#
#----------------------------------------------------------------------------
~CURVE INFORMATION
#MNEM.UNIT                                  : CURVE DESCRIPTION
#----------                                 -------------------------------
DEPT        .m                              : 1      DEPTH
RHOB        .g/cm3                          : 2      Rho
Vs          .m/s                            : 3      Vs
Vp          .m/s                            : 4      Vp
Vclay       .fract                          : 5      Volume
Vcoal       .fract                          : 6      Volume
Vqz         .fract                          : 7      Volume
Vcal        .fract                          : 8      Volume
PHI_isolated.fract                          : 9      Por
PHI_bound   .fract                          : 10     Por
Vsh         .fract                          : 11     Volume
PHIE        .fract                          : 12     Por
PHIT        .fract                          : 13     Por
Sot         .fract                          : 14     Sat
Sgt         .fract                          : 15     Sat
Swt         .fract                          : 16     Sat
#
#----------------------------------------------------------------------------
~A          RHOB        Vs          Vp          Vclay       Vcoal       Vqz         Vcal        PHI_isolatedPHI_bound   Vsh         PHIE        PHIT        Sot         Sgt         Swt         
# ...
1292.9616   2.0964      653.3       2029.5      0.4519      0.0         0.1468      0.0         0.1242      0.2771      0.729       0.0         0.4013      0.0         0.0         0.9998      
1293.114    2.1089      651.3       2025.5      0.4394      0.0         0.1602      0.0         0.131       0.2693      0.7087      0.0         0.4003      0.0         0.0         0.9998      
1293.2664   2.1176      649.5       2021.3      0.4259      0.0         0.1755      0.0         0.1375      0.261       0.6869      0.0         0.3986      0.0         0.0         0.9997      
1293.4188   2.1243      649.0       2020.2      0.4232      0.0         0.1791      0.0         0.1383      0.2594      0.6826      0.0         0.3977      0.0         0.0         0.9997      
1293.5712   2.1272      650.6       2021.7      0.4309      0.0         0.171       0.0         0.1339      0.2642      0.6951      0.0         0.3981      0.0         0.0         0.9997      
1293.7236   2.127       650.1       2023.2      0.4336      0.0         0.1684      0.0         0.1322      0.2658      0.6994      0.0         0.398       0.0         0.0         0.9997      
1293.876    2.1259      645.9       2023.5      0.4286      0.0         0.174       0.0         0.1347      0.2627      0.6913      0.0         0.3974      0.0         0.0         0.9997      
1294.0284   2.123       642.1       2022.1      0.4141      0.0         0.1899      0.0         0.1422      0.2538      0.6679      0.0         0.396       0.0         0.0         0.9997      
1294.1808   2.1199      641.7       2019.4      0.4129      0.0         0.191       0.0         0.1431      0.2531      0.666       0.0         0.3962      0.0         0.0         0.9997      
1294.3332   2.1185      649.7       2017.0      0.4211      0.0         0.1819      0.0         0.1389      0.2581      0.6791      0.0         0.3969      0.0         0.0         0.9997      
1294.4856   2.1191      642.9       2016.4      0.4383      0.0         0.1636      0.0         0.1294      0.2686      0.7069      0.0         0.398       0.0         0.0         0.9997      
1294.638    2.1211      644.7       2017.7      0.4537      0.0         0.1483      0.0         0.1199      0.2781      0.7317      0.0         0.398       0.0         0.0         0.9997      
1294.7904   2.1267      636.3       2020.8      0.4781      0.0         0.1252      0.0         0.1038      0.293       0.7711      0.0         0.3968      0.0         0.0         0.9997      
1294.9428   2.1314      638.5       2024.0      0.4956      0.0         0.1098      0.0         0.0907      0.3038      0.7994      0.0         0.3945      0.0         0.0         0.9997      
1295.0952   2.136       641.5       2027.4      0.4947      0.0         0.1138      0.0         0.0884      0.3032      0.7978      0.0         0.3916      0.0         0.0         0.9997      
1295.2476   2.1376      638.1       2029.3      0.4843      0.0         0.1263      0.0         0.0925      0.2968      0.7812      0.0         0.3894      0.0         0.0         0.9997      
1295.4      2.1334      641.8       2028.3      0.4717      0.0         0.1398      0.0         0.0996      0.2891      0.7607      0.0         0.3887      0.0         0.0         0.9997      
1295.5524   2.1266      642.0       2023.0      0.4706      0.0         0.1394      0.0         0.1016      0.2885      0.7591      0.0         0.3901      0.0         0.0         0.9997      
1295.7048   2.1066      636.8       2013.9      0.483       0.0         0.124       0.0         0.0969      0.296       0.779       0.0         0.3929      0.0         0.0         0.9997      
1295.8572   2.0862      635.2       2004.4      0.4901      0.0         0.1169      0.0         0.0926      0.3004      0.7904      0.0         0.3929      0.0         0.0         0.9997      
1296.0096   2.0519      640.9       1998.3      0.4926      0.0         0.1135      0.0         0.092       0.3019      0.7945      0.0         0.3939      0.0         0.0         0.9997      
1296.162    2.0236      644.5       1996.2      0.4935      0.0         0.1134      0.0         0.0907      0.3024      0.7959      0.0         0.3931      0.0         0.0         0.9997      
1296.3144   2.0196      -999.25     1997.9      0.4787      0.0         0.1321      0.0         0.0957      0.2934      0.7721      0.0         0.3891      0.0         0.0         0.9997      
1296.4668   2.0311      -999.25     2002.6      0.4654      0.0         0.1492      0.0         0.1001      0.2853      0.7507      0.0         0.3854      0.0         0.0         0.9997      
1296.6192   2.0677      -999.25     2008.5      0.4595      0.0         0.1607      0.0         0.098       0.2817      0.7412      0.0         0.3797      0.0         0.0         0.9997      
1296.7716   2.0958      -999.25     2013.9      0.4665      0.0         0.1597      0.0         0.088       0.2859      0.7523      0.0         0.3739      0.0         0.0         0.9997      
1296.924    2.1138      -999.25     2018.1      0.489       0.0         0.1404      0.0         0.0709      0.2997      0.7888      0.0         0.3706      0.0         0.0         0.9997      
1297.0764   2.1019      -999.25     2021.7      0.5114      0.0         0.1148      0.0         0.0604      0.3134      0.8248      0.0         0.3738      0.0         0.0         0.9997      
1297.2288   2.0793      -999.25     2022.9      0.5207      0.0         0.0986      0.0         0.0617      0.3191      0.8398      0.0         0.3808      0.0         0.0         0.9997      
1297.3812   2.0425      -999.25     2021.6      0.5269      0.0         0.0826      0.0         0.0675      0.3229      0.8499      0.0         0.3904      0.0         0.0         0.9997      
1297.5336   2.0175      -999.25     2012.1      0.5278      0.0         0.0738      0.0         0.0748      0.3235      0.8513      0.0         0.3983      0.0         0.0         0.9997      
1297.686    1.9863      -999.25     1994.1      0.5272      0.0         0.0597      0.0085      0.0813      0.3231      0.8503      0.0         0.4045      0.0         0.0         0.9998      
1297.8384   1.9567      -999.25     1969.0      0.5322      0.0         0.0418      0.0175      0.0825      0.3261      0.8583      0.0         0.4086      0.0         0.0         0.9998      
1297.9908   1.9034      -999.25     1943.1      0.55        0.0         0.0021      0.0328      0.0783      0.3371      0.8871      0.0         0.4154      0.0         0.0         0.9998      
1298.1432   1.8653      -999.25     1924.2      0.5604      0.0         0.0         0.0207      0.0754      0.3435      0.9039      0.0         0.4188      0.0         0.0         0.9998      
1298.2956   1.8428      -999.25     1915.2      0.5635      0.0         0.0         0.0163      0.0749      0.3453      0.9088      0.0         0.4202      0.0         0.0         0.9998      
1298.448    1.8401      -999.25     1917.0      0.5581      0.0         0.0         0.0224      0.0775      0.3421      0.9002      0.0         0.4196      0.0         0.0         0.9998      
1298.6004   1.8604      -999.25     1925.2      0.5443      0.0         0.0         0.0401      0.082       0.3336      0.878       0.0         0.4156      0.0         0.0         0.9998      
1298.7528   1.8813      -999.25     1939.4      0.534       0.0         0.0         0.0553      0.0834      0.3272      0.8613      0.0         0.4106      0.0         0.0         0.9998      
1298.9052   1.9198      -999.25     1958.9      0.523       0.0         0.0         0.0737      0.0823      0.3205      0.8435      0.0         0.4028      0.0         0.0         0.9998      
1299.0576   1.9553      -999.25     1982.1      0.5062      0.0         0.0483      0.0521      0.0832      0.3102      0.8164      0.0         0.3934      0.0         0.0         0.9997      
1299.21     2.0089      -999.25     2006.3      0.4815      0.0         0.1325      0.0035      0.0874      0.2952      0.7767      0.0         0.3825      0.0         0.0         0.9997      
