#----------------------------------------------------------------------------
~VERSION INFORMATION
VERS.            2.0                  :CWLS LOG ASCII STANDARD -VERSION 2.0
WRAP.            NO                   :ONE LINE PER DEPTH STEP
#
#--------------------------------------------------------------------
~WELL INFORMATION
#MNEM .UNIT      DATA                 :DESCRIPTION OF MNEMONIC
#----------      ------------         -------------------------------
STRT  .m         0.0                  :START DEPTH
STEP  .m         0.1524               :STEP DEPTH
STOP  .m         4000.0               :STOP DEPTH
NULL  .          -999.25              :NULL VALUE
COMP  .                               :COMPANY
WELL  .          Well4                :WELL
LOC   .                               :LOCATION - AREA
FLD   .                               :FIELD
CTRY  .                               :COUNTRY
DATE  .                               :WELL DATE

XWELL .m          0                    :X POS
YWELL .m          0                    :Y POS
EDF   .          0.0                  :DERRICK FLOOR ELEVATION
#
#----------------------------------------------------------------------------
~CURVE INFORMATION
#MNEM.UNIT                                  : CURVE DESCRIPTION
#----------                                 -------------------------------
DEPT        .m                              : 1      DEPTH
RHOB        .g/cm3                          : 2      Rho
Vs          .m/s                            : 3      Vs
Vp          .m/s                            : 4      Vp
Vclay       .fract                          : 5      Volume
Vcoal       .fract                          : 6      Volume
Vqz         .fract                          : 7      Volume
Vcal        .fract                          : 8      Volume
PHI_isolated.fract                          : 9      Por
PHI_bound   .fract                          : 10     Por
Vsh         .fract                          : 11     Volume
PHIE        .fract                          : 12     Por
PHIT        .fract                          : 13     Por
Sot         .fract                          : 14     Sat
Sgt         .fract                          : 15     Sat
Swt         .fract                          : 16     Sat
#
#----------------------------------------------------------------------------
~A          RHOB        Vs          Vp          Vclay       Vcoal       Vqz         Vcal        PHI_isolatedPHI_bound   Vsh         PHIE        PHIT        Sot         Sgt         Swt         
# ...
2413.1016   2.5057      1917.4      3618.7      0.5083      0.0         0.0469      0.2201      0.0276      0.1977      0.706       0.0         0.2253      0.0         0.0         0.9996      
2413.254    2.5017      1920.1      3608.0      0.5336      0.0         0.0352      0.2         0.0238      0.2075      0.7411      0.0         0.2313      0.0         0.0         0.9996      
2413.4064   2.5007      1908.8      3599.6      0.5581      0.0         0.0927      0.1143      0.0176      0.217       0.7751      0.0         0.2346      0.0         0.0         0.9996      
2413.5588   2.5027      1892.8      3588.7      0.5668      0.0         0.2007      0.0         0.0124      0.2204      0.7872      0.0         0.2328      0.0         0.0         0.9996      
2413.7112   2.5068      1896.0      3580.4      0.561       0.0         0.2105      0.0         0.0104      0.2181      0.7791      0.0         0.2285      0.0         0.0         0.9996      
2413.8636   2.518       1895.7      3574.5      0.534       0.0         0.2472      0.0         0.0112      0.2077      0.7417      0.0         0.2189      0.0         0.0         0.9995      
2414.016    2.5258      1899.4      3566.0      0.5148      0.0         0.272       0.0         0.0129      0.2002      0.715       0.0         0.2131      0.0         0.0         0.9995      
2414.1684   2.5214      1881.1      3547.8      0.5085      0.0         0.2757      0.0         0.0181      0.1977      0.7062      0.0         0.2158      0.0         0.0         0.9995      
2414.3208   2.5112      1867.4      3526.4      0.518       0.0         0.2587      3.0E-4      0.0213      0.2014      0.7195      0.0         0.2227      0.0         0.0         0.9996      
2414.4732   2.4816      1844.2      3505.7      0.5464      0.0         0.0946      0.1193      0.0273      0.2125      0.7589      0.0         0.2398      0.0         0.0         0.9996      
2414.6256   2.4604      1835.7      3489.4      0.5665      0.0         0.0176      0.1661      0.0297      0.2203      0.7868      0.0         0.25        0.0         0.0         0.9996      
2414.778    2.4577      1828.7      3476.4      0.5716      0.0         0.0465      0.1295      0.03        0.2224      0.794       0.0         0.2523      0.0         0.0         0.9996      
2414.9304   2.4661      1818.4      3464.1      0.5777      0.0         0.1578      0.0145      0.0256      0.2247      0.8024      0.0         0.2503      0.0         0.0         0.9996      
2415.0828   2.4736      1815.8      3456.1      0.5748      0.0         0.1772      0.0         0.0246      0.2236      0.7984      0.0         0.2481      0.0         0.0         0.9996      
2415.2352   2.4865      1809.1      3453.0      0.5701      0.0         0.1843      0.0         0.0239      0.2217      0.7918      0.0         0.2456      0.0         0.0         0.9996      
2415.3876   2.4913      1811.2      3460.6      0.5702      0.0         0.1665      0.0181      0.0234      0.2218      0.792       0.0         0.2452      0.0         0.0         0.9996      
2415.54     2.4912      1808.2      3467.7      0.5659      0.0         0.1106      0.0783      0.0253      0.2201      0.7859      0.0         0.2454      0.0         0.0         0.9996      
2415.6924   2.4898      1827.3      3473.0      0.5602      0.0         0.1089      0.0865      0.0262      0.2178      0.778       0.0         0.2441      0.0         0.0         0.9996      
2415.8448   2.4898      1815.8      3475.5      0.5416      0.0         0.1378      0.0803      0.0294      0.2106      0.7521      0.0         0.2399      0.0         0.0         0.9996      
2415.9972   2.4908      1814.1      3475.8      0.531       0.0         0.1387      0.0925      0.0314      0.2065      0.7375      0.0         0.2379      0.0         0.0         0.9996      
2416.1496   2.495       1808.2      3473.9      0.5337      0.0         0.1328      0.0956      0.0305      0.2075      0.7412      0.0         0.238       0.0         0.0         0.9996      
2416.302    2.4974      1806.0      3469.6      0.5421      0.0         0.1452      0.0736      0.0282      0.2108      0.7529      0.0         0.239       0.0         0.0         0.9996      
2416.4544   2.5012      1807.3      3465.1      0.561       0.0         0.1938      0.0045      0.0225      0.2182      0.7792      0.0         0.2406      0.0         0.0         0.9996      
2416.6068   2.5027      1801.9      3462.4      0.5642      0.0         0.195       0.0         0.0213      0.2194      0.7836      0.0         0.2407      0.0         0.0         0.9996      
2416.7592   2.5052      1789.4      3461.6      0.5632      0.0         0.1971      0.0         0.0208      0.219       0.7822      0.0         0.2398      0.0         0.0         0.9996      
2416.9116   2.5056      1781.9      3458.8      0.5612      0.0         0.1994      0.0         0.0212      0.2182      0.7794      0.0         0.2394      0.0         0.0         0.9996      
2417.064    2.5035      1791.6      3453.3      0.562       0.0         0.1977      0.0         0.0216      0.2186      0.7806      0.0         0.2402      0.0         0.0         0.9996      
2417.2164   2.501       1785.7      3447.1      0.5642      0.0         0.1943      0.0         0.022       0.2194      0.7836      0.0         0.2414      0.0         0.0         0.9996      
2417.3688   2.4912      1788.7      3442.8      0.5743      0.0         0.1794      0.0         0.0229      0.2234      0.7977      0.0         0.2463      0.0         0.0         0.9996      
2417.5212   2.4821      1786.8      3440.9      0.5822      0.0         0.1636      0.0046      0.0232      0.2264      0.8086      0.0         0.2496      0.0         0.0         0.9996      
2417.6736   2.4565      1775.3      3439.1      0.5997      0.0         0.1437      0.0         0.0234      0.2332      0.8329      0.0         0.2566      0.0         0.0         0.9996      
2417.826    2.438       1783.4      3433.3      0.6089      0.0         0.1307      0.0         0.0236      0.2368      0.8457      0.0         0.2604      0.0         0.0         0.9996      
2417.9784   2.4387      1777.9      3426.4      0.611       0.0         0.1286      0.0         0.023       0.2376      0.8486      0.0         0.2606      0.0         0.0         0.9996      
2418.1308   2.4602      1782.1      3423.4      0.6133      0.0         0.1285      0.0         0.0196      0.2385      0.8518      0.0         0.2581      0.0         0.0         0.9996      
2418.2832   2.4754      1784.0      3423.9      0.6123      0.0         0.1293      0.0018      0.0184      0.2382      0.8505      0.0         0.2566      0.0         0.0         0.9996      
2418.4356   2.4987      1786.1      3427.3      0.5956      0.0         0.0         0.1505      0.0224      0.2316      0.8272      0.0         0.254       0.0         0.0         0.9996      
2418.588    2.5059      1788.9      3434.2      0.5901      0.0         0.0         0.1561      0.0244      0.2294      0.8195      0.0         0.2538      0.0         0.0         0.9996      
2418.7404   2.5056      1788.1      3442.6      0.5791      0.0         0.0         0.1678      0.028       0.2252      0.8043      0.0         0.2532      0.0         0.0         0.9996      
2418.8928   2.5048      1782.8      3451.7      0.5783      0.0         0.0         0.1693      0.0276      0.2249      0.8032      0.0         0.2525      0.0         0.0         0.9996      
2419.0452   2.5074      1783.7      3458.8      0.5825      0.0         0.0         0.1677      0.0232      0.2265      0.809       0.0         0.2497      0.0         0.0         0.9996      
2419.1976   2.5119      1790.8      3464.1      0.5854      0.0         0.0036      0.1633      0.0202      0.2276      0.8131      0.0         0.2478      0.0         0.0         0.9996      
2419.35     2.524       1793.6      3467.7      0.5933      0.0         0.1046      0.0575      0.0137      0.2307      0.824       0.0         0.2444      0.0         0.0         0.9996      
