#----------------------------------------------------------------------------
~VERSION INFORMATION
VERS.            2.0                  :CWLS LOG ASCII STANDARD -VERSION 2.0
WRAP.            NO                   :ONE LINE PER DEPTH STEP
#
#--------------------------------------------------------------------
~WELL INFORMATION
#MNEM .UNIT      DATA                 :DESCRIPTION OF MNEMONIC
#----------      ------------         -------------------------------
STRT  .m         0.0                  :START DEPTH
STEP  .m         0.1524               :STEP DEPTH
STOP  .m         2279.904             :STOP DEPTH
NULL  .          -999.25              :NULL VALUE
COMP  .                               :COMPANY
WELL  .                               :WELL
LOC   .          311975.906,      3195343.67  :LOCATION - AREA
FLD   .                               :FIELD
CTRY  .                               :COUNTRY
DATE  .                               :WELL DATE

XWELL .m          311975               :X POS
YWELL .m          3195343              :Y POS
EDF   .          25.9                 :DERRICK FLOOR ELEVATION
#
#----------------------------------------------------------------------------
~CURVE INFORMATION
#MNEM.UNIT                                  : CURVE DESCRIPTION
#----------                                 -------------------------------
DEPT        .m                              : 1      DEPTH
VSH         .fract                          : 2      Volume
VCL         .fract                          : 3      Volume
SW          .fract                          : 4      Sat
PHIT        .fract                          : 5      Por
PHIE        .fract                          : 6      Por
RHOB        .g/cm3                          : 7      Rho
VP          .m/s                            : 8      Vp
VS          .m/s                            : 9      Vs
Vp_xw       .m/s                            : 10     Vp
Vs_xw       .m/s                            : 11     Vs
Rho_xw      .g/cm3                          : 12     Rho
#
#----------------------------------------------------------------------------
~A          VSH         VCL         SW          PHIT        PHIE        RHOB_raw    VP          VS          Vp_xw       Vs_xw       Rho_xw      
1307.592    0.436       0.2769      0.9075      0.3252      0.2358      2.132       2049.0068   762.4986    2299.1485   1057.4958   2.1244      
1307.7444   0.4245      0.2696      0.9173      0.3273      0.2402      2.131       2049.6543   762.5398    2303.6054   1060.4468   2.1222      
1307.8968   0.4112      0.2612      0.9051      0.3334      0.2491      2.124       2045.5272   763.9916    2282.1985   1051.6921   2.1123      
1308.0492   0.4015      0.255       0.88        0.3432      0.2609      2.111       2040.83     768.9474    2236.6578   1027.3381   2.0956      
1308.2016   0.3884      0.2467      0.8515      0.3555      0.2758      2.095       2040.2563   776.8395    2182.5709   997.3929    2.0746      
1308.354    0.3795      0.241       0.832       0.3668      0.289       2.08        2042.649    780.4473    2134.4298   967.2011    2.0557      
1308.5064   0.4         0.2541      0.8453      0.3681      0.2861      2.076       2042.1974   774.0972    2119.8298   945.7919    2.0541      
1308.6588   0.4347      0.2761      0.8877      0.36        0.271       2.084       2031.7453   751.5302    2146.697    944.0536    2.069       
1308.8112   0.4497      0.2856      0.9328      0.3502      0.258       2.097       2009.851    722.3643    2196.5026   963.0958    2.0872      
1308.9636   0.4401      0.2795      0.9489      0.347       0.2568      2.103       1986.4668   703.1625    2223.8153   980.8452    2.0936      
1309.116    0.4084      0.2594      0.937       0.3504      0.2667      2.102       1972.5981   700.0591    2226.9379   995.9747    2.0885      
1309.2684   0.3641      0.2312      0.9145      0.356       0.2814      2.099       1968.0385   706.8441    2227.0473   1015.8667   2.0796      
1309.4208   0.3269      0.2076      0.9005      0.3596      0.2926      2.098       1966.4771   713.7848    2235.8347   1037.5383   2.0741      
1309.5732   0.3326      0.2112      0.9022      0.3578      0.2896      2.1         1967.9246   713.4081    2239.6444   1038.6231   2.0769      
1309.7256   0.3947      0.2506      0.926       0.3492      0.2683      2.105       1975.9735   706.6421    2237.1849   1012.1025   2.09        
1309.878    0.476       0.3023      0.9443      0.3423      0.2448      2.105       1991.1042   703.2464    2215.7979   967.6232    2.0993      
1310.0304   0.535       0.3398      0.9455      0.3377      0.2281      2.104       2010.26     707.7199    2196.7904   937.9201    2.1045      
1310.1828   0.5552      0.3526      0.9485      0.33        0.2163      2.112       2029.7402   717.512     2215.6667   946.7018    2.1159      
1310.3352   0.5543      0.352       0.9676      0.3178      0.2043      2.129       2046.7479   726.7943    2273.8198   984.0178    2.1359      
1310.4876   0.539       0.3423      0.9666      0.311       0.2007      2.14        2060.7392   741.4592    2311.0549   1016.7211   2.1468      
1310.64     0.5125      0.3254      0.9277      0.3138      0.2088      2.139       2075.0193   765.6727    2299.2152   1029.7705   2.1408      
1310.7924   0.5157      0.3275      0.8977      0.3173      0.2117      2.133       2092.8463   785.4063    2268.3853   1016.4867   2.1332      
1310.9448   0.5601      0.3557      0.9145      0.3112      0.1965      2.136       2113.0164   790.1386    2270.7729   1000.6701   2.1422      
1311.0972   0.5924      0.3762      0.9613      0.298       0.1767      2.151       2130.6796   786.6105    2326.255    1015.6757   2.1644      
1311.2496   0.5903      0.3748      1.0         0.2834      0.1625      2.172       2139.4578   782.6746    2408.8351   1061.3259   2.1892      
1311.402    0.5586      0.3547      1.0         0.2744      0.1601      2.188       2137.6872   783.8014    2471.7055   1115.842    2.2041      
1311.5544   0.5288      0.3358      0.9897      0.2749      0.1666      2.191       2133.3782   790.7169    2488.0906   1140.7406   2.2038      
1311.7068   0.5383      0.3418      0.9552      0.2807      0.1705      2.182       2136.6977   800.2771    2437.4301   1113.9423   2.1925      
1311.8592   0.5931      0.3766      0.9493      0.2855      0.1642      2.169       2149.2347   805.5507    2372.542    1053.3904   2.1828      
1312.0116   0.6377      0.4049      0.9472      0.2899      0.1594      2.158       2161.0891   808.7053    2323.4702   1006.5976   2.1743      
1312.164    0.6637      0.4214      0.9154      0.2998      0.164       2.141       2160.9819   810.4708    2252.6402   960.4107    2.1561      
1312.3164   0.702       0.4457      0.8689      0.3141      0.1705      2.116       2151.0397   809.7966    2155.6621   897.1651    2.1296      
1312.4688   0.7202      0.4573      0.8263      0.3269      0.1795      2.095       2145.8598   812.8758    2081.4933   853.1028    2.1062      
1312.6212   0.668       0.4242      0.8042      0.3316      0.1949      2.094       2158.2243   831.3327    2080.4957   870.9723    2.0991      
1312.7736   0.6079      0.386       0.8384      0.3203      0.1959      2.117       2186.2142   849.1311    2170.335    940.4758    2.1212      
1312.926    0.5998      0.3808      0.9465      0.2939      0.1713      2.156       2209.6741   847.5732    2331.1904   1022.8161   2.1695      
1313.0784   0.6389      0.4056      1.0         0.2628      0.1321      2.194       2215.6635   834.1213    2464.2996   1085.4924   2.2187      
1313.2308   0.6956      0.4416      1.0         0.2459      0.1036      2.21        2212.7198   821.885     2499.9029   1091.2558   2.2422      
1313.3832   0.7589      0.4818      1.0         0.2454      0.0902      2.203       2209.9769   811.2768    2461.3314   1046.189    2.2405      
1313.5356   0.828       0.5257      1.0         0.2488      0.0795      2.19        2212.4477   804.7286    2407.679    991.097     2.2328      
1313.688    0.8835      0.5609      1.0         0.2512      0.0705      2.18        2224.0859   805.5681    2369.9535   951.4708    2.227       
1313.8404   0.8794      0.5583      1.0         0.2567      0.0768      2.173       2237.0477   814.1417    2350.5688   940.144     2.2189      
1313.9928   0.8069      0.5123      1.0         0.2676      0.1026      2.167       2235.8829   821.8706    2344.0099   955.2094    2.2052      
1314.1452   0.7205      0.4574      1.0         0.276       0.1287      2.166       2218.5023   821.3031    2357.4148   987.892     2.1957      
1314.2976   0.693       0.44        1.0         0.2787      0.137       2.165       2199.9615   813.4178    2362.4357   998.9854    2.1926      
1314.45     0.7038      0.4468      1.0         0.28        0.1362      2.161       2190.3485   804.202     2350.985    987.9988    2.1903      
1314.6024   0.6994      0.444       0.9894      0.2846      0.1416      2.155       2174.1811   792.7918    2329.5442   978.2487    2.1828      
1314.7548   0.7125      0.4523      0.9735      0.2884      0.1427      2.148       2138.6336   770.465     2298.9154   959.2836    2.1755      
1314.9072   0.7449      0.4729      0.9512      0.2947      0.1424      2.135       2103.0516   760.1052    2246.1503   922.1425    2.1634      
1315.0596   0.6741      0.428       0.849       0.3124      0.1746      2.118       2088.9174   769.9351    2167.64     919.3139    2.1319      
1315.212    0.6923      0.4395      0.8541      0.3123      0.1708      2.116       2102.3618   791.4221    2160.6148   908.2096    2.1317      
1315.3644   0.6043      0.3836      0.8548      0.308       0.1845      2.136       2142.9615   812.97      2228.4297   978.8701    2.1415      
1315.5168   0.6699      0.4253      0.9762      0.2866      0.1497      2.16        2190.1775   818.4082    2331.7922   992.9151    2.18        
1315.6692   0.7231      0.459       1.0         0.2736      0.1258      2.172       2209.8967   813.6423    2365.5938   992.8557    2.1992      
1315.8216   0.7618      0.4836      1.0         0.2672      0.1116      2.176       2201.9775   805.1637    2369.4999   984.7379    2.2075      
1315.974    0.7849      0.4983      1.0         0.2653      0.1049      2.176       2192.4436   794.9422    2364.5165   974.9692    2.2095      
