#----------------------------------------------------------------------------
~VERSION INFORMATION
VERS.            2.0                  :CWLS LOG ASCII STANDARD -VERSION 2.0
WRAP.            NO                   :ONE LINE PER DEPTH STEP
#
#--------------------------------------------------------------------
~WELL INFORMATION
#MNEM .UNIT      DATA                 :DESCRIPTION OF MNEMONIC
#----------      ------------         -------------------------------
STRT  .m         0.0                  :START DEPTH
STEP  .m         0.1524               :STEP DEPTH
STOP  .m         4000.0               :STOP DEPTH
NULL  .          -999.25              :NULL VALUE
COMP  .                               :COMPANY
WELL  .          Well5                :WELL
LOC   .                               :LOCATION - AREA
FLD   .                               :FIELD
CTRY  .                               :COUNTRY
DATE  .                               :WELL DATE

XWELL .m          0                    :X POS
YWELL .m          0                    :Y POS
EDF   .          0.0                  :DERRICK FLOOR ELEVATION
#
#----------------------------------------------------------------------------
~CURVE INFORMATION
#MNEM.UNIT                                  : CURVE DESCRIPTION
#----------                                 -------------------------------
DEPT        .m                              : 1      DEPTH
GR          .API                            : 2      GR
PR          .unitless                       : 3      Poisson_Ratio
RHOB        .g/cm3                          : 4      Rho
CALI        .m                              : 5      Cal
VELC        .m/s                            : 6      Vp
VELS        .m/s                            : 7      Vs
Vcdry       .fract                          : 8      Volume
Vbw         .fract                          : 9      Volume
Vcal        .fract                          : 10     Volume
Vqz         .fract                          : 11     Volume
Vparphi     .fract                          : 12     Volume
Voil        .fract                          : 13     Volume
Vgas        .fract                          : 14     Volume
Vw          .fract                          : 15     Volume
Vp_elastic  .m/s                            : 16     Vp
Vs_elastic  .m/s                            : 17     Vs
Rho_elastic .g/cm3                          : 18     Rho
#
#----------------------------------------------------------------------------
~A          GR          PR          RHOB        CALI        VELC        VELS        Vcdry       Vbw         Vcal        Vqz         Vparphi     Voil        Vgas        Vw          Vp_elastic  Vs_elastic  Rho_elastic 
# ...
3749.802    79.2484     0.2114      2.4332      0.2959      4015.7999   2429.294    0.3343      0.0684      0.0         0.5096      0.0877      0.0         0.0         0.0         -999.25     -999.25     -999.25     
3749.9544   78.9884     0.2088      2.427       0.2972      4008.7041   2431.8953   0.347       0.0711      0.0         0.4961      0.0858      0.0         0.0         0.0         -999.25     -999.25     -999.25     
3750.1068   80.6997     0.2062      2.4299      0.2973      4006.7      2437.5876   0.3488      0.0714      0.0         0.4975      0.0823      0.0         0.0         0.0         -999.25     -999.25     -999.25     
3750.2592   84.8951     0.2035      2.4425      0.2977      4039.6562   2464.664    0.338       0.0692      0.0         0.5148      0.078       0.0         0.0         0.0         -999.25     -999.25     -999.25     
3750.4116   85.774      0.2007      2.4586      0.2976      4073.2703   2492.4636   0.3218      0.0659      0.0         0.5359      0.0717      0.0         0.0025      0.0023      -999.25     -999.25     -999.25     
3750.564    84.6398     0.1941      2.4658      0.2983      4090.2794   2520.0635   0.3209      0.0657      0.0         0.5377      0.0705      0.0         0.0027      0.0025      -999.25     -999.25     -999.25     
3750.7164   83.4608     0.1866      2.467       0.296       4104.9      2548.0759   0.3204      0.0656      0.0         0.5375      0.071       0.0         0.0028      0.0026      -999.25     -999.25     -999.25     
3750.8688   81.8262     0.179       2.4631      0.2939      4096.7157   2561.6907   0.3139      0.0643      0.0023      0.5408      0.0701      0.0         0.0046      0.0041      -999.25     -999.25     -999.25     
3751.0212   79.788      0.1712      2.4553      0.2948      4074.8168   2566.4988   0.2958      0.0606      0.0112      0.5484      0.0668      0.0         0.0089      0.0081      -999.25     -999.25     -999.25     
3751.1736   78.3533     0.1686      2.4505      0.2964      4065.8      2567.0      0.272       0.0557      0.0164      0.5655      0.061       0.0         0.0149      0.0145      -999.25     -999.25     -999.25     
3751.326    77.4181     0.1747      2.4534      0.2978      4077.8831   2560.2056   0.2462      0.0504      0.0         0.6075      0.0518      0.0012      0.0199      0.0231      -999.25     -999.25     -999.25     
3751.4784   77.1612     0.1795      2.459       0.297       4091.5769   2557.1      0.2359      0.0483      0.0         0.619       0.0472      0.0         0.0221      0.0274      -999.25     -999.25     -999.25     
3751.6308   79.1695     0.1772      2.4606      0.295       4116.0658   2578.1704   0.2423      0.0496      0.0         0.6137      0.0485      0.0         0.0206      0.0253      -999.25     -999.25     -999.25     
3751.7832   82.5273     0.1744      2.4557      0.293       4143.9999   2602.2999   0.2492      0.051       0.0         0.6089      0.0502      0.0         0.0192      0.0214      -999.25     -999.25     -999.25     
3751.9356   83.6619     0.1867      2.4474      0.2911      4141.2037   2570.4414   0.2458      0.0504      0.0         0.6119      0.0492      0.0         0.0219      0.021       -999.25     -999.25     -999.25     
3752.088    81.9024     0.1981      2.4421      0.2907      4138.4      2539.3001   0.2365      0.0485      0.0         0.6204      0.0468      0.0         0.0252      0.0227      -999.25     -999.25     -999.25     
3752.2404   80.3809     0.1906      2.4452      0.2918      4152.4814   2567.3626   0.2347      0.0481      0.0         0.6231      0.046       0.0         0.0258      0.0223      -999.25     -999.25     -999.25     
3752.3928   81.5469     0.1827      2.4575      0.293       4166.7      2596.1672   0.2509      0.0514      0.0         0.6104      0.0487      0.0         0.0206      0.0182      -999.25     -999.25     -999.25     
3752.5452   84.6609     0.1722      2.4745      0.2943      4161.0075   2618.2709   0.2747      0.0563      0.0         0.5905      0.0522      0.0         0.0138      0.0124      -999.25     -999.25     -999.25     
3752.6976   87.1824     0.1613      2.4887      0.2968      4155.3      2640.5999   0.2981      0.0611      0.0         0.5703      0.0559      0.0         0.0075      0.0071      -999.25     -999.25     -999.25     
3752.85     87.8873     0.1796      2.4941      0.2984      4166.685    2604.0475   0.3062      0.0627      0.0         0.5634      0.0568      0.0         0.0057      0.0053      -999.25     -999.25     -999.25     
3753.0024   87.8127     0.1963      2.4927      0.2979      4178.0809   2568.323    0.2982      0.0611      0.0         0.5726      0.054       0.0         0.0075      0.0066      -999.25     -999.25     -999.25     
3753.1548   87.967      0.2052      2.4896      0.2969      4198.1734   2556.7151   0.2867      0.0587      0.0         0.5848      0.0507      0.0         0.01        0.009       -999.25     -999.25     -999.25     
3753.3072   88.7225     0.2138      2.4858      0.2957      4218.5672   2545.3      0.3067      0.0628      0.0         0.5639      0.0563      0.0         0.0056      0.0049      -999.25     -999.25     -999.25     
3753.4596   88.9155     0.2143      2.4823      0.2942      4250.8573   2563.3761   0.3359      0.0688      0.0         0.5318      0.0635      0.0         0.0         0.0         -999.25     -999.25     -999.25     
3753.612    89.251      0.2148      2.4799      0.2935      4283.6999   2581.6963   0.3658      0.0749      0.0         0.4961      0.0632      0.0         0.0         0.0         -999.25     -999.25     -999.25     
3753.7644   88.5094     0.2092      2.48        0.2934      4259.8313   2583.198    0.3586      0.0734      0.0         0.5029      0.065       0.0         0.0         0.0         -999.25     -999.25     -999.25     
3753.9168   85.4109     0.2034      2.4817      0.2934      4236.1001   2584.7      0.3315      0.0679      0.0         0.5321      0.0684      0.0         0.0         0.0         -999.25     -999.25     -999.25     
3754.0692   81.6517     0.207       2.4819      0.2934      4244.9884   2580.4057   0.2902      0.0595      0.0         0.5721      0.059       0.0         0.0091      0.0102      -999.25     -999.25     -999.25     
3754.2216   79.3288     0.2104      2.4795      0.2933      4253.7906   2576.1      0.2721      0.0557      0.0         0.5871      0.056       0.0         0.0132      0.0157      -999.25     -999.25     -999.25     
3754.374    79.4392     0.1986      2.4749      0.2932      4259.7921   2612.4516   0.2943      0.0602      0.0199      0.541       0.0667      0.0         0.0083      0.0097      -999.25     -999.25     -999.25     
3754.5264   82.0066     0.1858      2.4769      0.2928      4265.7874   2649.7999   0.3312      0.0678      7.0E-4      0.5227      0.0772      0.0         2.0E-4      2.0E-4      -999.25     -999.25     -999.25     
3754.6788   82.5618     0.1966      2.484       0.292       4289.7683   2636.1179   0.3337      0.0684      0.0         0.5213      0.0765      0.0         0.0         0.0         -999.25     -999.25     -999.25     
3754.8312   80.2433     0.2069      2.4891      0.2906      4313.9999   2622.5226   -999.25     -999.25     -999.25     -999.25     -999.25     -999.25     -999.25     -999.25     -999.25     -999.25     -999.25     
3754.9836   77.9911     0.2126      2.4861      0.2913      4301.816    2599.0305   -999.25     -999.25     -999.25     -999.25     -999.25     -999.25     -999.25     -999.25     -999.25     -999.25     -999.25     
3755.136    75.3909     0.218       2.4752      0.2928      4289.6271   2576.0001   -999.25     -999.25     -999.25     -999.25     -999.25     -999.25     -999.25     -999.25     -999.25     -999.25     -999.25     
3755.2884   73.1287     0.2005      2.4602      0.2933      4221.3883   2583.5899   -999.25     -999.25     -999.25     -999.25     -999.25     -999.25     -999.25     -999.25     -999.25     -999.25     -999.25     
