#----------------------------------------------------------------------------
~VERSION INFORMATION
VERS.            2.0                  :CWLS LOG ASCII STANDARD -VERSION 2.0
WRAP.            NO                   :ONE LINE PER DEPTH STEP
#
#--------------------------------------------------------------------
~WELL INFORMATION
#MNEM .UNIT      DATA                 :DESCRIPTION OF MNEMONIC
#----------      ------------         -------------------------------
STRT  .m         0.0                  :START DEPTH
STEP  .m         0.1524               :STEP DEPTH
STOP  .m         4000.0               :STOP DEPTH
NULL  .          -999.25              :NULL VALUE
COMP  .                               :COMPANY
WELL  .          Well4                :WELL
LOC   .                               :LOCATION - AREA
FLD   .                               :FIELD
CTRY  .                               :COUNTRY
DATE  .                               :WELL DATE

XWELL .m          0                    :X POS
YWELL .m          0                    :Y POS
EDF   .          0.0                  :DERRICK FLOOR ELEVATION
#
#----------------------------------------------------------------------------
~CURVE INFORMATION
#MNEM.UNIT                                  : CURVE DESCRIPTION
#----------                                 -------------------------------
DEPT        .m                              : 1      DEPTH
RHOB        .g/cm3                          : 2      Rho
Vs          .m/s                            : 3      Vs
Vp          .m/s                            : 4      Vp
Vclay       .fract                          : 5      Volume
Vcoal       .fract                          : 6      Volume
Vqz         .fract                          : 7      Volume
Vcal        .fract                          : 8      Volume
PHI_isolated.fract                          : 9      Por
PHI_bound   .fract                          : 10     Por
Vsh         .fract                          : 11     Volume
PHIE        .fract                          : 12     Por
PHIT        .fract                          : 13     Por
Sot         .fract                          : 14     Sat
Sgt         .fract                          : 15     Sat
Swt         .fract                          : 16     Sat
#
#----------------------------------------------------------------------------
~A          RHOB        Vs          Vp          Vclay       Vcoal       Vqz         Vcal        PHI_isolatedPHI_bound   Vsh         PHIE        PHIT        Sot         Sgt         Swt         
# ...
1433.7792   2.2191      1055.3      2435.4      0.1846      0.0         0.2409      0.2508      0.0         0.0951      0.2797      0.2287      0.3238      0.1028      0.0         0.8969      
1433.9316   2.2249      1058.5      2458.3      0.1819      0.0         0.2641      0.2347      0.0         0.0937      0.2756      0.2255      0.3192      0.087       0.0         0.9126      
1434.084    2.2291      1068.3      2482.4      0.1795      0.0         0.2836      0.2214      0.0         0.0925      0.272       0.2233      0.3157      0.0757      0.0         0.9239      
1434.2364   2.2322      1074.4      2507.4      0.1688      0.0         0.2995      0.2197      0.0         0.087       0.2559      0.2251      0.3121      0.0674      0.0         0.9323      
1434.3888   2.2339      1073.6      2519.6      0.1432      0.0         0.3233      0.2259      0.0         0.0738      0.2169      0.2339      0.3077      0.0599      0.0         0.9397      
1434.5412   2.2343      1070.2      2524.5      0.1162      0.0         0.3463      0.2335      0.0         0.0599      0.1761      0.2441      0.3039      0.0553      0.0         0.9444      
1434.6936   2.2316      1070.2      2517.0      0.109       0.0         0.3512      0.2352      0.0         0.0561      0.1651      0.2486      0.3047      0.0626      0.0         0.9371      
1434.846    2.2277      1066.2      2504.9      0.1164      0.0         0.3411      0.2346      0.0         0.0599      0.1763      0.2479      0.3079      0.0757      0.0         0.924       
1434.9984   2.2263      1065.3      2492.6      0.1377      0.0         0.3097      0.2409      0.0         0.071       0.2087      0.2408      0.3118      0.0881      0.0         0.9116      
1435.1508   2.2275      1057.7      2480.1      0.1591      0.0         0.2737      0.2527      0.0         0.082       0.2411      0.2324      0.3144      0.0947      0.0         0.9049      
1435.3032   2.2336      1053.1      2463.0      0.1828      0.0         0.2377      0.2644      0.0         0.0942      0.2769      0.2208      0.315       0.0929      0.0         0.9068      
1435.4556   2.2413      1051.6      2439.1      0.2063      0.0         0.2143      0.2682      0.0185      0.1063      0.3125      0.1867      0.3115      0.0765      0.0         0.9232      
1435.608    2.251       1045.2      2413.0      0.2245      0.0         0.2088      0.2603      0.0447      0.1157      0.3403      0.1459      0.3063      0.047       0.0         0.9527      
1435.7604   2.2573      1046.4      2390.4      0.2312      0.0         0.222       0.241       0.0518      0.1191      0.3503      0.1347      0.3055      0.0236      0.0         0.9761      
1435.9128   2.251       1044.1      2369.1      0.2188      0.0         0.248       0.2218      0.026       0.1127      0.3315      0.1729      0.3116      0.0151      0.0         0.9846      
1436.0652   2.2379      1034.9      2340.5      0.2048      0.0         0.2782      0.1978      0.0         0.1055      0.3103      0.2138      0.3193      0.0199      0.0         0.9797      
1436.2176   2.2157      1030.7      2302.4      0.1905      0.0         0.3111      0.169       0.0         0.0981      0.2887      0.2312      0.3293      0.0481      0.0         0.9516      
1436.37     2.1972      1025.6      2266.9      0.1794      0.0         0.3334      0.1494      0.0         0.0924      0.2717      0.2453      0.3377      0.078       0.0         0.9217      
1436.5224   2.1883      1022.1      2251.8      0.1698      0.0         0.3436      0.1451      0.0         0.0875      0.2573      0.254       0.3415      0.091       0.0         0.9087      
1436.6748   2.185       1018.0      2261.6      0.1643      0.0         0.3492      0.1441      0.0         0.0847      0.249       0.2576      0.3423      0.0866      0.0         0.9131      
1436.8272   2.1874      1017.1      2284.9      0.1768      0.0         0.3427      0.1383      0.0         0.0911      0.2679      0.2512      0.3423      0.0715      0.0         0.9282      
1436.9796   2.1911      1024.6      2303.6      0.2002      0.0         0.328       0.1292      6.0E-4      0.1031      0.3033      0.239       0.3426      0.0559      0.0         0.9438      
1437.132    2.1932      1028.1      2304.5      0.2143      0.0         0.3278      0.1176      0.0295      0.1104      0.3247      0.2005      0.3403      0.0386      0.0         0.9612      
1437.2844   2.1913      1009.3      2295.5      0.2197      0.0         0.3263      0.1125      0.0404      0.1132      0.3329      0.188       0.3416      0.0321      0.0         0.9676      
1437.4368   2.1867      994.6       2279.1      0.2269      0.0         0.3233      0.1061      0.0563      0.1168      0.3437      0.1707      0.3438      0.0293      0.0         0.9704      
1437.5892   2.1789      987.4       2261.5      0.2463      0.0         0.3158      0.0932      0.0986      0.1269      0.3732      0.1195      0.3449      0.0254      0.0         0.9743      
1437.7416   2.1732      991.1       2240.7      0.2713      0.0         0.278       0.1074      0.1456      0.1398      0.4111      0.058       0.3433      0.0161      0.0         0.9837      
1437.894    2.1751      982.4       2237.8      0.2913      0.0         0.257       0.1138      0.1754      0.15        0.4413      0.0125      0.338       0.004       0.0         0.9957      
1438.0464   2.181       998.4       2249.4      0.2989      0.0         0.2589      0.1099      0.1784      0.154       0.4529      0.0         0.3324      0.0         0.0         0.9997      
1438.1988   2.1926      1011.3      2279.5      0.2868      0.0         0.2697      0.1172      0.1577      0.1477      0.4345      0.0208      0.3263      0.0076      0.0         0.9921      
1438.3512   2.2034      1026.1      2304.1      0.2714      0.0         0.2988      0.1095      0.129       0.1398      0.4112      0.0515      0.3203      0.0205      0.0         0.9792      
1438.5036   2.2103      1023.1      2335.1      0.2629      0.0         0.3324      0.0893      0.1127      0.1354      0.3982      0.0674      0.3155      0.0286      0.0         0.9711      
1438.656    2.2134      1026.1      2368.2      0.2619      0.0         0.351       0.0756      0.1091      0.1349      0.3968      0.0675      0.3115      0.0305      0.0         0.9692      
1438.8084   2.2134      1041.2      2419.9      0.2684      0.0         0.3346      0.09        0.1161      0.1383      0.4067      0.0527      0.3071      0.0272      0.0         0.9724      
1438.9608   2.2143      1058.2      2464.1      0.277       0.0         0.3045      0.1163      0.1243      0.1427      0.4197      0.0353      0.3023      0.0205      0.0         0.9792      
1439.1132   2.2177      1067.7      2495.1      0.272       0.0         0.2943      0.133       0.117       0.1401      0.4121      0.0436      0.3007      0.0258      0.0         0.9739      
1439.2656   2.2197      1071.8      2502.6      0.2564      0.0         0.2961      0.1447      0.0979      0.132       0.3884      0.0728      0.3027      0.0425      0.0         0.9572      
1439.418    2.2159      1078.6      2503.4      0.2227      0.0         0.2918      0.1732      0.0546      0.1148      0.3376      0.1428      0.3122      0.0804      0.0         0.9193      
1439.5704   2.21        1097.8      2508.2      0.1922      0.0         0.2862      0.1984      0.0104      0.099       0.2912      0.2135      0.3229      0.1173      0.0         0.8824      
1439.7228   2.2085      1088.4      2520.4      0.1703      0.0         0.2978      0.2084      0.0         0.0878      0.2581      0.2358      0.3236      0.1239      0.0         0.8758      
1439.8752   2.2116      1076.0      2533.2      0.1533      0.0         0.3115      0.2157      0.0         0.079       0.2323      0.2406      0.3196      0.1119      0.0         0.8878      
1440.0276   2.2209      1070.0      2527.4      0.1587      0.0         0.3023      0.2228      0.0         0.0817      0.2404      0.2343      0.316       0.0909      0.0         0.9088      
