#----------------------------------------------------------------------------
~VERSION INFORMATION
VERS.            2.0                  :CWLS LOG ASCII STANDARD -VERSION 2.0
WRAP.            NO                   :ONE LINE PER DEPTH STEP
#
#--------------------------------------------------------------------
~WELL INFORMATION
#MNEM .UNIT      DATA                 :DESCRIPTION OF MNEMONIC
#----------      ------------         -------------------------------
STRT  .m         0.0                  :START DEPTH
STEP  .m         0.1524               :STEP DEPTH
STOP  .m         4000.0               :STOP DEPTH
NULL  .          -999.25              :NULL VALUE
COMP  .                               :COMPANY
WELL  .          Well4                :WELL
LOC   .                               :LOCATION - AREA
FLD   .                               :FIELD
CTRY  .                               :COUNTRY
DATE  .                               :WELL DATE

XWELL .m          0                    :X POS
YWELL .m          0                    :Y POS
EDF   .          0.0                  :DERRICK FLOOR ELEVATION
#
#----------------------------------------------------------------------------
~CURVE INFORMATION
#MNEM.UNIT                                  : CURVE DESCRIPTION
#----------                                 -------------------------------
DEPT        .m                              : 1      DEPTH
RHOB        .g/cm3                          : 2      Rho
Vs          .m/s                            : 3      Vs
Vp          .m/s                            : 4      Vp
Vclay       .fract                          : 5      Volume
Vcoal       .fract                          : 6      Volume
Vqz         .fract                          : 7      Volume
Vcal        .fract                          : 8      Volume
PHI_isolated.fract                          : 9      Por
PHI_bound   .fract                          : 10     Por
Vsh         .fract                          : 11     Volume
PHIE        .fract                          : 12     Por
PHIT        .fract                          : 13     Por
Sot         .fract                          : 14     Sat
Sgt         .fract                          : 15     Sat
Swt         .fract                          : 16     Sat
#
#----------------------------------------------------------------------------
~A          RHOB        Vs          Vp          Vclay       Vcoal       Vqz         Vcal        PHI_isolatedPHI_bound   Vsh         PHIE        PHIT        Sot         Sgt         Swt         
# ...
1709.0136   2.4517      1985.1      3343.3      0.2662      0.0         0.3583      0.1216      0.063       0.1035      0.3697      0.0872      0.2537      0.0         0.0         0.9996      
1709.166    2.4308      1742.9      3150.6      0.28        0.0         0.3372      0.1128      0.0894      0.1088      0.3888      0.0718      0.2701      0.0         0.0         0.9996      
1709.3184   2.4108      1466.1      2988.0      0.2978      0.0         0.298       0.1137      0.1281      0.1158      0.4136      0.0465      0.2905      0.0         0.0         0.9997      
1709.4708   2.3784      1450.1      2854.7      0.3084      0.0         0.2684      0.1106      0.1619      0.1199      0.4283      0.0309      0.3127      0.0         0.0         0.9997      
1709.6232   2.3411      1492.3      2751.1      0.3186      0.0         0.2427      0.1023      0.2003      0.1239      0.4425      0.0119      0.3362      0.0         0.0         0.9997      
1709.7756   2.2805      1411.0      2647.3      0.3078      0.0         0.2438      0.087       0.2013      0.1197      0.4275      0.0408      0.3618      0.0         0.0         0.9997      
1709.928    2.2346      1286.2      2527.8      0.298       0.0         0.2339      0.0833      0.1959      0.1159      0.4139      0.0733      0.3851      0.0         0.0         0.9997      
1710.0804   2.1872      1210.3      2409.7      0.2794      0.0         0.2388      0.0778      0.1569      0.1086      0.388       0.1384      0.4039      0.0         0.0         0.9998      
1710.2328   2.189       1019.7      2320.8      0.3138      0.0         0.2018      0.0701      0.2589      0.1221      0.4359      0.0331      0.414       0.0         0.0         0.9998      
1710.3852   2.1875      948.9       2255.2      0.36        0.0         0.1687      0.0503      0.2813      0.14        0.5         0.0         0.4213      0.0         0.0         0.9998      
1710.5376   2.1666      919.5       2199.2      0.4268      0.0         0.1285      0.0187      0.2603      0.166       0.5928      0.0         0.4263      0.0         0.0         0.9998      
1710.69     2.1246      888.1       2150.5      0.4949      0.0         0.0594      0.0132      0.2402      0.1924      0.6873      0.0         0.4326      0.0         0.0         0.9998      
1710.8424   2.0678      841.2       2116.7      0.5558      0.0         0.009       0.0         0.2191      0.2161      0.772       0.0         0.4352      0.0         0.0         0.9998      
1710.9948   2.0588      801.2       2099.2      0.5638      0.0         0.0088      0.0         0.2079      0.2193      0.7831      0.0         0.4272      0.0         0.0         0.9998      
1711.1472   2.0785      756.9       2086.4      0.5546      0.0         0.0288      0.0         0.2009      0.2157      0.7704      0.0         0.4166      0.0         0.0         0.9998      
1711.2996   2.112       724.0       2070.0      0.5492      0.0         0.0409      0.0         0.1964      0.2136      0.7628      0.0         0.41        0.0         0.0         0.9998      
1711.452    2.1533      717.3       2054.9      0.5488      0.0         0.0477      0.001       0.1888      0.2134      0.7622      0.0         0.4022      0.0         0.0         0.9998      
1711.6044   2.1681      718.4       2045.2      0.5547      0.0         0.0486      0.0         0.1811      0.2157      0.7705      0.0         0.3968      0.0         0.0         0.9997      
1711.7568   2.1762      747.3       2044.8      0.5592      0.0         0.0412      0.0056      0.1764      0.2175      0.7767      0.0         0.3939      0.0         0.0         0.9997      
1711.9092   2.171       759.6       2055.6      0.5458      0.0         0.0267      0.0341      0.1812      0.2122      0.758       0.0         0.3935      0.0         0.0         0.9997      
1712.0616   2.1597      763.2       2074.8      0.5151      0.0         0.0383      0.0561      0.1898      0.2004      0.7155      0.0         0.3902      0.0         0.0         0.9997      
1712.214    2.1547      768.9       2098.0      0.4968      0.0         0.0689      0.0487      0.1929      0.1932      0.6899      0.0         0.3861      0.0         0.0         0.9997      
1712.3664   2.152       782.3       2120.1      0.4959      0.0         0.1107      0.0118      0.1889      0.1928      0.6887      0.0         0.3817      0.0         0.0         0.9997      
1712.5188   2.1474      802.6       2136.7      0.493       0.0         0.1295      0.0         0.1858      0.1918      0.6848      0.0         0.3775      0.0         0.0         0.9997      
1712.6712   2.1347      817.3       2149.2      0.4865      0.0         0.1398      0.0         0.1846      0.1892      0.6757      0.0         0.3738      0.0         0.0         0.9997      
1712.8236   2.1232      840.8       2158.7      0.4749      0.0         0.1546      0.0         0.1857      0.1847      0.6596      0.0         0.3704      0.0         0.0         0.9997      
1712.976    2.1124      853.5       2172.6      0.4617      0.0         0.1703      0.0         0.1883      0.1796      0.6413      0.0         0.3679      0.0         0.0         0.9997      
1713.1284   2.1151      850.8       2191.4      0.4522      0.0         0.1833      0.0         0.1886      0.1759      0.6281      0.0         0.3645      0.0         0.0         0.9997      
1713.2808   2.1341      855.7       2217.6      0.4331      0.0         0.2098      0.0         0.1888      0.1684      0.6014      0.0         0.3572      0.0         0.0         0.9997      
1713.4332   2.1669      864.8       2247.0      0.4044      0.0         0.2502      0.0         0.1882      0.1573      0.5617      0.0         0.3455      0.0         0.0         0.9997      
1713.5856   2.1983      872.2       2275.2      0.3851      0.0         0.2833      0.0         0.1818      0.1498      0.5349      0.0         0.3316      0.0         0.0         0.9997      
1713.738    2.2378      889.2       2300.9      0.378       0.0         0.3043      0.0         0.1704      0.147       0.525       0.0         0.3174      0.0         0.0         0.9997      
1713.8904   2.2499      908.3       2323.4      0.3912      0.0         0.2992      0.0         0.1575      0.1522      0.5434      0.0         0.3097      0.0         0.0         0.9997      
1714.0428   2.2452      919.3       2344.4      0.415       0.0         0.2779      0.0         0.1457      0.1613      0.5763      0.0         0.3071      0.0         0.0         0.9997      
1714.1952   2.2379      909.4       2365.7      0.4262      0.0         0.2666      0.0         0.141       0.1657      0.592       0.0         0.3067      0.0         0.0         0.9997      
1714.3476   2.2347      922.1       2391.1      0.4291      0.0         0.221       0.0424      0.1405      0.1669      0.596       0.0         0.3074      0.0         0.0         0.9997      
1714.5      2.2495      929.4       2425.3      0.4183      0.0         0.1766      0.0992      0.1435      0.1627      0.5809      0.0         0.3061      0.0         0.0         0.9997      
1714.6524   2.283       936.3       2468.5      0.3978      0.0         0.1512      0.1486      0.1474      0.1547      0.5525      0.0         0.3021      0.0         0.0         0.9997      
1714.8048   2.3094      945.8       2516.0      0.374       0.0         0.1707      0.1568      0.1529      0.1454      0.5195      0.0         0.2983      0.0         0.0         0.9997      
1714.9572   2.3255      958.6       2560.7      0.339       0.0         0.2138      0.1487      0.1664      0.1319      0.4708      0.0         0.2983      0.0         0.0         0.9997      
1715.1096   2.2865      1033.0      2591.8      0.3182      0.0         0.2273      0.1426      0.1724      0.1238      0.4419      0.0157      0.3118      0.0087      0.0         0.991       
1715.262    2.2001      1049.2      2598.7      0.3082      0.0         0.2164      0.1331      0.1658      0.1199      0.4281      0.0562      0.3419      0.0424      0.0         0.9573      
