#----------------------------------------------------------------------------
~VERSION INFORMATION
VERS.            2.0                  :CWLS LOG ASCII STANDARD -VERSION 2.0
WRAP.            NO                   :ONE LINE PER DEPTH STEP
#
#--------------------------------------------------------------------
~WELL INFORMATION
#MNEM .UNIT      DATA                 :DESCRIPTION OF MNEMONIC
#----------      ------------         -------------------------------
STRT  .m         0.0                  :START DEPTH
STEP  .m         0.1524               :STEP DEPTH
STOP  .m         2279.904             :STOP DEPTH
NULL  .          -999.25              :NULL VALUE
COMP  .                               :COMPANY
WELL  .                               :WELL
LOC   .          311975.906,      3195343.67  :LOCATION - AREA
FLD   .                               :FIELD
CTRY  .                               :COUNTRY
DATE  .                               :WELL DATE

XWELL .m          311975               :X POS
YWELL .m          3195343              :Y POS
EDF   .          25.9                 :DERRICK FLOOR ELEVATION
#
#----------------------------------------------------------------------------
~CURVE INFORMATION
#MNEM.UNIT                                  : CURVE DESCRIPTION
#----------                                 -------------------------------
DEPT        .m                              : 1      DEPTH
VSH         .fract                          : 2      Volume
VCL         .fract                          : 3      Volume
SW          .fract                          : 4      Sat
PHIT        .fract                          : 5      Por
PHIE        .fract                          : 6      Por
RHOB        .g/cm3                          : 7      Rho
VP          .m/s                            : 8      Vp
VS          .m/s                            : 9      Vs
Vp_xw       .m/s                            : 10     Vp
Vs_xw       .m/s                            : 11     Vs
Rho_xw      .g/cm3                          : 12     Rho
#
#----------------------------------------------------------------------------
~A          VSH         VCL         SW          PHIT        PHIE        RHOB_raw    VP          VS          Vp_xw       Vs_xw       Rho_xw      
# ...
2246.376    0.2788      0.1781      0.9342      0.3293      0.2884      2.151       2546.9334   1156.4079   2437.5961   1199.8815   2.1253      
2246.5284   0.2551      0.163       0.9208      0.3451      0.3077      2.139       2494.4829   1124.1005   2378.914    1164.7127   2.1005      
2246.6808   0.2408      0.1539      0.9123      0.3541      0.3188      2.134       2465.8198   1107.3853   2346.3903   1145.3244   2.0864      
2246.8332   0.2497      0.1596      0.912       0.3572      0.3206      2.132       2468.5942   1107.1714   2322.0458   1123.134    2.0812      
2246.9856   0.2749      0.1757      0.9102      0.3572      0.317       2.134       2493.2609   1119.397    2296.2815   1096.0827   2.0802      
2247.138    0.3104      0.1983      0.9122      0.3539      0.3085      2.138       2524.7935   1136.429    2279.1388   1072.1857   2.0844      
2247.2904   0.3436      0.2195      0.9139      0.3494      0.2991      2.141       2548.3056   1148.1732   2270.6243   1056.1199   2.0904      
2247.4428   0.3507      0.224       0.9084      0.3467      0.2953      2.143       2554.5395   1153.4178   2274.062    1059.1543   2.0939      
2247.5952   0.3272      0.209       0.8976      0.3461      0.2982      2.145       2548.5831   1156.8835   2292.9576   1084.4055   2.0948      
2247.7476   0.2912      0.186       0.8796      0.3461      0.3035      2.149       2545.4321   1164.0861   2319.8972   1121.9092   2.0946      
2247.9      0.2696      0.1723      0.8619      0.3441      0.3046      2.155       2551.229    1175.0521   2344.6365   1153.4312   2.0972      
2248.0524   0.2796      0.1787      0.8444      0.3387      0.2978      2.167       2558.1218   1181.2063   2353.9777   1163.6679   2.104       
2248.2048   0.3236      0.2067      0.8357      0.3275      0.2801      2.188       2562.3119   1181.2478   2359.8218   1158.585    2.1194      
2248.3572   0.3931      0.2511      0.8414      0.3088      0.2513      2.21        2576.5412   1182.5129   2383.2735   1154.4885   2.1467      
2248.5096   0.4783      0.3054      0.8466      0.2884      0.2184      2.216       2615.836    1195.5577   2403.6148   1142.1656   2.1759      
2248.662    0.5667      0.3618      0.8139      0.2779      0.195       2.205       2666.7223   1218.3886   2365.5713   1098.0257   2.187       
2248.8144   0.6253      0.3992      0.7294      0.2816      0.1902      2.187       2687.1672   1224.3119   2274.1097   1040.9821   2.1738      
2248.9668   0.6604      0.4215      0.6374      0.2917      0.1951      2.167       2640.6981   1199.1666   2176.1886   987.452     2.1507      
2249.1192   0.6676      0.4262      0.5696      0.304       0.2063      2.155       2549.1855   1149.9653   2099.8762   948.678     2.1263      
2249.2716   0.6471      0.4131      0.5336      0.3118      0.2172      2.164       2486.4177   1124.3268   2070.6118   940.9057    2.112       
2249.424    0.6376      0.407       0.5332      0.3054      0.2122      2.194       2497.1051   1131.6836   2102.5831   965.5589    2.1226      
2249.5764   0.6684      0.4267      0.5648      0.2835      0.1858      2.23        2567.8847   1166.6775   2183.2479   1006.1514   2.159       
2249.7288   0.7421      0.4737      0.62        0.2556      0.1471      2.258       2657.8483   1204.4795   2272.04     1031.8647   2.2042      
2249.8812   0.8289      0.5291      0.6866      0.2323      0.1111      2.285       2727.7047   1226.2798   2341.5574   1034.4616   2.2414      
2250.0336   0.8673      0.5536      0.7741      0.2119      0.0851      2.31        2755.0558   1233.9334   2441.6894   1060.7074   2.2761      
2250.186    0.8353      0.5332      0.8611      0.1963      0.0742      2.326       2755.9016   1234.664    2570.2927   1122.9744   2.3054      
2250.3384   0.8212      0.5242      0.9311      0.1861      0.066       2.331       2757.7968   1228.5585   2659.6328   1160.2106   2.3246      
2250.4908   0.8787      0.5609      0.9899      0.1796      0.0512      2.316       2765.3019   1214.841    2679.2988   1133.8591   2.3344      
2250.6432   0.9504      0.6066      0.9684      0.1849      0.0461      2.278       2761.643    1200.6447   2599.7984   1071.5491   2.3226      
2250.7956   0.9825      0.6271      0.8351      0.207       0.0635      2.234       2728.7499   1182.4079   2422.1975   999.9004    2.2819      
2250.948    0.9883      0.6308      0.6959      0.2361      0.0917      2.207       2682.6927   1158.6116   2241.6563   930.089     2.2297      
2251.1004   0.9706      0.6196      0.6256      0.2558      0.1139      2.206       2654.8681   1146.6611   2146.8412   894.4969    2.1956      
2251.2528   0.9368      0.598       0.6182      0.2593      0.1225      2.228       2651.1724   1150.987    2146.4953   904.0361    2.1909      
2251.4052   0.9029      0.5763      0.6558      0.2491      0.1172      2.264       2666.379    1165.8107   2216.8668   946.7563    2.2104      
2251.5576   0.9467      0.6043      0.7629      0.2229      0.0846      2.294       2697.1847   1173.2158   2342.7131   983.6458    2.2553      
2251.71     0.997       0.6484      0.9007      0.199       0.0506      2.3         2724.0026   1172.8824   2468.8164   998.5526    2.2956      
2251.8624   0.997       0.6861      0.9521      0.1914      0.0345      2.29        2730.7448   1172.4662   2497.6079   982.1572    2.3069      
2252.0148   0.997       0.7078      0.9141      0.1965      0.0345      2.28        2734.9099   1176.685    2441.7726   953.1648    2.2962      
2252.1672   0.997       0.7504      0.8908      0.1999      0.0282      2.281       2745.9458   1179.3479   2388.2971   913.0133    2.2873      
2252.3196   0.997       0.8225      1.0         0.193       0.0048      2.295       2744.4622   1176.412    2429.1517   874.835     2.2977      
2252.472    0.997       0.886       1.0         0.2047      0.002       2.314       2724.5116   1172.2661   2352.6231   813.062     2.2763      
2252.6244   0.997       0.9125      1.0         0.2108      0.002       2.328       2709.3574   1172.2518   2318.858    787.0964    2.2656      
2252.7768   0.997       0.9133      1.0         0.211       0.002       2.335       2713.0695   1178.1577   2317.809    786.3034    2.2653      
2252.9292   0.997       0.9164      1.0         0.2116      0.002       2.342       2724.2941   1189.0746   2314.3703   783.5454    2.2642      
2253.0816   0.997       0.9309      1.0         0.2149      0.002       2.351       2731.0356   1198.1218   2296.8202   769.9745    2.2584      
2253.234    0.997       0.9353      1.0         0.2159      0.002       2.355       2731.0361   1200.6011   2291.5908   765.9247    2.2567      
2253.3864   0.997       0.9304      1.0         0.2148      0.002       2.345       2724.7643   1196.5751   2297.3669   770.4106    2.2586      
2253.5388   0.997       0.9168      1.0         0.2117      0.002       2.325       2715.6628   1185.1421   2313.8371   783.142     2.264       
2253.6912   0.997       0.9045      1.0         0.2089      0.002       2.303       2708.4194   1172.0194   2329.0888   794.9162    2.269       
2253.8436   0.997       0.9027      1.0         0.2084      0.002       2.284       2705.1268   1162.5182   2331.6799   796.8261    2.2698      
2253.996    0.997       0.8924      1.0         0.206       0.002       2.266       2709.5038   1158.0251   2344.9603   807.0051    2.274       
2254.1484   0.997       0.8859      1.0         0.2045      0.002       2.252       2715.8755   1154.8414   2353.4171   813.4941    2.2766      
2254.3008   0.997       0.8852      1.0         0.2097      0.0073      2.255       2708.541    1147.4397   2334.8673   804.5038    2.269       
2254.4532   0.997       0.8521      1.0         0.2109      0.0162      2.272       2691.9831   1137.3715   2345.999    821.9485    2.2693      
2254.6056   0.997       0.7869      1.0         0.205       0.0251      2.29        2687.7595   1135.0513   2401.939    875.5318    2.2822      
2254.758    0.997       0.7406      1.0         0.1965      0.0272      2.298       2699.8501   1141.3941   2463.3383   926.5332    2.2978      
