#----------------------------------------------------------------------------
~VERSION INFORMATION
VERS.            2.0                  :CWLS LOG ASCII STANDARD -VERSION 2.0
WRAP.            NO                   :ONE LINE PER DEPTH STEP
#
#--------------------------------------------------------------------
~WELL INFORMATION
#MNEM .UNIT      DATA                 :DESCRIPTION OF MNEMONIC
#----------      ------------         -------------------------------
STRT  .m         0.0                  :START DEPTH
STEP  .m         0.1524               :STEP DEPTH
STOP  .m         4000.0               :STOP DEPTH
NULL  .          -999.25              :NULL VALUE
COMP  .                               :COMPANY
WELL  .          Well4                :WELL
LOC   .                               :LOCATION - AREA
FLD   .                               :FIELD
CTRY  .                               :COUNTRY
DATE  .                               :WELL DATE

XWELL .m          0                    :X POS
YWELL .m          0                    :Y POS
EDF   .          0.0                  :DERRICK FLOOR ELEVATION
#
#----------------------------------------------------------------------------
~CURVE INFORMATION
#MNEM.UNIT                                  : CURVE DESCRIPTION
#----------                                 -------------------------------
DEPT        .m                              : 1      DEPTH
RHOB        .g/cm3                          : 2      Rho
Vs          .m/s                            : 3      Vs
Vp          .m/s                            : 4      Vp
Vclay       .fract                          : 5      Volume
Vcoal       .fract                          : 6      Volume
Vqz         .fract                          : 7      Volume
Vcal        .fract                          : 8      Volume
PHI_isolated.fract                          : 9      Por
PHI_bound   .fract                          : 10     Por
Vsh         .fract                          : 11     Volume
PHIE        .fract                          : 12     Por
PHIT        .fract                          : 13     Por
Sot         .fract                          : 14     Sat
Sgt         .fract                          : 15     Sat
Swt         .fract                          : 16     Sat
#
#----------------------------------------------------------------------------
~A          RHOB        Vs          Vp          Vclay       Vcoal       Vqz         Vcal        PHI_isolatedPHI_bound   Vsh         PHIE        PHIT        Sot         Sgt         Swt         
# ...
1990.6488   2.0886      1682.5      2922.1      0.0606      0.0         0.4427      0.2078      0.0         0.0236      0.0842      0.2651      0.2887      0.0         0.819       0.1806      
1990.8012   2.1911      1667.8      2900.6      0.1681      0.0         0.2938      0.2689      0.0066      0.0654      0.2335      0.197       0.2691      0.0         0.6396      0.3601      
1990.9536   2.2401      1663.6      2893.8      0.245       0.0         0.2377      0.275       0.0259      0.0953      0.3403      0.121       0.2422      0.0         0.4336      0.566       
1991.106    2.2911      1662.2      2892.8      0.3554      0.0         0.1513      0.2782      0.049       0.1382      0.4936      0.029       0.2162      0.0         0.1173      0.8822      
1991.2584   2.2836      1670.7      2885.5      0.3896      0.0         0.1637      0.2353      0.0547      0.1516      0.5412      0.0043      0.2106      0.0         0.0187      0.9808      
1991.4108   2.2209      1678.0      2871.7      0.3338      0.0         0.2808      0.1621      0.0466      0.1298      0.4636      0.0468      0.2232      0.0         0.1919      0.8077      
1991.5632   2.1822      1655.1      2852.1      0.2773      0.0         0.3436      0.1403      0.0363      0.1079      0.3852      0.0946      0.2388      0.0         0.3645      0.6351      
1991.7156   2.1208      1654.0      2831.6      0.1247      0.0         0.4033      0.1847      0.0         0.0485      0.1732      0.2385      0.2871      0.0         0.7634      0.2362      
1991.868    2.1016      1644.6      2807.6      0.0835      0.0         0.4576      0.1752      0.0         0.0324      0.116       0.2512      0.2837      0.0         0.8152      0.1845      
1992.0204   2.0839      1640.4      2782.9      0.0248      0.0         0.5294      0.1703      0.0         0.0097      0.0345      0.2659      0.2756      0.0         0.8916      0.108       
1992.1728   2.0857      1643.6      2755.7      0.0096      0.0         0.5511      0.1681      0.0         0.0038      0.0134      0.2675      0.2713      0.0         0.9143      0.0854      
1992.3252   2.1184      1645.5      2727.9      3.0E-4      0.0         0.5776      0.166       0.0         1.0E-4      4.0E-4      0.256       0.2561      0.0         0.9278      0.0718      
1992.4776   2.1516      1639.9      2704.7      0.0042      0.0         0.5854      0.1657      0.0         0.0017      0.0059      0.2429      0.2446      0.0041      0.9152      0.0803      
1992.63     2.236       1627.8      2691.6      0.016       0.0         0.5993      0.1705      0.0         0.0063      0.0223      0.2079      0.2142      0.0         0.8858      0.1138      
1992.7824   2.2972      1608.4      2688.7      0.0226      0.0         0.61        0.1757      0.0         0.0087      0.0313      0.1831      0.1918      0.0         0.8602      0.1393      
1992.9348   2.311       1606.5      2693.4      0.0259      0.0         0.5956      0.1911      0.0         0.0101      0.036       0.1771      0.1872      0.0         0.8539      0.1455      
1993.0872   2.3278      1613.7      2703.2      0.0373      0.0         0.5811      0.1975      0.0         0.0145      0.0518      0.1695      0.184       0.0         0.812       0.1874      
1993.2396   2.3328      1617.6      2713.4      0.0474      0.0         0.5733      0.1949      0.0         0.0184      0.0658      0.1661      0.1845      0.0         0.7915      0.208       
1993.392    2.2896      1623.8      2720.7      0.0581      0.0         0.5643      0.1718      0.0         0.0226      0.0807      0.1831      0.2057      0.0         0.7926      0.207       
1993.5444   2.2302      1641.4      2726.9      0.0571      0.0         0.5657      0.1497      0.0         0.0222      0.0792      0.2054      0.2275      0.0         0.8142      0.1853      
1993.6968   2.0977      1652.0      2740.2      0.0546      0.0         0.5709      0.0962      0.0         0.0212      0.0758      0.2569      0.2781      0.0         0.8516      0.1481      
1993.8492   2.0479      1653.5      2762.7      0.0623      0.0         0.5708      0.0692      0.0         0.0242      0.0865      0.2735      0.2976      0.0         0.8654      0.1343      
1994.0016   1.998       1651.0      2788.3      0.0696      0.0         0.5701      0.0415      0.0         0.0271      0.0967      0.2918      0.3189      0.0         0.862       0.1377      
1994.154    1.9912      1653.2      2812.0      0.0692      0.0         0.5636      0.0421      0.0         0.0269      0.0961      0.2978      0.3247      0.0         0.8592      0.1405      
1994.3064   1.9886      1668.4      2838.1      0.0847      0.0         0.5375      0.0488      0.0         0.0329      0.1176      0.2962      0.3291      0.0         0.8399      0.1598      
1994.4588   1.9871      1687.2      2871.9      0.0932      0.0         0.5255      0.0508      0.0         0.0362      0.1294      0.2941      0.3303      0.0         0.8311      0.1686      
1994.6112   1.9829      1702.3      2908.8      0.0928      0.0         0.5205      0.0559      0.0         0.0361      0.1289      0.2947      0.3308      0.0         0.828       0.1717      
1994.7636   1.9821      1711.5      2935.5      0.0886      0.0         0.5218      0.06        0.0         0.0344      0.123       0.2951      0.3296      0.0         0.8274      0.1723      
1994.916    1.9859      1706.2      2944.7      0.0786      0.0         0.5241      0.0708      0.0         0.0305      0.1092      0.2959      0.3264      0.0         0.831       0.1687      
1995.0684   1.9905      1721.6      2942.4      0.0735      0.0         0.5267      0.0756      0.0         0.0286      0.102       0.2958      0.3243      0.0         0.832       0.1676      
1995.2208   2.0027      1732.1      2936.6      0.0681      0.0         0.5216      0.0898      0.0         0.0265      0.0946      0.294       0.3205      0.0         0.8299      0.1697      
1995.3732   2.0084      1740.0      2930.5      0.0719      0.0         0.5103      0.0976      0.0         0.028       0.0998      0.2923      0.3203      0.0         0.8244      0.1753      
1995.5256   2.0158      1740.2      2922.1      0.094       0.0         0.4771      0.1035      0.0         0.0366      0.1306      0.2888      0.3254      0.0         0.8026      0.1971      
1995.678    2.0173      1736.5      2914.3      0.1084      0.0         0.4619      0.1022      0.0         0.0422      0.1506      0.2855      0.3277      0.0052      0.7835      0.211       
1995.8304   2.0144      1741.2      2915.7      0.1318      0.0         0.4668      0.0788      0.0063      0.0513      0.1831      0.2648      0.3224      0.0         0.7458      0.2539      
1995.9828   2.0018      1756.3      2932.0      0.1214      0.0         0.4833      0.0668      0.0025      0.0472      0.1686      0.2787      0.3285      0.0         0.7722      0.2275      
1996.1352   1.9932      1763.4      2958.2      0.1118      0.0         0.5183      0.0391      0.0         0.0435      0.1553      0.2874      0.3309      0.0         0.7925      0.2072      
1996.2876   1.9794      1757.3      2985.7      0.095       0.0         0.5627      0.0132      0.0         0.037       0.132       0.292       0.329       0.0         0.8117      0.188       
1996.44     1.9774      1745.5      3007.6      0.0857      0.0         0.582       0.006       0.0         0.0334      0.119       0.2931      0.3265      0.0         0.8219      0.1778      
1996.5924   1.9886      1747.6      3023.3      0.062       0.0         0.6141      0.0065      0.0         0.0242      0.0862      0.293       0.3171      0.0         0.8367      0.163       
1996.7448   2.0028      1718.2      3029.6      0.051       0.0         0.6225      0.0165      0.0         0.0198      0.0708      0.2901      0.3099      0.0         0.8425      0.1572      
1996.8972   2.0412      1708.0      3023.9      0.0352      0.0         0.6218      0.0492      0.0         0.0137      0.0489      0.2804      0.2941      0.0         0.8474      0.1522      
