#----------------------------------------------------------------------------
~VERSION INFORMATION
VERS.            2.0                  :CWLS LOG ASCII STANDARD -VERSION 2.0
WRAP.            NO                   :ONE LINE PER DEPTH STEP
#
#--------------------------------------------------------------------
~WELL INFORMATION
#MNEM .UNIT      DATA                 :DESCRIPTION OF MNEMONIC
#----------      ------------         -------------------------------
STRT  .m         0.0                  :START DEPTH
STEP  .m         0.1524               :STEP DEPTH
STOP  .m         4000.0               :STOP DEPTH
NULL  .          -999.25              :NULL VALUE
COMP  .                               :COMPANY
WELL  .          Well4                :WELL
LOC   .                               :LOCATION - AREA
FLD   .                               :FIELD
CTRY  .                               :COUNTRY
DATE  .                               :WELL DATE

XWELL .m          0                    :X POS
YWELL .m          0                    :Y POS
EDF   .          0.0                  :DERRICK FLOOR ELEVATION
#
#----------------------------------------------------------------------------
~CURVE INFORMATION
#MNEM.UNIT                                  : CURVE DESCRIPTION
#----------                                 -------------------------------
DEPT        .m                              : 1      DEPTH
RHOB        .g/cm3                          : 2      Rho
Vs          .m/s                            : 3      Vs
Vp          .m/s                            : 4      Vp
Vclay       .fract                          : 5      Volume
Vcoal       .fract                          : 6      Volume
Vqz         .fract                          : 7      Volume
Vcal        .fract                          : 8      Volume
PHI_isolated.fract                          : 9      Por
PHI_bound   .fract                          : 10     Por
Vsh         .fract                          : 11     Volume
PHIE        .fract                          : 12     Por
PHIT        .fract                          : 13     Por
Sot         .fract                          : 14     Sat
Sgt         .fract                          : 15     Sat
Swt         .fract                          : 16     Sat
#
#----------------------------------------------------------------------------
~A          RHOB        Vs          Vp          Vclay       Vcoal       Vqz         Vcal        PHI_isolatedPHI_bound   Vsh         PHIE        PHIT        Sot         Sgt         Swt         
# ...
1152.144    1.9279      -999.25     1999.7      0.598       0.0         0.0355      0.0         0.0         0.3665      0.9645      0.0         0.3665      0.0         0.0         0.9997      
1152.2964   1.9266      -999.25     2017.7      0.5847      0.0         0.0569      0.0         0.0         0.3584      0.9431      0.0         0.3584      0.0         0.0         0.9997      
1152.4488   1.9208      -999.25     2042.2      0.58        0.0         0.0646      0.0         0.0         0.3555      0.9355      0.0         0.3555      0.0         0.0         0.9997      
1152.6012   1.9064      -999.25     2055.5      0.5803      0.0         0.064       0.0         0.0         0.3557      0.936       0.0         0.3557      0.0         0.0         0.9997      
1152.7536   1.8931      -999.25     2055.9      0.5816      0.0         0.0619      0.0         0.0         0.3564      0.938       0.0         0.3564      0.0         0.0         0.9997      
1152.906    1.8604      -999.25     2055.5      0.5872      0.0         0.0529      0.0         0.0         0.3599      0.9471      0.0         0.3599      0.0         0.0         0.9997      
1153.0584   1.8326      -999.25     2056.8      0.5939      0.0         0.042       0.0         0.0         0.3641      0.958       0.0         0.3641      0.0         0.0         0.9997      
1153.2108   1.829       -999.25     2051.5      0.5966      0.0         0.0377      0.0         0.0         0.3657      0.9623      0.0         0.3657      0.0         0.0         0.9997      
1153.3632   1.8378      -999.25     2040.6      0.5962      0.0         0.0384      0.0         0.0         0.3654      0.9616      0.0         0.3654      0.0         0.0         0.9997      
1153.5156   1.8744      -999.25     2033.4      0.5903      0.0         0.0479      0.0         0.0         0.3618      0.9521      0.0         0.3618      0.0         0.0         0.9997      
1153.668    1.9017      -999.25     2030.8      0.5868      0.0         0.0535      0.0         0.0         0.3596      0.9464      0.0         0.3596      0.0         0.0         0.9997      
1153.8204   1.943       -999.25     2028.5      0.581       0.0         0.063       0.0         0.0         0.3561      0.9371      0.0         0.3561      0.0         0.0         0.9997      
1153.9728   1.9672      -999.25     2017.0      0.5773      0.0         0.0689      0.0         0.0         0.3538      0.931       0.0         0.3538      0.0         0.0         0.9997      
1154.1252   1.9703      -999.25     1998.5      0.5762      0.0         0.0706      0.0         0.0         0.3532      0.9294      0.0         0.3532      0.0         0.0         0.9997      
1154.2776   1.9536      -999.25     1977.7      0.5819      0.0         0.0615      0.0         0.0         0.3566      0.9385      0.0         0.3566      0.0         0.0         0.9997      
1154.43     1.9331      -999.25     1963.3      0.5957      0.0         0.0392      0.0         0.0         0.3651      0.9608      0.0         0.3651      0.0         0.0         0.9997      
1154.5824   1.9044      -999.25     1958.8      0.6127      0.0         0.0117      0.0         0.0         0.3755      0.9883      0.0         0.3755      0.0         0.0         0.9997      
1154.7348   1.8994      -999.25     1980.1      0.6197      0.0         0.0         0.0         5.0E-4      0.3798      0.9995      0.0         0.3803      0.0         0.0         0.9997      
1154.8872   1.918       -999.25     2028.1      0.5989      0.0         0.025       0.0         0.0089      0.3671      0.966       0.0         0.376       0.0         0.0         0.9997      
1155.0396   1.931       -999.25     2095.7      0.5776      0.0         0.0552      0.0         0.013       0.354       0.9316      0.0         0.367       0.0         0.0         0.9997      
1155.192    1.9651      -999.25     2156.5      0.5374      0.0         0.1094      0.0         0.0238      0.3294      0.8668      0.0         0.3532      0.0         0.0         0.9997      
1155.3444   1.9993      -999.25     2199.3      0.5063      0.0         0.1526      0.0         0.0307      0.3103      0.8166      0.0         0.3411      0.0         0.0         0.9997      
1155.4968   2.082       -999.25     2220.2      0.4539      0.0         0.2116      0.008       0.0475      0.2782      0.732       0.0         0.3256      0.0         0.0         0.9997      
1155.6492   2.1524      -999.25     2235.4      0.4187      0.0         0.1428      0.1199      0.0617      0.2566      0.6753      0.0         0.3183      0.0         0.0         0.9997      
1155.8016   2.1557      -999.25     2245.5      0.4398      0.0         0.0841      0.1538      0.0534      0.2696      0.7094      0.0         0.323       0.0         0.0         0.9997      
1155.954    2.1201      -999.25     2246.9      0.4773      0.0         0.0926      0.1007      0.0367      0.2926      0.7699      0.0         0.3292      0.0         0.0         0.9997      
1156.1064   2.0042      -999.25     2198.6      0.5545      0.0         0.0945      0.0055      0.0062      0.3398      0.8943      0.0         0.346       0.0         0.0         0.9997      
1156.2588   1.938       -999.25     2111.5      0.5712      0.0         0.0788      0.0         0.0         0.3501      0.9213      0.0         0.3501      0.0         0.0         0.9997      
1156.4112   1.8971      -999.25     2039.6      0.5683      0.0         0.0835      0.0         0.0         0.3482      0.9165      0.0         0.3482      0.0         0.0         0.9997      
1156.5636   1.8988      -999.25     2018.7      0.5624      0.0         0.0929      0.0         0.0         0.3447      0.9071      0.0         0.3447      0.0         0.0         0.9997      
1156.716    1.929       -999.25     2029.6      0.5646      0.0         0.0893      0.0         0.0         0.3461      0.9107      0.0         0.3461      0.0         0.0         0.9997      
1156.8684   1.9463      -999.25     2037.0      0.5846      0.0         0.0571      0.0         0.0         0.3583      0.9429      0.0         0.3583      0.0         0.0         0.9997      
1157.0208   1.9648      -999.25     2037.7      0.6153      0.0         0.0076      0.0         0.0         0.3771      0.9924      0.0         0.3771      0.0         0.0         0.9997      
1157.1732   1.975       -999.25     2046.1      0.5952      0.0         0.0226      0.0         0.0173      0.3648      0.96        0.0         0.3821      0.0         0.0         0.9997      
1157.3256   1.9893      -999.25     2055.0      0.5907      0.0         0.0285      0.0         0.0188      0.362       0.9527      0.0         0.3808      0.0         0.0         0.9997      
1157.478    2.0003      -999.25     2059.9      0.6051      0.0         0.0225      0.0         0.0015      0.3708      0.9759      0.0         0.3723      0.0         0.0         0.9997      
1157.6304   2.0066      -999.25     2060.6      0.5803      0.0         0.064       0.0         0.0         0.3557      0.936       0.0         0.3557      0.0         0.0         0.9997      
1157.7828   2.0217      -999.25     2056.5      0.555       0.0         0.1049      0.0         0.0         0.3401      0.8951      0.0         0.3401      0.0         0.0         0.9997      
1157.9352   2.0301      -999.25     2044.0      0.5417      0.0         0.1263      0.0         0.0         0.332       0.8737      0.0         0.332       0.0         0.0         0.9997      
1158.0876   2.0229      -999.25     2025.6      0.5431      0.0         0.1241      0.0         0.0         0.3328      0.8759      0.0         0.3328      0.0         0.0         0.9997      
1158.24     2.0043      -999.25     2008.9      0.5579      0.0         0.1003      0.0         0.0         0.3419      0.8997      0.0         0.3419      0.0         0.0         0.9997      
1158.3924   1.9509      -999.25     2004.1      0.5852      0.0         0.0562      0.0         0.0         0.3587      0.9438      0.0         0.3587      0.0         0.0         0.9997      
