#----------------------------------------------------------------------------
~VERSION INFORMATION
VERS.            2.0                  :CWLS LOG ASCII STANDARD -VERSION 2.0
WRAP.            NO                   :ONE LINE PER DEPTH STEP
#
#--------------------------------------------------------------------
~WELL INFORMATION
#MNEM .UNIT      DATA                 :DESCRIPTION OF MNEMONIC
#----------      ------------         -------------------------------
STRT  .m         0.0                  :START DEPTH
STEP  .m         0.1524               :STEP DEPTH
STOP  .m         4000.0               :STOP DEPTH
NULL  .          -999.25              :NULL VALUE
COMP  .                               :COMPANY
WELL  .          Well5                :WELL
LOC   .                               :LOCATION - AREA
FLD   .                               :FIELD
CTRY  .                               :COUNTRY
DATE  .                               :WELL DATE

XWELL .m          0                    :X POS
YWELL .m          0                    :Y POS
EDF   .          0.0                  :DERRICK FLOOR ELEVATION
#
#----------------------------------------------------------------------------
~CURVE INFORMATION
#MNEM.UNIT                                  : CURVE DESCRIPTION
#----------                                 -------------------------------
DEPT        .m                              : 1      DEPTH
GR          .API                            : 2      GR
PR          .unitless                       : 3      Poisson_Ratio
RHOB        .g/cm3                          : 4      Rho
CALI        .m                              : 5      Cal
VELC        .m/s                            : 6      Vp
VELS        .m/s                            : 7      Vs
Vcdry       .fract                          : 8      Volume
Vbw         .fract                          : 9      Volume
Vcal        .fract                          : 10     Volume
Vqz         .fract                          : 11     Volume
Vparphi     .fract                          : 12     Volume
Voil        .fract                          : 13     Volume
Vgas        .fract                          : 14     Volume
Vw          .fract                          : 15     Volume
Vp_elastic  .m/s                            : 16     Vp
Vs_elastic  .m/s                            : 17     Vs
Rho_elastic .g/cm3                          : 18     Rho
#
#----------------------------------------------------------------------------
~A          GR          PR          RHOB        CALI        VELC        VELS        Vcdry       Vbw         Vcal        Vqz         Vparphi     Voil        Vgas        Vw          Vp_elastic  Vs_elastic  Rho_elastic 
# ...
3253.5876   60.8289     0.394       2.6154      0.3201      3304.8637   1382.1589   0.3868      0.0792      0.0         0.4703      0.0634      0.0         0.0         0.0         3572.9478   1802.495    2.5124      
3253.74     59.2098     0.3948      2.7095      0.3199      3397.1794   1416.2538   0.438       0.0898      0.0         0.4373      0.0348      0.0         0.0         0.0         3574.9301   1805.5395   2.5127      
3253.8924   59.8816     0.3951      2.766       0.3197      3488.8118   1452.6489   0.4437      0.0909      0.0         0.4486      0.017       0.0         0.0         0.0         3576.933    1808.6151   2.513       
3254.0448   62.0116     0.3917      2.776       0.3197      3541.8361   1494.5429   0.4366      0.0894      0.0         0.4617      0.0121      0.0         0.0         0.0         3578.9562   1811.7214   2.5132      
3254.1972   66.1858     0.387       2.7763      0.3193      3586.8361   1539.749    0.4422      0.0906      0.0         0.4577      0.0095      0.0         0.0         0.0         3580.9992   1814.8577   2.5135      
3254.3496   68.7201     0.385       2.7829      0.317       3639.8283   1573.8569   0.4452      0.0912      0.0         0.4573      0.0064      0.0         0.0         0.0         3583.0617   1818.0233   2.5138      
3254.502    67.6267     0.3837      2.7644      0.3158      3696.2109   1605.5999   0.394       0.0807      2.0E-4      0.5097      0.0135      0.0         0.0         0.0         3585.1432   1821.2176   2.5141      
3254.6544   64.5172     0.3916      2.7014      0.3154      3781.5794   1596.3173   0.2497      0.0511      0.2073      0.452       0.0243      0.0         0.0         0.0156      3587.2435   1824.4401   2.5143      
3254.8068   61.61       0.4016      2.6362      0.3139      3880.9733   1573.6366   0.1093      0.0224      0.3664      0.4337      6.0E-4      0.0         0.0         0.0664      3589.3619   1827.69     2.5146      
3254.9592   60.2301     0.4121      2.6082      0.3128      3974.777    1537.4499   0.0747      0.0153      0.2346      0.6023      0.0         0.0         0.0         0.0731      3591.4983   1830.9668   2.5149      
3255.1116   60.7049     0.4217      2.6115      0.3123      4068.4997   1497.4379   0.0858      0.0176      0.3138      0.5148      0.0         0.0         0.0         0.0684      3593.6521   1834.2698   2.5152      
3255.264    63.4398     0.4234      2.6143      0.3124      4045.3469   1474.8232   0.1324      0.0272      0.2224      0.551       0.0039      0.0         0.0         0.063       3595.8231   1837.5985   2.5154      
3255.4164   75.9638     0.4217      2.604       0.3117      3967.5956   1460.3      0.2971      0.0609      0.0         0.5966      0.0379      0.0         0.0         0.0115      3598.0107   1840.9522   2.5157      
3255.5688   94.9681     0.418       2.5839      0.3083      3899.2857   1463.1938   0.4546      0.0931      0.0         0.4121      0.0403      0.0         0.0         0.0         3600.2146   1844.3302   2.516       
3255.7212   107.8293    0.4131      2.5564      0.3057      3836.6373   1475.9751   0.5711      0.1169      0.0         0.2762      0.0355      0.0         0.0         0.0         3602.4345   1847.732    2.5162      
3255.8736   111.4823    0.4069      2.532       0.3049      3818.3      1512.7419   0.5729      0.1174      0.0         0.2687      0.0412      0.0         0.0         0.0         3604.6698   1851.1569   2.5165      
3256.026    110.57      0.3992      2.5031      0.3048      3828.0764   1568.2104   0.5086      0.1042      0.0         0.3347      0.0526      0.0         0.0         0.0         3606.9203   1854.6044   2.5168      
3256.1784   108.8761    0.3924      2.4656      0.3046      3937.7142   1656.8645   0.4557      0.0934      0.0         0.3872      0.0637      0.0         0.0         0.0         3609.1855   1858.0737   2.517       
3256.3308   107.1089    0.3863      2.4292      0.3055      4136.6395   1780.441    0.4401      0.0901      0.0         0.3976      0.0721      0.0         0.0         0.0         3611.465    1861.5644   2.5173      
3256.4832   106.254     0.3812      2.41        0.3104      4334.541    1899.2472   0.413       0.0846      0.0         0.4258      0.0766      0.0         0.0         0.0         3613.7585   1865.0756   2.5176      
3256.6356   105.8246    -999.25     2.4191      0.3172      -999.25     -999.25     0.3957      0.0811      0.0         0.4485      0.0746      0.0         0.0         0.0         3616.0655   1868.6069   2.5178      
3256.788    104.2522    -999.25     2.4684      0.32        -999.25     -999.25     0.4352      0.0892      0.0         0.4128      0.0628      0.0         0.0         0.0         3618.3856   1872.1576   2.5181      
3256.9404   101.0753    -999.25     2.5658      0.3199      -999.25     -999.25     0.5297      0.1084      0.0         0.3204      0.0414      0.0         0.0         0.0         3620.7185   1875.7271   2.5184      
3257.0928   97.6373     -999.25     2.6196      0.3197      -999.25     -999.25     0.5835      0.1195      0.0         0.2683      0.0285      0.0         0.0         0.0         3623.0638   1879.3148   2.5186      
3257.2452   96.9601     -999.25     2.6151      0.3197      -999.25     -999.25     0.5672      0.1161      0.0         0.2896      0.0271      0.0         0.0         0.0         3625.421    1882.9199   2.5189      
3257.3976   99.4866     0.4092      2.6179      0.3204      5047.4336   1978.4594   0.5495      0.1126      0.0         0.3121      0.0259      0.0         0.0         0.0         3627.7898   1886.5421   2.5191      
3257.55     102.6991    -999.25     2.622       0.3224      -999.25     -999.25     0.5555      0.1138      0.0         0.3057      0.025       0.0         0.0         0.0         3630.1697   1890.1805   2.5194      
3257.7024   105.2597    -999.25     2.6239      0.3233      -999.25     -999.25     0.5583      0.1144      0.0         0.3019      0.0254      0.0         0.0         0.0         3632.5605   1893.8346   2.5197      
3257.8548   107.5464    -999.25     2.6252      0.3233      -999.25     -999.25     0.5448      0.1116      0.0         0.3164      0.0273      0.0         0.0         0.0         3634.9616   1897.5037   2.5199      
3258.0072   110.4913    -999.25     2.6049      0.3232      -999.25     -999.25     0.5227      0.107       0.0         0.3361      0.0344      0.0         0.0         0.0         3637.3727   1901.1873   2.5202      
3258.1596   114.5228    -999.25     2.4877      0.3236      -999.25     -999.25     0.5615      0.115       0.0         0.2662      0.0573      0.0         0.0         0.0         3639.7934   1904.8847   2.5204      
3258.312    118.768     0.4037      2.2456      0.3246      4036.8917   1622.5      0.7231      0.1481      0.0         0.0296      0.0992      0.0         0.0         0.0         3642.2234   1908.5953   2.5207      
3258.4644   122.3762    0.39        1.9813      0.3259      3885.2711   1650.0658   0.6753      0.1383      0.0         0.0         0.1866      0.0         0.0         0.0         3644.6621   1912.3185   2.5209      
3258.6168   125.6252    0.3771      1.8541      0.3259      3770.9256   1674.6697   0.6434      0.1318      0.0         0.0         0.2247      0.0         0.0         0.0         3647.1092   1916.0536   2.5212      
3258.7692   127.0414    -999.25     1.951       0.3239      -999.25     -999.25     0.6886      0.141       0.0         0.0         0.1705      0.0         0.0         0.0         3649.5644   1919.8001   2.5214      
3258.9216   124.5267    -999.25     2.2178      0.3216      -999.25     -999.25     0.761       0.1559      0.0         0.0048      0.0773      0.0         0.0         0.0         3652.0272   1923.5572   2.5217      
3259.074    117.7244    -999.25     2.4545      0.3201      -999.25     -999.25     0.6665      0.1366      0.0         0.1593      0.0376      0.0         0.0         0.0         3654.4972   1927.3245   2.5219      
