#----------------------------------------------------------------------------
~VERSION INFORMATION
VERS.            2.0                  :CWLS LOG ASCII STANDARD -VERSION 2.0
WRAP.            NO                   :ONE LINE PER DEPTH STEP
#
#--------------------------------------------------------------------
~WELL INFORMATION
#MNEM .UNIT      DATA                 :DESCRIPTION OF MNEMONIC
#----------      ------------         -------------------------------
STRT  .m         0.0                  :START DEPTH
STEP  .m         0.1524               :STEP DEPTH
STOP  .m         4000.0               :STOP DEPTH
NULL  .          -999.25              :NULL VALUE
COMP  .                               :COMPANY
WELL  .          Well5                :WELL
LOC   .                               :LOCATION - AREA
FLD   .                               :FIELD
CTRY  .                               :COUNTRY
DATE  .                               :WELL DATE

XWELL .m          0                    :X POS
YWELL .m          0                    :Y POS
EDF   .          0.0                  :DERRICK FLOOR ELEVATION
#
#----------------------------------------------------------------------------
~CURVE INFORMATION
#MNEM.UNIT                                  : CURVE DESCRIPTION
#----------                                 -------------------------------
DEPT        .m                              : 1      DEPTH
GR          .API                            : 2      GR
PR          .unitless                       : 3      Poisson_Ratio
RHOB        .g/cm3                          : 4      Rho
CALI        .m                              : 5      Cal
VELC        .m/s                            : 6      Vp
VELS        .m/s                            : 7      Vs
Vcdry       .fract                          : 8      Volume
Vbw         .fract                          : 9      Volume
Vcal        .fract                          : 10     Volume
Vqz         .fract                          : 11     Volume
Vparphi     .fract                          : 12     Volume
Voil        .fract                          : 13     Volume
Vgas        .fract                          : 14     Volume
Vw          .fract                          : 15     Volume
Vp_elastic  .m/s                            : 16     Vp
Vs_elastic  .m/s                            : 17     Vs
Rho_elastic .g/cm3                          : 18     Rho
#
#----------------------------------------------------------------------------
~A          GR          PR          RHOB        CALI        VELC        VELS        Vcdry       Vbw         Vcal        Vqz         Vparphi     Voil        Vgas        Vw          Vp_elastic  Vs_elastic  Rho_elastic 
# ...
2830.6776   163.213     -999.25     2.4556      0.3355      -999.25     -999.25     0.6702      0.2607      0.0         0.0386      0.0306      0.0         0.0         0.0         2600.9299   1268.5607   2.2938      
2830.83     156.9724    -999.25     2.44        0.3361      -999.25     -999.25     0.654       0.2543      0.0         0.0442      0.0473      0.0         0.0         0.0         2601.1953   1268.7258   2.2939      
2830.9824   151.6126    -999.25     2.4379      0.3363      -999.25     -999.25     0.6322      0.2459      0.0         0.0643      0.0576      0.0         0.0         0.0         2601.4609   1268.891    2.2941      
2831.1348   152.2001    -999.25     2.4393      0.3368      -999.25     -999.25     0.6354      0.2471      0.0         0.0616      0.056       0.0         0.0         0.0         2601.7266   1269.0563   2.2942      
2831.2872   157.4465    -999.25     2.4441      0.3378      -999.25     -999.25     0.6605      0.2568      0.0         0.0379      0.0448      0.0         0.0         0.0         2601.9925   1269.2218   2.2944      
2831.4396   162.6281    -999.25     2.4534      0.3385      -999.25     -999.25     0.6714      0.2611      0.0         0.0338      0.0336      0.0         0.0         0.0         2602.2585   1269.3874   2.2945      
2831.592    165.058     -999.25     2.4684      0.3389      -999.25     -999.25     0.6751      0.2625      0.0         0.0444      0.018       0.0         0.0         0.0         2602.5247   1269.5531   2.2946      
2831.7444   166.0693    -999.25     2.4881      0.3394      -999.25     -999.25     0.6739      0.2621      0.0         0.0575      0.0063      0.0         0.0         0.0         2602.7911   1269.7189   2.2948      
2831.8968   166.9934    -999.25     2.5042      0.3405      -999.25     -999.25     0.678       0.2636      0.0         0.0585      0.0         0.0         0.0         0.0         2603.0576   1269.8848   2.2949      
2832.0492   167.2202    -999.25     2.5029      0.3417      -999.25     -999.25     0.6816      0.265       0.0         0.0523      0.0011      0.0         0.0         0.0         2603.3243   1270.0509   2.2951      
2832.2016   165.9644    -999.25     2.4905      0.3424      -999.25     -999.25     0.6756      0.2627      0.0         0.0536      0.0081      0.0         0.0         0.0         2603.5912   1270.2171   2.2952      
2832.354    163.4117    -999.25     2.4772      0.3425      -999.25     -999.25     0.6641      0.2582      0.0         0.0595      0.0182      0.0         0.0         0.0         2603.8582   1270.3834   2.2953      
2832.5064   160.5047    -999.25     2.4632      0.3425      -999.25     -999.25     0.6557      0.255       0.0         0.0589      0.0302      0.0         0.0         0.0         2604.1254   1270.5498   2.2955      
2832.6588   157.949     -999.25     2.4528      0.3425      -999.25     -999.25     0.641       0.2493      0.0         0.0751      0.0348      0.0         0.0         0.0         2604.3928   1270.7164   2.2956      
2832.8112   155.9054    -999.25     2.4507      0.3424      -999.25     -999.25     0.6274      0.244       0.0         0.0925      0.0362      0.0         0.0         0.0         2604.6603   1270.8831   2.2957      
2832.9636   155.0689    -999.25     2.4574      0.3424      -999.25     -999.25     0.6201      0.2411      0.0         0.1048      0.0339      0.0         0.0         0.0         2604.928    1271.0499   2.2959      
2833.116    157.1991    -999.25     2.4689      0.3426      -999.25     -999.25     0.6283      0.2443      0.0         0.1027      0.0247      0.0         0.0         0.0         2605.1959   1271.2168   2.296       
2833.2684   161.1562    -999.25     2.4819      0.3427      -999.25     -999.25     0.6466      0.2514      0.0         0.0898      0.0121      0.0         0.0         0.0         2605.4639   1271.3838   2.2962      
2833.4208   163.6983    -999.25     2.4938      0.3425      -999.25     -999.25     0.657       0.2555      0.0         0.0847      0.0027      0.0         0.0         0.0         2605.7321   1271.551    2.2963      
2833.5732   163.7664    -999.25     2.4978      0.3423      -999.25     -999.25     0.6564      0.2553      0.0         0.0871      0.0012      0.0         0.0         0.0         2606.0004   1271.7183   2.2964      
2833.7256   161.7988    -999.25     2.4871      0.3423      -999.25     -999.25     0.6501      0.2528      0.0         0.0865      0.0106      0.0         0.0         0.0         2606.2689   1271.8857   2.2966      
2833.878    158.9165    -999.25     2.4562      0.3426      -999.25     -999.25     0.6412      0.2493      0.0         0.0831      0.0262      0.0         0.0         0.0         2606.5376   1272.0532   2.2967      
2834.0304   156.4257    -999.25     2.4419      0.3424      -999.25     -999.25     0.6357      0.2472      0.0         0.0775      0.0396      0.0         0.0         0.0         2606.8065   1272.2209   2.2969      
2834.1828   154.7538    -999.25     2.4431      0.3423      -999.25     -999.25     0.6262      0.2435      0.0         0.0858      0.0444      0.0         0.0         0.0         2607.0755   1272.3886   2.297       
2834.3352   153.645     -999.25     2.4463      0.3423      -999.25     -999.25     0.6089      0.2368      0.0         0.1122      0.0421      0.0         0.0         0.0         2607.3447   1272.5565   2.2971      
2834.4876   152.42      -999.25     2.4451      0.3423      -999.25     -999.25     0.5893      0.2292      0.0         0.142       0.0396      0.0         0.0         0.0         2607.614    1272.7245   2.2973      
2834.64     151.8782    -999.25     2.4402      0.3425      -999.25     -999.25     0.5813      0.2261      0.0         0.1531      0.0396      0.0         0.0         0.0         2607.8835   1272.8927   2.2974      
2834.7924   152.6668    -999.25     2.4454      0.3424      -999.25     -999.25     0.5887      0.229       0.0         0.1441      0.0384      0.0         0.0         0.0         2608.1531   1273.0609   2.2975      
2834.9448   152.4928    -999.25     2.4682      0.3416      -999.25     -999.25     0.594       0.231       0.0         0.1391      0.0359      0.0         0.0         0.0         2608.423    1273.2293   2.2977      
2835.0972   150.3532    -999.25     2.5056      0.3404      -999.25     -999.25     0.6074      0.2362      0.0         0.1348      0.0213      0.0         0.0         0.0         2608.693    1273.3978   2.2978      
2835.2496   148.6585    -999.25     2.5414      0.3391      -999.25     -999.25     0.6063      0.2358      0.0         0.1495      0.0086      0.0         0.0         0.0         2608.9631   1273.5664   2.298       
2835.402    146.6597    -999.25     2.5532      0.3385      -999.25     -999.25     0.5965      0.232       0.0         0.1658      0.0057      0.0         0.0         0.0         2609.2334   1273.7352   2.2981      
2835.5544   144.3666    -999.25     2.5307      0.3385      -999.25     -999.25     0.5811      0.226       0.0         0.174       0.019       0.0         0.0         0.0         2609.5039   1273.904    2.2982      
2835.7068   144.6582    -999.25     2.4859      0.3385      -999.25     -999.25     0.5766      0.2242      0.0         0.161       0.0382      0.0         0.0         0.0         2609.7745   1274.073    2.2984      
2835.8592   149.6429    -999.25     2.4451      0.3387      -999.25     -999.25     0.5848      0.2274      0.0         0.1377      0.0497      0.0         0.0         0.0         2610.0453   1274.2421   2.2985      
2836.0116   154.0787    -999.25     2.4318      0.3375      -999.25     -999.25     0.6128      0.2383      0.0         0.1028      0.046       0.0         0.0         0.0         2610.3163   1274.4114   2.2987      
2836.164    154.4179    -999.25     2.4389      0.3358      -999.25     -999.25     0.6179      0.2403      0.0         0.0945      0.0474      0.0         0.0         0.0         2610.5874   1274.5807   2.2988      
