#----------------------------------------------------------------------------
~VERSION INFORMATION
VERS.            2.0                  :CWLS LOG ASCII STANDARD -VERSION 2.0
WRAP.            NO                   :ONE LINE PER DEPTH STEP
#
#--------------------------------------------------------------------
~WELL INFORMATION
#MNEM .UNIT      DATA                 :DESCRIPTION OF MNEMONIC
#----------      ------------         -------------------------------
STRT  .m         0.0                  :START DEPTH
STEP  .m         0.1524               :STEP DEPTH
STOP  .m         4000.0               :STOP DEPTH
NULL  .          -999.25              :NULL VALUE
COMP  .                               :COMPANY
WELL  .          Well4                :WELL
LOC   .                               :LOCATION - AREA
FLD   .                               :FIELD
CTRY  .                               :COUNTRY
DATE  .                               :WELL DATE

XWELL .m          0                    :X POS
YWELL .m          0                    :Y POS
EDF   .          0.0                  :DERRICK FLOOR ELEVATION
#
#----------------------------------------------------------------------------
~CURVE INFORMATION
#MNEM.UNIT                                  : CURVE DESCRIPTION
#----------                                 -------------------------------
DEPT        .m                              : 1      DEPTH
RHOB        .g/cm3                          : 2      Rho
Vs          .m/s                            : 3      Vs
Vp          .m/s                            : 4      Vp
Vclay       .fract                          : 5      Volume
Vcoal       .fract                          : 6      Volume
Vqz         .fract                          : 7      Volume
Vcal        .fract                          : 8      Volume
PHI_isolated.fract                          : 9      Por
PHI_bound   .fract                          : 10     Por
Vsh         .fract                          : 11     Volume
PHIE        .fract                          : 12     Por
PHIT        .fract                          : 13     Por
Sot         .fract                          : 14     Sat
Sgt         .fract                          : 15     Sat
Swt         .fract                          : 16     Sat
#
#----------------------------------------------------------------------------
~A          RHOB        Vs          Vp          Vclay       Vcoal       Vqz         Vcal        PHI_isolatedPHI_bound   Vsh         PHIE        PHIT        Sot         Sgt         Swt         
# ...
1568.196    2.0661      819.1       2251.2      0.4234      0.0         0.0934      0.1383      0.1267      0.2181      0.6416      0.0         0.3449      0.0         0.0         0.9997      
1568.3484   1.9851      790.3       2164.9      0.4725      0.0         0.0794      0.0837      0.1212      0.2434      0.7158      0.0         0.3645      0.0         0.0         0.9997      
1568.5008   1.9449      789.1       2098.2      0.5149      0.0         0.046       0.0533      0.1206      0.2653      0.7802      0.0         0.3859      0.0         0.0         0.9997      
1568.6532   1.9272      787.1       2063.2      0.5524      0.0         0.0054      0.0348      0.1231      0.2846      0.8371      0.0         0.4077      0.0         0.0         0.9998      
1568.8056   1.9329      790.2       2051.5      0.5721      0.0         0.0         0.0073      0.1257      0.2947      0.8668      0.0         0.4204      0.0         0.0         0.9998      
1568.958    1.9362      726.4       2051.3      0.5689      0.0         0.0         0.0         0.1382      0.293       0.8619      0.0         0.4313      0.0         0.0         0.9998      
1569.1104   1.9318      739.3       2056.2      0.5597      0.0         0.0         0.0         0.152       0.2883      0.848       0.0         0.4403      0.0         0.0         0.9998      
1569.2628   1.93        751.2       2066.1      0.5534      0.0         0.0         0.0         0.1615      0.2851      0.8385      0.0         0.4466      0.0         0.0         0.9998      
1569.4152   1.9376      755.1       2082.3      0.5501      0.0         0.0         0.0         0.1666      0.2834      0.8335      0.0         0.45        0.0         0.0         0.9998      
1569.5676   1.9455      754.9       2100.1      0.5512      0.0         0.0         0.0         0.1648      0.284       0.8352      0.0         0.4488      0.0         0.0         0.9998      
1569.72     1.9406      760.1       2123.8      0.5503      0.0         0.0         0.0         0.1662      0.2835      0.8338      0.0         0.4497      0.0         0.0         0.9998      
1569.8724   1.9277      790.6       2151.4      0.5509      0.0         0.0         0.0         0.1654      0.2838      0.8347      0.0         0.4492      0.0         0.0         0.9998      
1570.0248   1.9237      837.5       2189.1      0.5553      0.0         0.0         0.0         0.1586      0.2861      0.8414      0.0         0.4447      0.0         0.0         0.9998      
1570.1772   1.9472      875.9       2235.0      0.5639      0.0         0.0         0.0         0.1454      0.2905      0.8544      0.0         0.4359      0.0         0.0         0.9998      
1570.3296   1.9881      897.3       2288.5      0.5673      0.0         0.0         0.0119      0.1291      0.2922      0.8594      0.0         0.4212      0.0         0.0         0.9998      
1570.482    2.0353      898.1       2346.6      0.5319      0.0         2.0E-4      0.0649      0.1281      0.274       0.8058      0.0         0.4021      0.0         0.0         0.9998      
1570.6344   2.0862      936.5       2401.8      0.4758      0.0         0.0679      0.0767      0.1346      0.2451      0.7209      0.0         0.3797      0.0         0.0         0.9997      
1570.7868   2.1258      979.8       2445.4      0.436       0.0         0.1528      0.0547      0.132       0.2246      0.6606      0.0         0.3566      0.0         0.0         0.9997      
1570.9392   2.1659      1004.3      2489.0      0.4056      0.0         0.2233      0.0404      0.1217      0.209       0.6146      0.0         0.3307      0.0         0.0         0.9997      
1571.0916   2.191       1018.0      2532.3      0.3911      0.0         0.2808      0.0231      0.1036      0.2015      0.5926      0.0         0.3051      0.0         0.0         0.9997      
1571.244    2.2098      1060.6      2575.3      0.3741      0.0         0.3312      0.0131      0.0886      0.1928      0.5669      0.0         0.2814      0.0         0.0         0.9996      
1571.3964   2.2106      1083.1      2611.3      0.3508      0.0         0.3448      0.0243      0.0993      0.1807      0.5315      0.0         0.28        0.0         0.0         0.9996      
1571.5488   2.2075      1114.3      2639.9      0.3388      0.0         0.3831      0.0143      0.0894      0.1745      0.5133      0.0         0.2639      0.0         0.0         0.9996      
1571.7012   2.2078      1152.4      2661.1      0.3428      0.0         0.4028      4.0E-4      0.0773      0.1767      0.5195      0.0         0.2539      0.0         0.0         0.9996      
1571.8536   2.2112      1141.9      2674.1      0.3536      0.0         0.3958      0.0         0.0684      0.1822      0.5358      0.0         0.2506      0.0         0.0         0.9996      
1572.006    2.2184      1117.5      2678.3      0.3699      0.0         0.3766      0.0         0.063       0.1906      0.5605      0.0         0.2536      0.0         0.0         0.9996      
1572.1584   2.2273      1109.0      2674.3      0.3883      0.0         0.3468      0.0         0.0648      0.2001      0.5883      0.0         0.2648      0.0         0.0         0.9996      
1572.3108   2.2266      1133.6      2662.1      0.4123      0.0         0.3059      0.0         0.0691      0.2125      0.6248      0.0         0.2816      0.0         0.0         0.9996      
1572.4632   2.2162      1112.8      2636.7      0.4523      0.0         0.2166      0.0278      0.0703      0.233       0.6853      0.0         0.3033      0.0         0.0         0.9997      
1572.6156   2.1952      1015.2      2520.9      0.5107      0.0         0.125       0.0423      0.0588      0.2631      0.7738      0.0         0.3219      0.0         0.0         0.9997      
1572.768    2.1626      987.3       2390.3      0.5811      0.0         0.048       0.0359      0.0357      0.2993      0.8804      0.0         0.335       0.0         0.0         0.9997      
1572.9204   2.1186      957.1       2326.5      0.6304      0.0         0.0         0.0272      0.0183      0.3248      0.9551      0.0         0.343       0.0         0.0         0.9997      
1573.0728   2.0798      954.9       2346.0      0.6502      0.0         0.0         0.0         0.0149      0.3349      0.9851      0.0         0.3498      0.0         0.0         0.9997      
1573.2252   2.0876      994.4       2369.2      0.6402      0.0         0.0         0.0085      0.0215      0.3298      0.97        0.0         0.3514      0.0         0.0         0.9997      
1573.3776   2.1219      996.0       2364.6      0.6056      0.0         0.0         0.0546      0.0275      0.312       0.9176      0.0         0.3395      0.0         0.0         0.9997      
1573.53     2.1558      958.3       2364.8      0.557       0.0         0.0217      0.0969      0.0372      0.2869      0.8439      0.0         0.3241      0.0         0.0         0.9997      
1573.6824   2.1637      900.2       2371.5      0.5191      0.0         0.0378      0.117       0.0585      0.2674      0.7865      0.0         0.3259      0.0         0.0         0.9997      
1573.8348   2.1342      899.3       2361.4      0.5008      0.0         0.0338      0.1264      0.0811      0.258       0.7588      0.0         0.3391      0.0         0.0         0.9997      
1573.9872   2.0694      897.4       2319.6      0.5164      0.0         0.0201      0.1086      0.0888      0.266       0.7824      0.0         0.3548      0.0         0.0         0.9997      
1574.1396   2.0033      872.5       2262.4      0.5364      0.0         0.0113      0.0858      0.09        0.2763      0.8127      0.0         0.3664      0.0         0.0         0.9997      
1574.292    1.9657      887.0       2222.4      0.5376      0.0         0.0143      0.0789      0.0923      0.2769      0.8145      0.0         0.3692      0.0         0.0         0.9997      
1574.4444   1.9278      890.4       2213.0      0.5286      0.0         0.0297      0.074       0.0954      0.2723      0.8009      0.0         0.3677      0.0         0.0         0.9997      
