#----------------------------------------------------------------------------
~VERSION INFORMATION
VERS.            2.0                  :CWLS LOG ASCII STANDARD -VERSION 2.0
WRAP.            NO                   :ONE LINE PER DEPTH STEP
#
#--------------------------------------------------------------------
~WELL INFORMATION
#MNEM .UNIT      DATA                 :DESCRIPTION OF MNEMONIC
#----------      ------------         -------------------------------
STRT  .m         0.0                  :START DEPTH
STEP  .m         0.1524               :STEP DEPTH
STOP  .m         4000.0               :STOP DEPTH
NULL  .          -999.25              :NULL VALUE
COMP  .                               :COMPANY
WELL  .          Well5                :WELL
LOC   .                               :LOCATION - AREA
FLD   .                               :FIELD
CTRY  .                               :COUNTRY
DATE  .                               :WELL DATE

XWELL .m          0                    :X POS
YWELL .m          0                    :Y POS
EDF   .          0.0                  :DERRICK FLOOR ELEVATION
#
#----------------------------------------------------------------------------
~CURVE INFORMATION
#MNEM.UNIT                                  : CURVE DESCRIPTION
#----------                                 -------------------------------
DEPT        .m                              : 1      DEPTH
GR          .API                            : 2      GR
PR          .unitless                       : 3      Poisson_Ratio
RHOB        .g/cm3                          : 4      Rho
CALI        .m                              : 5      Cal
VELC        .m/s                            : 6      Vp
VELS        .m/s                            : 7      Vs
Vcdry       .fract                          : 8      Volume
Vbw         .fract                          : 9      Volume
Vcal        .fract                          : 10     Volume
Vqz         .fract                          : 11     Volume
Vparphi     .fract                          : 12     Volume
Voil        .fract                          : 13     Volume
Vgas        .fract                          : 14     Volume
Vw          .fract                          : 15     Volume
Vp_elastic  .m/s                            : 16     Vp
Vs_elastic  .m/s                            : 17     Vs
Rho_elastic .g/cm3                          : 18     Rho
#
#----------------------------------------------------------------------------
~A          GR          PR          RHOB        CALI        VELC        VELS        Vcdry       Vbw         Vcal        Vqz         Vparphi     Voil        Vgas        Vw          Vp_elastic  Vs_elastic  Rho_elastic 
# ...
3112.6176   142.3276    -999.25     2.5569      0.3348      -999.25     -999.25     0.7046      0.2105      0.0         0.078       0.0071      0.0         0.0         0.0         3265.3458   1749.1124   2.5415      
3112.77     142.8313    -999.25     2.5516      0.3356      -999.25     -999.25     0.7057      0.2108      0.0         0.0717      0.0117      0.0         0.0         0.0         3265.7389   1749.4484   2.5416      
3112.9224   142.6541    -999.25     2.5533      0.3351      -999.25     -999.25     0.749       0.2237      0.0         0.0         0.0278      0.0         0.0         0.0         3266.132    1749.7844   2.5416      
3113.0748   141.9804    -999.25     2.534       0.3347      -999.25     -999.25     0.7252      0.2167      0.0         0.0         0.0581      0.0         0.0         0.0         3266.5251   1750.1205   2.5417      
3113.2272   141.2993    -999.25     2.5038      0.3346      -999.25     -999.25     0.7097      0.212       0.0         0.0         0.0783      0.0         0.0         0.0         3266.9182   1750.4567   2.5418      
3113.3796   142.7664    -999.25     2.478       0.3344      -999.25     -999.25     0.7109      0.2123      0.0         0.0         0.0768      0.0         0.0         0.0         3267.3112   1750.7929   2.5419      
3113.532    144.9697    -999.25     2.463       0.3347      -999.25     -999.25     0.7132      0.213       0.0         0.0         0.0738      0.0         0.0         0.0         3267.7042   1751.1292   2.5419      
3113.6844   147.1333    -999.25     2.4673      0.3349      -999.25     -999.25     0.7212      0.2154      0.0         0.0         0.0634      0.0         0.0         0.0         3268.0972   1751.4656   2.542       
3113.8368   148.1602    -999.25     2.4828      0.3348      -999.25     -999.25     0.7295      0.2179      0.0         0.0         0.0526      0.0         0.0         0.0         3268.4902   1751.802    2.5421      
3113.9892   149.0429    -999.25     2.4981      0.3345      -999.25     -999.25     0.736       0.2198      0.0         0.0         0.0442      0.0         0.0         0.0         3268.8831   1752.1385   2.5421      
3114.1416   149.6623    -999.25     2.5095      0.3344      -999.25     -999.25     0.7434      0.222       0.0         0.0         0.0346      0.0         0.0         0.0         3269.276    1752.475    2.5422      
3114.294    149.4142    -999.25     2.5223      0.3343      -999.25     -999.25     0.7496      0.2239      0.0         0.0         0.0265      0.0         0.0         0.0         3269.6689   1752.8117   2.5423      
3114.4464   148.6082    -999.25     2.5347      0.3342      -999.25     -999.25     0.7641      0.2283      0.0         0.0         0.0077      0.0         0.0         0.0         3270.0617   1753.1483   2.5424      
3114.5988   148.203     -999.25     2.544       0.3342      -999.25     -999.25     0.77        0.23        0.0         0.0         0.0         0.0         0.0         0.0         3270.4545   1753.4851   2.5424      
3114.7512   148.5725    -999.25     2.5481      0.3343      -999.25     -999.25     0.77        0.23        0.0         0.0         0.0         0.0         0.0         0.0         3270.8473   1753.8218   2.5425      
3114.9036   148.9084    -999.25     2.5478      0.3347      -999.25     -999.25     0.7612      0.2274      0.0         0.0116      0.0         0.0         0.0         0.0         3271.24     1754.1587   2.5426      
3115.056    148.7624    -999.25     2.5464      0.335       -999.25     -999.25     0.7274      0.2173      0.0         0.0553      0.0         0.0         0.0         0.0         3271.6328   1754.4956   2.5426      
3115.2084   146.7524    -999.25     2.5472      0.3346      -999.25     -999.25     0.7048      0.2105      0.0         0.0838      9.0E-4      0.0         0.0         0.0         3272.0255   1754.8326   2.5427      
3115.3608   145.018     -999.25     2.5499      0.3344      -999.25     -999.25     0.7101      0.2121      0.0         0.0701      0.0077      0.0         0.0         0.0         3272.4181   1755.1696   2.5428      
3115.5132   143.967     -999.25     2.5511      0.3345      -999.25     -999.25     0.725       0.2166      0.0         0.046       0.0124      0.0         0.0         0.0         3272.8107   1755.5067   2.5428      
3115.6656   143.6472    -999.25     2.5576      0.3346      -999.25     -999.25     0.7379      0.2204      0.0         0.0294      0.0123      0.0         0.0         0.0         3273.2033   1755.8439   2.5429      
3115.818    143.7917    -999.25     2.5659      0.3345      -999.25     -999.25     0.7611      0.2274      0.0         0.0012      0.0104      0.0         0.0         0.0         3273.5959   1756.1811   2.543       
3115.9704   144.4778    -999.25     2.5714      0.3345      -999.25     -999.25     0.7655      0.2287      0.0         0.0         0.0058      0.0         0.0         0.0         3273.9885   1756.5184   2.5431      
3116.1228   145.5245    -999.25     2.5825      0.3348      -999.25     -999.25     0.7612      0.2273      0.0         0.0116      0.0         0.0         0.0         0.0         3274.381    1756.8558   2.5431      
3116.2752   146.2054    -999.25     2.5935      0.3347      -999.25     -999.25     0.718       0.2145      0.0         0.0675      0.0         0.0         0.0         0.0         3274.7735   1757.1932   2.5432      
3116.4276   146.1155    -999.25     2.5898      0.3348      -999.25     -999.25     0.7146      0.2134      0.0         0.0719      0.0         0.0         0.0         0.0         3275.1659   1757.5307   2.5433      
3116.58     145.0187    -999.25     2.581       0.3348      -999.25     -999.25     0.7387      0.2207      0.0         0.0406      0.0         0.0         0.0         0.0         3275.5583   1757.8682   2.5433      
3116.7324   142.5205    -999.25     2.5715      0.3343      -999.25     -999.25     0.7324      0.2187      0.0         0.043       0.0058      0.0         0.0         0.0         3275.9507   1758.2058   2.5434      
3116.8848   140.4363    -999.25     2.5556      0.3342      -999.25     -999.25     0.7244      0.2163      0.0         0.0428      0.0164      0.0         0.0         0.0         3276.3431   1758.5434   2.5435      
3117.0372   139.3875    -999.25     2.5381      0.3344      -999.25     -999.25     0.7149      0.2135      0.0         0.0478      0.0236      0.0         0.0         0.0         3276.7354   1758.8812   2.5435      
3117.1896   136.8041    -999.25     2.5236      0.3345      -999.25     -999.25     0.7024      0.2098      0.0         0.0541      0.0336      0.0         0.0         0.0         3277.1277   1759.2189   2.5436      
3117.342    134.1771    -999.25     2.5169      0.3345      -999.25     -999.25     0.6972      0.2083      0.0         0.0526      0.0418      0.0         0.0         0.0         3277.52     1759.5568   2.5437      
3117.4944   135.2126    -999.25     2.5106      0.3344      -999.25     -999.25     0.7171      0.2141      0.0         0.0269      0.0419      0.0         0.0         0.0         3277.9122   1759.8947   2.5437      
3117.6468   137.3874    -999.25     2.504       0.3345      -999.25     -999.25     0.7372      0.2202      0.0         0.0         0.0426      0.0         0.0         0.0         3278.3044   1760.2327   2.5438      
3117.7992   138.7844    -999.25     2.5003      0.3346      -999.25     -999.25     0.729       0.2178      0.0         0.0         0.0532      0.0         0.0         0.0         3278.6966   1760.5707   2.5439      
3117.9516   138.9531    -999.25     2.5056      0.3345      -999.25     -999.25     0.7278      0.2174      0.0         0.0         0.0548      0.0         0.0         0.0         3279.0887   1760.9088   2.5439      
3118.104    141.7023    -999.25     2.5124      0.3346      -999.25     -999.25     0.7323      0.2187      0.0         0.0         0.0489      0.0         0.0         0.0         3279.4808   1761.2469   2.544       
