#----------------------------------------------------------------------------
~VERSION INFORMATION
VERS.            2.0                  :CWLS LOG ASCII STANDARD -VERSION 2.0
WRAP.            NO                   :ONE LINE PER DEPTH STEP
#
#--------------------------------------------------------------------
~WELL INFORMATION
#MNEM .UNIT      DATA                 :DESCRIPTION OF MNEMONIC
#----------      ------------         -------------------------------
STRT  .m         1900.0               :START DEPTH
STEP  .m         0.1524               :STEP DEPTH
STOP  .m         2100.0               :STOP DEPTH
NULL  .          -999.25              :NULL VALUE
COMP  .                               :COMPANY
WELL  .          Grana2018            :WELL
LOC   .                               :LOCATION - AREA
FLD   .                               :FIELD
CTRY  .                               :COUNTRY
DATE  .                               :WELL DATE

XWELL .m          0                    :X POS
YWELL .m          0                    :Y POS
EDF   .          0.0                  :DERRICK FLOOR ELEVATION
#
#----------------------------------------------------------------------------
~CURVE INFORMATION
#MNEM.UNIT                                  : CURVE DESCRIPTION
#----------                                 -------------------------------
DEPT        .m                              : 1      DEPTH
VCL         .fract                          : 2      Volume
PHIT        .fract                          : 3      Por
SW          .fract                          : 4      Sat
VP          .m/s                            : 5      Vp
VS          .m/s                            : 6      Vs
RHOB        .g/cm3                          : 7      Rho
#
#----------------------------------------------------------------------------
~A          VOL_CLAY    PHI         SW          VP          VS          RHOB        
# ...
2008.0516   0.0456      0.2613      0.6301      3530.5311   2072.5483   2.2111      
2008.204    0.0473      0.269       0.617       3519.9024   2074.315    2.1838      
2008.3564   0.044       0.2759      0.6102      3509.3539   2069.8497   2.1611      
2008.5088   0.0425      0.2816      0.6032      3507.992    2047.5339   2.1162      
2008.6612   0.055       0.2771      0.6083      3531.0534   2025.8393   2.1028      
2008.8136   0.1232      0.2387      0.6871      3578.6767   1995.483    2.1193      
2008.966    0.1902      0.2005      0.781       3629.6023   1994.034    2.1817      
2009.1184   0.3076      0.1428      0.9171      3837.7886   2024.7241   2.3399      
2009.2708   0.3592      0.1204      0.9734      4003.0021   2047.499    2.4219      
2009.4232   0.4072      0.1195      0.995       4225.4409   2078.3538   2.5202      
2009.5756   0.4188      0.1224      0.9949      4350.1691   2096.9186   2.552       
2009.728    0.4076      0.1287      0.9949      4349.3014   2125.8312   2.5744      
2009.8804   0.3919      0.1327      0.9949      4311.1411   2137.342    2.5817      
2010.0328   0.3723      0.1534      0.9949      4172.8204   2117.8257   2.5741      
2010.1852   0.3727      0.1646      0.9949      4095.0464   2081.8134   2.5586      
2010.3376   0.3907      0.1687      0.9949      4025.33     2040.9557   2.5353      
2010.49     0.4418      0.157       0.9949      3919.0957   1965.9453   2.5207      
2010.6424   0.4754      0.142       0.9949      3757.276    1915.475    2.538       
2010.7948   0.5185      0.1147      0.9949      3681.7618   1883.2947   2.5879      
2010.9472   0.5386      0.0983      0.9949      3518.595    1860.6146   2.624       
2011.0996   0.5581      0.0862      0.9949      3460.3541   1880.1499   2.6461      
2011.252    0.5623      0.0857      0.9949      3487.8262   1909.1592   2.6407      
2011.4044   0.54        0.0896      0.9949      3643.1269   2033.6802   2.6261      
2011.5568   0.512       0.0951      0.9949      3826.0619   2114.9596   2.6165      
2011.7092   0.4328      0.1075      0.9949      4150.4759   2246.9275   2.6008      
2011.8616   0.3863      0.1151      0.9949      4349.6201   2313.5466   2.5891      
2012.014    0.3224      0.1157      0.9949      4378.1343   2372.62     2.57        
2012.1664   0.3075      0.1157      0.9949      4313.503    2379.2394   2.5593      
2012.3188   0.2883      0.1161      0.9831      4167.3176   2359.7054   2.5536      
2012.4712   0.2741      0.1233      0.9444      4116.9717   2348.3179   2.5487      
2012.6236   0.2396      0.1559      0.8413      3965.2991   2303.6553   2.512       
2012.776    0.211       0.1811      0.78        3815.479    2238.1288   2.4578      
2012.9284   0.1757      0.2171      0.7262      3590.5793   2129.402    2.3629      
2013.0808   0.1523      0.2324      0.7188      3489.3918   2070.2155   2.3059      
2013.2332   0.1382      0.2435      0.7169      3446.7675   2033.0388   2.2597      
2013.3856   0.1353      0.2458      0.7169      3425.5177   2025.5871   2.2497      
2013.538    0.1356      0.2447      0.7188      3427.1101   2012.0107   2.2477      
2013.6904   0.1422      0.2315      0.7223      3427.7877   2003.105    2.2604      
2013.8428   0.1531      0.2173      0.7322      3427.5371   2003.3979   2.291       
2013.9952   0.1702      0.1916      0.7591      3411.4314   2008.7981   2.3549      
2014.1476   0.1802      0.177       0.7734      3447.8238   2015.1447   2.4003      
2014.3      0.1791      0.1675      0.7734      3576.569    2056.5629   2.4626      
2014.4524   0.1681      0.1706      0.751       3668.734    2085.7108   2.4625      
2014.6048   0.1401      0.1871      0.6971      3800.9991   2121.8688   2.424       
2014.7572   0.1197      0.2021      0.6713      3824.6733   2140.1414   2.3719      
2014.9096   0.0936      0.2175      0.6412      3808.9079   2165.131    2.3047      
2015.062    0.0777      0.2209      0.6349      3790.2991   2179.3859   2.2652      
2015.2144   0.0611      0.225       0.6227      3773.2946   2202.8087   2.2473      
2015.3668   0.0536      0.2269      0.6198      3800.2431   2210.9962   2.2475      
2015.5192   0.0566      0.2189      0.6483      3921.8474   2219.9961   2.2469      
2015.6716   0.068       0.2031      0.6939      4004.4627   2237.7377   2.2592      
2015.824    0.1118      0.1609      0.8115      4144.9789   2266.0948   2.3403      
2015.9764   0.1622      0.1278      0.9001      4215.0181   2274.117    2.4239      
2016.1288   0.2743      0.1007      0.9803      4277.2198   2275.1637   2.5385      
2016.2812   0.3561      0.0957      0.9919      4288.2558   2276.6917   2.6058      
2016.4336   0.4262      0.1015      0.9924      4260.3733   2294.1326   2.6119      
2016.586    0.4286      0.1072      0.993       4224.562    2306.4281   2.6036      
2016.7384   0.4009      0.1136      0.9914      4192.1943   2309.9934   2.5867      
2016.8908   0.3331      0.1306      0.9709      4164.1399   2298.591    2.5521      
2017.0432   0.2939      0.1453      0.9329      4115.1334   2288.9437   2.5194      
2017.1956   0.2443      0.1683      0.8657      4006.8948   2255.7356   2.4654      
2017.348    0.2333      0.1775      0.8374      3926.5821   2227.4192   2.4439      
2017.5004   0.2331      0.1891      0.8146      3798.9313   2181.6966   2.4137      
2017.6528   0.2328      0.1969      0.7957      3734.7052   2159.5934   2.3912      
2017.8052   0.22        0.2099      0.7611      3668.7166   2145.2811   2.3452      
2017.9576   0.2007      0.2228      0.7322      3648.1423   2138.0107   2.2997      
2018.11     0.1721      0.2428      0.6852      3645.9032   2120.942    2.2336      
2018.2624   0.1555      0.2526      0.6606      3645.5182   2109.5598   2.201       
2018.4148   0.1237      0.2662      0.6133      3627.5773   2108.2364   2.1602      
2018.5672   0.1051      0.2695      0.5955      3621.8021   2108.3557   2.1457      
2018.7196   0.0747      0.2722      0.5797      3597.942    2123.8193   2.1337      
2018.872    0.0523      0.273       0.5814      3615.1112   2134.892    2.1336      
2019.0244   0.0367      0.277       0.5795      3657.2341   2145.2795   2.1306      
2019.1768   0.037       0.282       0.5698      3678.8752   2141.8227   2.1164      
2019.3292   0.0838      0.2743      0.5805      3682.1117   2156.2693   2.1173      
2019.4816   0.1181      0.2528      0.621       3688.4833   2194.2335   2.1451      
2019.634    0.1665      0.212       0.6975      3727.8184   2274.1628   2.2223      
2019.7864   0.1893      0.1776      0.7657      3762.3759   2350.9616   2.2951      
2019.9388   0.1995      0.1571      0.8042      3785.1333   2394.0646   2.3358      
2020.0912   0.2176      0.1091      0.8905      3834.2185   2501.9185   2.4457      
2020.2436   0.2305      0.0833      0.9291      3877.9046   2575.0281   2.5073      
2020.396    0.2534      0.0545      0.9784      3972.0858   2683.6837   2.5908      
2020.5484   0.2733      0.0478      0.9915      4067.2679   2725.3893   2.6187      
2020.7008   0.3174      0.0558      0.9976      4254.4577   2687.6466   2.6086      
2020.8532   0.3631      0.0711      0.9975      4409.3986   2609.765    2.5836      
2021.0056   0.4343      0.093       0.9975      4479.9054   2474.4891   2.5538      
2021.158    0.4727      0.1025      0.9975      4369.9211   2368.3016   2.5513      
2021.3104   0.514       0.1153      0.9975      4114.3288   2246.787    2.5559      
2021.4628   0.5336      0.1198      0.9975      3870.6955   2138.4595   2.5598      
2021.6152   0.5598      0.1236      0.9975      3729.2432   2028.0093   2.5598      
2021.7676   0.5683      0.123       0.9975      3651.071    1958.7469   2.5575      
2021.92     0.5624      0.1223      0.9975      3586.4999   1900.0333   2.5614      
2022.0724   0.5478      0.1201      0.9975      3592.9424   1903.013    2.5681      
2022.2248   0.5161      0.1156      0.9975      3805.5206   1973.5339   2.5795      
2022.3772   0.4978      0.1146      0.9975      3863.4199   2006.6714   2.5873      
