#----------------------------------------------------------------------------
~VERSION INFORMATION
VERS.            2.0                  :CWLS LOG ASCII STANDARD -VERSION 2.0
WRAP.            NO                   :ONE LINE PER DEPTH STEP
#
#--------------------------------------------------------------------
~WELL INFORMATION
#MNEM .UNIT      DATA                 :DESCRIPTION OF MNEMONIC
#----------      ------------         -------------------------------
STRT  .m         1900.0               :START DEPTH
STEP  .m         0.1524               :STEP DEPTH
STOP  .m         2100.0               :STOP DEPTH
NULL  .          -999.25              :NULL VALUE
COMP  .                               :COMPANY
WELL  .          Grana2018            :WELL
LOC   .                               :LOCATION - AREA
FLD   .                               :FIELD
CTRY  .                               :COUNTRY
DATE  .                               :WELL DATE

XWELL .m          0                    :X POS
YWELL .m          0                    :Y POS
EDF   .          0.0                  :DERRICK FLOOR ELEVATION
#
#----------------------------------------------------------------------------
~CURVE INFORMATION
#MNEM.UNIT                                  : CURVE DESCRIPTION
#----------                                 -------------------------------
DEPT        .m                              : 1      DEPTH
VCL         .fract                          : 2      Volume
PHIT        .fract                          : 3      Por
SW          .fract                          : 4      Sat
VP          .m/s                            : 5      Vp
VS          .m/s                            : 6      Vs
RHOB        .g/cm3                          : 7      Rho
#
#----------------------------------------------------------------------------
~A          VOL_CLAY    PHI         SW          VP          VS          RHOB        
1950.1396   0.5861      0.1294      0.9949      3220.9334   1606.1022   2.5489      
1950.292    0.5673      0.1299      0.9949      3209.8962   1608.443    2.5597      
1950.4444   0.567       0.1299      0.9949      3209.8      1611.9735   2.5649      
1950.5968   0.5811      0.1268      0.9949      3209.8      1613.1893   2.5599      
1950.7492   0.5905      0.1244      0.9949      3209.8      1613.2      2.5525      
1950.9016   0.6012      0.1216      0.9949      3209.8061   1613.2      2.5513      
1951.054    0.6065      0.1217      0.9949      3209.8713   1613.2      2.5533      
1951.2064   0.6076      0.1206      0.9949      3218.9466   1613.2      2.567       
1951.3588   0.6074      0.1182      0.9949      3211.7779   1613.2      2.5778      
1951.5112   0.6095      0.1166      0.9949      3209.8152   1613.7983   2.5757      
1951.6636   0.6134      0.1173      0.9949      3209.8      1616.6237   2.5711      
1951.816    0.6097      0.1187      0.9949      3209.8      1627.0832   2.5664      
1951.9684   0.6103      0.1192      0.9949      3209.8      1627.0328   2.5582      
1952.1208   0.6228      0.1126      0.9949      3209.8      1631.5369   2.561       
1952.2732   0.6323      0.1064      0.9949      3209.8      1629.2547   2.5705      
1952.4256   0.634       0.1058      0.9949      3209.8      1627.0903   2.5902      
1952.578    0.631       0.1081      0.9949      3209.8      1624.8566   2.5995      
1952.7304   0.6323      0.1197      0.9949      3209.4872   1612.566    2.5924      
1952.8828   0.6447      0.126       0.9949      3210.4516   1605.1326   2.579       
1953.0352   0.6447      0.1295      0.9949      3204.4826   1598.9731   2.5556      
1953.1876   0.6407      0.1328      0.9949      3184.4764   1598.9      2.5429      
1953.34     0.6299      0.1345      0.9949      3183.7726   1598.9      2.5351      
1953.4924   0.6218      0.1318      0.9949      3174.216    1603.6174   2.5331      
1953.6448   0.6218      0.1264      0.9949      3155.3456   1607.9473   2.5395      
1953.7972   0.6238      0.1196      0.9949      3130.5319   1602.7883   2.5485      
1953.9496   0.622       0.1197      0.9949      3123.896    1591.3137   2.5532      
1954.102    0.6132      0.1253      0.9949      3103.8925   1574.4041   2.5508      
1954.2544   0.6099      0.1292      0.9949      3104.9825   1570.6433   2.5511      
1954.4068   0.6171      0.1354      0.9949      3133.2654   1570.4015   2.5444      
1954.5592   0.6268      0.1378      0.9949      3131.692    1570.4      2.5391      
1954.7116   0.6345      0.1345      0.9949      3131.2857   1570.4      2.5392      
1954.864    0.636       0.1321      0.9949      3131.0692   1570.4      2.5412      
1955.0164   0.629       0.1309      0.9949      3120.8888   1569.4302   2.5481      
1955.1688   0.6224      0.131       0.9949      3106.4292   1562.5999   2.5485      
1955.3212   0.6186      0.1321      0.9949      3107.3053   1550.0006   2.5388      
1955.4736   0.6119      0.1336      0.9949      3119.8345   1541.847    2.5381      
1955.626    0.5875      0.135       0.9949      3130.9521   1541.7992   2.5451      
1955.7784   0.5663      0.1352      0.9949      3131.0166   1541.8      2.549       
1955.9308   0.5536      0.1308      0.9949      3120.9061   1541.8      2.5713      
1956.0832   0.5549      0.1283      0.9949      3107.3253   1541.8      2.5871      
1956.2356   0.5851      0.1259      0.9949      3095.4972   1541.8      2.5884      
1956.388    0.6026      0.1293      0.9949      3088.525    1541.8      2.5801      
1956.5404   0.6079      0.1348      0.9949      3081.4998   1541.8      2.564       
1956.6928   0.6098      0.1431      0.9949      3078.3963   1541.5966   2.5393      
1956.8452   0.6143      0.1423      0.9949      3065.7173   1538.1304   2.529       
1956.9976   0.6155      0.1391      0.9949      3052.9227   1532.8087   2.5299      
1957.15     0.6157      0.1401      0.9949      3053.7384   1532.0539   2.5324      
1957.3024   0.6165      0.1418      0.9949      3052.1778   1533.3955   2.5346      
1957.4548   0.616       0.1442      0.9949      3052.5297   1536.8374   2.5306      
1957.6072   0.5822      0.1517      0.9949      3112.8843   1573.1456   2.525       
1957.7596   0.5463      0.1568      0.9949      3267.5705   1649.6737   2.5202      
1957.912    0.4985      0.1603      0.9949      3441.4901   1763.9344   2.5126      
1958.0644   0.4833      0.1583      0.9949      3563.9308   1830.2985   2.5103      
1958.2168   0.4747      0.1454      0.9949      3589.8883   1881.4593   2.5024      
1958.3692   0.4572      0.1367      0.9949      3593.0099   1913.004    2.4962      
1958.5216   0.424       0.1234      0.9949      3596.7676   1971.2332   2.4853      
1958.674    0.4061      0.1188      0.9949      3609.6965   2015.0301   2.4806      
1958.8264   0.3964      0.1157      0.9949      3710.3233   2072.4147   2.4928      
1958.9788   0.393       0.1118      0.9949      3830.6909   2105.0685   2.5069      
1959.1312   0.3927      0.1         0.9949      4010.6837   2134.8837   2.5211      
1959.2836   0.3985      0.091       0.9949      4127.9786   2150.3743   2.5256      
1959.436    0.4116      0.0764      0.9949      4282.6928   2160.6856   2.5422      
1959.5884   0.4223      0.0676      0.9949      4291.4894   2160.7743   2.5586      
1959.7408   0.4383      0.0675      0.9949      4262.6452   2157.4749   2.5794      
1959.8932   0.4782      0.0724      0.9949      4022.6035   2101.3781   2.6058      
1960.0456   0.51        0.0801      0.9949      3908.148    2059.894    2.6085      
1960.198    0.5497      0.0967      0.9949      3648.212    1977.0651   2.5891      
1960.3504   0.567       0.1097      0.9949      3486.3891   1917.7024   2.5582      
1960.5028   0.5754      0.1251      0.9949      3366.6716   1849.4791   2.5131      
1960.6552   0.5811      0.1273      0.9949      3322.1471   1810.5546   2.4933      
1960.8076   0.5909      0.1274      0.9949      3289.5339   1760.4166   2.496       
1960.96     0.5932      0.1292      0.9949      3270.5496   1741.3023   2.5108      
1961.1124   0.587       0.1366      0.9949      3229.6667   1687.01     2.5289      
1961.2648   0.5837      0.1421      0.9949      3204.1188   1654.9591   2.5258      
1961.4172   0.5922      0.1442      0.9949      3179.3607   1614.4804   2.5197      
1961.5696   0.6058      0.1418      0.9949      3175.2663   1611.2713   2.5132      
1961.722    0.6272      0.1413      0.9949      3174.8938   1605.5135   2.5111      
1961.8744   0.6369      0.1418      0.9949      3174.8071   1603.7429   2.5111      
1962.0268   0.6395      0.1414      0.9949      3191.642    1613.4577   2.5143      
1962.1792   0.6329      0.1385      0.9952      3214.4933   1628.5121   2.5191      
1962.3316   0.5973      0.1339      0.9877      3252.2253   1663.6694   2.5363      
1962.484    0.5677      0.136       0.971       3279.7028   1678.5879   2.545       
1962.6364   0.5004      0.1563      0.8696      3488.4581   1751.4773   2.5331      
1962.7888   0.4517      0.1732      0.7899      3516.3752   1779.8958   2.5041      
1962.9412   0.4032      0.1879      0.7038      3640.4589   1869.0731   2.467       
1963.0936   0.3389      0.2043      0.5889      3661.9473   1957.366    2.4121      
1963.246    0.2955      0.206       0.5169      3638.1736   2005.6974   2.3809      
1963.3984   0.237       0.2155      0.4044      3611.4145   2050.0635   2.3494      
1963.5508   0.2061      0.2243      0.3371      3596.9468   2069.2566   2.319       
1963.7032   0.1621      0.2371      0.2321      3596.2397   2079.301    2.2485      
1963.8556   0.1518      0.2373      0.2273      3613.9224   2083.008    2.2062      
1964.008    0.154       0.2258      0.2585      3684.5531   2088.9269   2.1843      
1964.1604   0.1767      0.2094      0.3232      3758.0441   2089.9118   2.202       
1964.3128   0.2431      0.1814      0.4717      3888.4316   2100.4627   2.2797      
1964.4652   0.3044      0.1615      0.5984      3968.0429   2109.8056   2.3481      
