#----------------------------------------------------------------------------
~VERSION INFORMATION
VERS.            2.0                  :CWLS LOG ASCII STANDARD -VERSION 2.0
WRAP.            NO                   :ONE LINE PER DEPTH STEP
#
#--------------------------------------------------------------------
~WELL INFORMATION
#MNEM .UNIT      DATA                 :DESCRIPTION OF MNEMONIC
#----------      ------------         -------------------------------
STRT  .m         0.0                  :START DEPTH
STEP  .m         0.1524               :STEP DEPTH
STOP  .m         2279.904             :STOP DEPTH
NULL  .          -999.25              :NULL VALUE
COMP  .                               :COMPANY
WELL  .                               :WELL
LOC   .          311975.906,      3195343.67  :LOCATION - AREA
FLD   .                               :FIELD
CTRY  .                               :COUNTRY
DATE  .                               :WELL DATE

XWELL .m          311975               :X POS
YWELL .m          3195343              :Y POS
EDF   .          25.9                 :DERRICK FLOOR ELEVATION
#
#----------------------------------------------------------------------------
~CURVE INFORMATION
#MNEM.UNIT                                  : CURVE DESCRIPTION
#----------                                 -------------------------------
DEPT        .m                              : 1      DEPTH
VSH         .fract                          : 2      Volume
VCL         .fract                          : 3      Volume
SW          .fract                          : 4      Sat
PHIT        .fract                          : 5      Por
PHIE        .fract                          : 6      Por
RHOB        .g/cm3                          : 7      Rho
VP          .m/s                            : 8      Vp
VS          .m/s                            : 9      Vs
Vp_xw       .m/s                            : 10     Vp
Vs_xw       .m/s                            : 11     Vs
Rho_xw      .g/cm3                          : 12     Rho
#
#----------------------------------------------------------------------------
~A          VSH         VCL         SW          PHIT        PHIE        RHOB_raw    VP          VS          Vp_xw       Vs_xw       Rho_xw      
# ...
1683.1056   0.9686      0.6018      1.0         0.2487      0.0793      2.212       2263.6672   822.0323    2349.8578   921.5578    2.2283      
1683.258    0.9914      0.6159      1.0         0.2524      0.079       2.203       2233.5239   798.6275    2326.374    901.124     2.2219      
1683.4104   0.997       0.6239      1.0         0.2596      0.0839      2.202       2230.4668   795.1462    2294.8381   878.0542    2.2107      
1683.5628   0.997       0.6196      1.0         0.2663      0.0919      2.207       2249.4955   806.8432    2273.5292   865.9849    2.2009      
1683.7152   0.9697      0.6024      1.0         0.2684      0.0988      2.212       2274.4028   827.6593    2276.7859   874.575     2.1987      
1683.8676   0.9483      0.5892      1.0         0.2654      0.0996      2.211       2291.1244   842.5819    2296.1855   892.3304    2.204       
1684.02     0.9362      0.5816      1.0         0.262       0.0983      2.207       2293.3501   846.0074    2313.8322   906.8174    2.2096      
1684.1724   0.9254      0.5749      1.0         0.2633      0.1015      2.204       2283.5719   840.812     2313.6322   909.3606    2.208       
1684.3248   0.9605      0.5967      1.0         0.2634      0.0955      2.202       2270.2537   827.1766    2298.5179   890.9271    2.2066      
1684.4772   0.997       0.6332      1.0         0.2613      0.0831      2.199       2257.6936   812.943     2282.9875   866.9667    2.2076      
1684.6296   0.997       0.6309      1.0         0.263       0.0855      2.193       2245.2034   803.6816    2278.3364   864.8559    2.2052      
1684.782    0.9817      0.6099      1.0         0.2674      0.0958      2.187       2238.1649   801.3712    2275.6318   870.9919    2.1998      
1684.9344   0.9753      0.6059      1.0         0.2725      0.102       2.183       2242.9749   805.5848    2260.0666   862.2639    2.1924      
1685.0868   0.9817      0.6099      0.9782      0.2771      0.1056      2.183       2256.0215   818.0418    2229.21     848.8058    2.1839      
1685.2392   0.9702      0.6027      0.9578      0.2811      0.1116      2.185       2268.9885   833.5306    2208.4468   845.2815    2.177       
1685.3916   0.9404      0.5842      0.9469      0.2829      0.1186      2.186       2276.3425   842.4505    2207.7363   855.4902    2.1747      
1685.544    0.9328      0.5795      0.9546      0.282       0.119       2.184       2271.474    838.1917    2217.9922   861.2358    2.1768      
1685.6964   0.9638      0.5988      0.9766      0.2798      0.1114      2.175       2248.6548   814.7543    2225.6763   851.0579    2.1804      
1685.8488   0.9926      0.6167      0.9871      0.2799      0.1064      2.163       2211.675    783.9407    2220.5777   837.1737    2.1798      
1686.0012   0.9961      0.6188      0.9553      0.2859      0.1119      2.153       2174.7143   764.05      2181.2809   822.3729    2.1687      
1686.1536   0.997       0.623       0.915       0.2939      0.1187      2.151       2153.7442   759.5447    2130.8356   801.8669    2.1538      
1686.306    0.9944      0.6178      0.8787      0.3012      0.1274      2.153       2155.9535   765.6355    2091.3781   789.5996    2.1406      
1686.4584   0.9955      0.6184      0.8743      0.3023      0.1284      2.156       2175.341    777.6959    2085.3181   786.7857    2.1386      
1686.6108   0.997       0.6638      0.909       0.297       0.1103      2.156       2197.4716   783.4262    2096.5966   767.8834    2.1464      
1686.7632   0.997       0.7206      0.9647      0.2901      0.0875      2.155       2209.7043   783.9291    2122.2501   746.7317    2.1572      
1686.9156   0.997       0.7142      0.9523      0.2911      0.0903      2.155       2209.3039   785.3528    2114.958    748.6267    2.1552      
1687.068    0.997       0.6666      0.9032      0.2966      0.1092      2.157       2203.6821   790.3915    2093.4487   767.0173    2.1464      
1687.2204   0.997       0.6261      0.8712      0.3007      0.1247      2.159       2200.2929   794.1071    2084.8239   785.1285    2.1404      
1687.3728   0.9947      0.6179      0.8708      0.2999      0.1262      2.16        2197.7869   794.6563    2091.6349   792.5318    2.142       
1687.5252   0.9791      0.6082      0.8694      0.2993      0.1283      2.158       2192.68     795.2932    2098.2755   800.6809    2.1434      
1687.6776   0.9429      0.5858      0.8586      0.3003      0.1356      2.154       2186.8907   799.5805    2102.638    814.6866    2.1424      
1687.83     0.9145      0.5681      0.8427      0.3029      0.1432      2.15        2184.587    803.6862    2097.0548   822.0282    2.1383      
1687.9824   0.9392      0.5835      0.8384      0.3043      0.1403      2.148       2186.7337   801.6947    2081.1186   807.3693    2.135       
1688.1348   0.9944      0.6177      0.8433      0.3043      0.1307      2.149       2190.2373   795.1403    2064.2076   783.1879    2.1335      
1688.2872   0.997       0.639       0.8483      0.3039      0.1244      2.152       2189.8754   790.5411    2056.7051   769.7795    2.1332      
1688.4396   0.997       0.6339      0.8514      0.3037      0.1256      2.155       2184.1791   787.2641    2061.4584   773.5363    2.134       
1688.592    0.9893      0.6146      0.8532      0.3032      0.1305      2.157       2177.6871   786.1343    2074.169    787.6475    2.136       
1688.7444   0.9666      0.6004      0.8582      0.3022      0.1335      2.16        2177.1273   788.1788    2087.7023   799.7698    2.1386      
1688.8968   0.9597      0.5962      0.8659      0.3012      0.1337      2.164       2183.6945   792.0801    2097.1077   804.9575    2.1409      
1689.0492   0.9612      0.5971      0.8783      0.2991      0.1314      2.167       2190.2058   792.8317    2109.6058   808.9596    2.1449      
1689.2016   0.9705      0.6029      0.8962      0.296       0.1267      2.167       2188.6488   787.2451    2125.5092   811.6345    2.1505      
1689.354    0.9923      0.6164      0.9188      0.293       0.1198      2.161       2179.2924   774.4572    2139.4392   808.4956    2.1558      
1689.5064   0.997       0.6301      0.9317      0.292       0.115       2.143       2169.7512   765.8112    2142.0231   800.9613    2.1573      
1689.6588   0.997       0.6305      0.9144      0.2961      0.119       2.115       2167.0505   767.0048    2119.312    791.7977    2.15        
1689.8112   0.997       0.6246      0.8553      0.3088      0.1333      2.092       2171.4041   776.6689    2052.0081   768.4419    2.127       
1689.9636   0.997       0.6447      0.7864      0.3261      0.145       2.086       2176.0237   782.9547    1957.2135   719.3073    2.0945      
1690.116    0.997       0.6906      0.742       0.3379      0.1439      2.098       2174.2999   781.2737    1884.6167   669.896     2.0705      
1690.2684   0.997       0.7079      0.7328      0.3406      0.1418      2.116       2166.3869   775.8561    1866.7533   655.785     2.0647      
1690.4208   0.997       0.6714      0.7581      0.3354      0.1469      2.133       2157.3721   772.4089    1906.2843   685.0508    2.0766      
1690.5732   0.997       0.628       0.7944      0.3267      0.1504      2.146       2151.0533   769.279     1966.8488   728.0751    2.095       
1690.7256   0.997       0.6294      0.8413      0.3152      0.1385      2.154       2148.9153   763.2854    2022.9054   751.4907    2.116       
1690.878    0.997       0.6703      0.9022      0.3032      0.115       2.158       2152.1933   755.0546    2070.6532   750.7272    2.1362      
1691.0304   0.997       0.7029      0.9544      0.2951      0.0978      2.16        2159.3734   750.9128    2108.9481   747.1589    2.15        
1691.1828   0.997       0.6985      0.9644      0.2928      0.0968      2.162       2165.9879   752.2918    2123.6678   754.4395    2.1543      
1691.3352   0.997       0.6769      0.9536      0.2932      0.1032      2.163       2169.41     756.7512    2126.3759   767.1116    2.1543      
1691.4876   0.997       0.6625      0.9493      0.2931      0.1071      2.162       2171.6978   759.9461    2131.2992   776.5992    2.155       
