#----------------------------------------------------------------------------
~VERSION INFORMATION
VERS.            2.0                  :CWLS LOG ASCII STANDARD -VERSION 2.0
WRAP.            NO                   :ONE LINE PER DEPTH STEP
#
#--------------------------------------------------------------------
~WELL INFORMATION
#MNEM .UNIT      DATA                 :DESCRIPTION OF MNEMONIC
#----------      ------------         -------------------------------
STRT  .m         0.0                  :START DEPTH
STEP  .m         0.1524               :STEP DEPTH
STOP  .m         2279.904             :STOP DEPTH
NULL  .          -999.25              :NULL VALUE
COMP  .                               :COMPANY
WELL  .                               :WELL
LOC   .          311975.906,      3195343.67  :LOCATION - AREA
FLD   .                               :FIELD
CTRY  .                               :COUNTRY
DATE  .                               :WELL DATE

XWELL .m          311975               :X POS
YWELL .m          3195343              :Y POS
EDF   .          25.9                 :DERRICK FLOOR ELEVATION
#
#----------------------------------------------------------------------------
~CURVE INFORMATION
#MNEM.UNIT                                  : CURVE DESCRIPTION
#----------                                 -------------------------------
DEPT        .m                              : 1      DEPTH
VSH         .fract                          : 2      Volume
VCL         .fract                          : 3      Volume
SW          .fract                          : 4      Sat
PHIT        .fract                          : 5      Por
PHIE        .fract                          : 6      Por
RHOB        .g/cm3                          : 7      Rho
VP          .m/s                            : 8      Vp
VS          .m/s                            : 9      Vs
Vp_xw       .m/s                            : 10     Vp
Vs_xw       .m/s                            : 11     Vs
Rho_xw      .g/cm3                          : 12     Rho
#
#----------------------------------------------------------------------------
~A          VSH         VCL         SW          PHIT        PHIE        RHOB_raw    VP          VS          Vp_xw       Vs_xw       Rho_xw      
# ...
1435.608    0.837       0.5271      1.0         0.2717      0.1093      2.184       2221.3726   806.5173    2316.7984   930.7645    2.1982      
1435.7604   0.6283      0.3956      1.0         0.3023      0.1804      2.164       2273.5407   879.1455    2309.835    979.9649    2.1594      
1435.9128   0.4479      0.2821      0.89        0.3374      0.2505      2.131       2295.2498   938.1161    2232.7964   1010.0278   2.1039      
1436.0652   0.3434      0.2163      0.8379      0.3574      0.2907      2.112       2282.1902   954.1196    2207.6402   1033.8079   2.0722      
1436.2176   0.3339      0.2103      0.8685      0.351       0.2862      2.123       2251.8542   932.7376    2256.7355   1065.1411   2.0849      
1436.37     0.4014      0.2527      0.9741      0.3242      0.2463      2.157       2234.9646   893.1782    2366.0409   1094.7473   2.132       
1436.5224   0.5036      0.3172      1.0         0.2945      0.1968      2.188       2243.0901   875.8152    2427.9101   1102.2375   2.1756      
1436.6748   0.5864      0.3692      1.0         0.283       0.1693      2.195       2261.9139   875.8187    2416.7755   1069.6415   2.1902      
1436.8272   0.6082      0.383       1.0         0.2936      0.1757      2.178       2275.2029   882.5657    2357.2913   1020.2801   2.1733      
1436.9796   0.5751      0.3622      1.0         0.3077      0.1962      2.162       2278.9978   888.636     2321.0145   1002.2645   2.153       
1437.132    0.5519      0.3475      0.9976      0.3125      0.2054      2.158       2274.4556   887.5994    2315.4198   1005.1941   2.1463      
1437.2844   0.5891      0.3709      1.0         0.311       0.1968      2.156       2262.35     874.479     2299.1461   982.1226    2.1475      
1437.4368   0.6455      0.4065      1.0         0.3111      0.1859      2.15        2243.2029   852.6558    2265.9016   942.72      2.1454      
1437.5892   0.6571      0.4137      1.0         0.3131      0.1857      2.146       2217.9331   831.201     2252.1839   929.5671    2.142       
1437.7416   0.6611      0.4163      1.0         0.3092      0.181       2.151       2192.0806   810.3047    2264.5995   937.8977    2.1477      
1437.894    0.71        0.447       1.0         0.3026      0.1649      2.155       2175.34     793.289     2263.716    925.2542    2.156       
1438.0464   0.7405      0.4663      1.0         0.3024      0.1589      2.152       2174.0681   790.1485    2249.2272   907.1969    2.1553      
1438.1988   0.6892      0.4339      1.0         0.3077      0.1742      2.15        2186.9857   804.068     2255.4524   924.2216    2.149       
1438.3512   0.6148      0.3871      0.9829      0.3153      0.1961      2.147       2205.5931   831.5599    2257.9211   951.588     2.1389      
1438.5036   0.5688      0.3582      0.9422      0.3267      0.2164      2.135       2218.3075   857.5915    2219.9035   950.4183    2.1202      
1438.656    0.5174      0.3258      0.8906      0.3445      0.2442      2.114       2218.2276   876.8602    2157.6885   933.9981    2.0907      
1438.8084   0.4433      0.2791      0.8571      0.3592      0.2733      2.1         2207.7527   883.8284    2133.0506   943.5164    2.0676      
1438.9608   0.4039      0.2543      0.8654      0.3623      0.284       2.1         2190.5084   875.2185    2151.5275   964.3051    2.0647      
1439.1132   0.4606      0.29        0.9143      0.3542      0.265       2.107       2169.7199   842.5295    2167.2334   945.2502    2.0793      
1439.2656   0.5652      0.3558      0.9626      0.3483      0.2388      2.106       2151.0359   805.7945    2151.8879   888.8618    2.0887      
1439.418    0.6046      0.3807      0.9592      0.3531      0.2359      2.095       2139.0073   794.9279    2113.093    850.4288    2.0798      
1439.5704   0.5328      0.3354      0.9207      0.3634      0.2602      2.087       2138.8723   808.6146    2093.5885   866.4763    2.0633      
1439.7228   0.4087      0.2573      0.9036      0.3679      0.2887      2.093       2154.947    841.7343    2143.0782   941.3525    2.0589      
1439.8752   0.3065      0.193       0.9027      0.3676      0.3082      2.104       2178.9505   873.6177    2221.4491   1030.383    2.0626      
1440.0276   0.2636      0.166       0.8949      0.3698      0.3188      2.105       2194.9527   894.2871    2246.2087   1064.2673   2.0599      
1440.18     0.2573      0.162       0.8738      0.3754      0.3256      2.097       2199.4516   904.5885    2217.7939   1049.892    2.0496      
1440.3324   0.2546      0.1603      0.8565      0.378       0.3287      2.093       2198.8329   907.0861    2201.4539   1043.1258   2.0442      
1440.4848   0.2728      0.1717      0.8655      0.3719      0.3191      2.1         2198.0084   902.4265    2216.1738   1047.9315   2.0539      
1440.6372   0.3416      0.215       0.9067      0.358       0.2918      2.114       2202.0089   886.4626    2235.729    1032.2343   2.0767      
1440.7896   0.4459      0.2807      0.9652      0.3437      0.2574      2.125       2210.072    864.6399    2243.969    989.809     2.0999      
1440.942    0.5312      0.3344      0.9951      0.3387      0.2358      2.124       2214.0864   849.5072    2224.1493   940.1717    2.107       
1441.0944   0.5553      0.3496      0.9743      0.345       0.2375      2.112       2209.1432   845.6887    2175.4951   904.8846    2.095       
1441.2468   0.5442      0.3426      0.9451      0.3531      0.2478      2.101       2199.9104   845.0208    2136.7268   888.8656    2.0807      
1441.3992   0.5488      0.3455      0.9369      0.3569      0.2507      2.095       2192.6795   841.1171    2116.3775   874.8314    2.0741      
1441.5516   0.5751      0.362       0.9457      0.3572      0.2459      2.092       2188.9002   833.1671    2106.3507   857.2033    2.0735      
1441.704    0.5893      0.3709      0.9562      0.3564      0.2423      2.092       2188.146    829.9149    2107.6909   850.6196    2.075       
1441.8564   0.5595      0.3522      0.9566      0.3565      0.2482      2.095       2189.1204   833.5909    2122.4968   868.8337    2.0759      
1442.0088   0.5049      0.3178      0.9485      0.3561      0.2584      2.101       2189.4822   842.0317    2149.7067   906.6171    2.0776      
1442.1612   0.4826      0.3038      0.9453      0.354       0.2606      2.106       2187.5336   844.4534    2169.2932   929.0255    2.0813      
1442.3136   0.5089      0.3204      0.9457      0.3512      0.2528      2.107       2185.2595   840.0405    2164.1279   918.6984    2.0848      
1442.466    0.5557      0.3498      0.9619      0.3451      0.2376      2.111       2185.8706   830.4789    2168.3531   904.5759    2.0939      
1442.6184   0.597       0.3758      0.9851      0.3375      0.222       2.118       2189.8748   822.741     2186.171    899.1559    2.1058      
1442.7708   0.6155      0.3874      0.999       0.3321      0.213       2.124       2194.9368   820.2218    2203.776    902.5483    2.1145      
1442.9232   0.6233      0.3923      0.9991      0.3293      0.2088      2.127       2197.2478   819.0504    2209.9311   905.538     2.1185      
1443.0756   0.6536      0.4114      1.0         0.3249      0.1985      2.13        2195.6173   814.3032    2210.7836   898.7781    2.1242      
1443.228    0.6996      0.4404      1.0         0.3185      0.1831      2.134       2192.7739   806.3818    2211.0477   888.3661    2.1323      
1443.3804   0.7368      0.4638      1.0         0.3106      0.1681      2.141       2191.4344   799.6337    2221.5811   887.7182    2.143       
1443.5328   0.7875      0.4957      1.0         0.2973      0.145       2.154       2194.6223   795.8183    2245.7295   893.5241    2.1613      
1443.6852   0.8511      0.5357      1.0         0.2815      0.117       2.169       2206.377    796.7054    2274.1909   898.3152    2.1829      
1443.8376   0.8721      0.5489      1.0         0.2728      0.1041      2.179       2223.6504   805.5       2296.7151   908.4856    2.1952      
1443.99     0.8308      0.5229      1.0         0.2767      0.116       2.178       2234.342    817.4401    2301.1627   921.8364    2.1909      
