#----------------------------------------------------------------------------
~VERSION INFORMATION
VERS.            2.0                  :CWLS LOG ASCII STANDARD -VERSION 2.0
WRAP.            NO                   :ONE LINE PER DEPTH STEP
#
#--------------------------------------------------------------------
~WELL INFORMATION
#MNEM .UNIT      DATA                 :DESCRIPTION OF MNEMONIC
#----------      ------------         -------------------------------
STRT  .m         1900.0               :START DEPTH
STEP  .m         0.1524               :STEP DEPTH
STOP  .m         2100.0               :STOP DEPTH
NULL  .          -999.25              :NULL VALUE
COMP  .                               :COMPANY
WELL  .          Grana2018            :WELL
LOC   .                               :LOCATION - AREA
FLD   .                               :FIELD
CTRY  .                               :COUNTRY
DATE  .                               :WELL DATE

XWELL .m          0                    :X POS
YWELL .m          0                    :Y POS
EDF   .          0.0                  :DERRICK FLOOR ELEVATION
#
#----------------------------------------------------------------------------
~CURVE INFORMATION
#MNEM.UNIT                                  : CURVE DESCRIPTION
#----------                                 -------------------------------
DEPT        .m                              : 1      DEPTH
VCL         .fract                          : 2      Volume
PHIT        .fract                          : 3      Por
SW          .fract                          : 4      Sat
VP          .m/s                            : 5      Vp
VS          .m/s                            : 6      Vs
RHOB        .g/cm3                          : 7      Rho
#
#----------------------------------------------------------------------------
~A          VOL_CLAY    PHI         SW          VP          VS          RHOB        
# ...
1993.5736   0.1315      0.2557      0.2113      3610.0344   2217.4073   2.1885      
1993.726    0.1372      0.2512      0.2083      3630.1997   2233.8824   2.1976      
1993.8784   0.1338      0.2497      0.2142      3670.9917   2255.5567   2.2038      
1994.0308   0.1281      0.2456      0.2393      3754.951    2278.8029   2.2176      
1994.1832   0.1234      0.2423      0.256       3805.0921   2289.4713   2.2197      
1994.3356   0.1179      0.2224      0.2565      3801.9975   2320.8002   2.2334      
1994.488    0.1119      0.2105      0.2529      3795.7179   2363.25     2.2588      
1994.6404   0.104       0.1961      0.2469      3789.3173   2403.8057   2.2776      
1994.7928   0.0997      0.1803      0.2449      3775.7067   2466.2467   2.3195      
1994.9452   0.0978      0.1817      0.2447      3787.8971   2482.9639   2.3277      
1995.0976   0.0972      0.1831      0.2474      3801.8903   2493.5407   2.3333      
1995.25     0.0972      0.1846      0.2474      3816.2132   2493.061    2.3353      
1995.4024   0.0952      0.1861      0.2474      3828.5001   2502.5927   2.3393      
1995.5548   0.0952      0.1876      0.2475      3835.0589   2506.8616   2.3415      
1995.7072   0.095       0.1902      0.2475      3846.4256   2512.6772   2.3453      
1995.8596   0.0919      0.1919      0.2475      3860.0439   2516.3724   2.3477      
1996.012    0.0911      0.1946      0.2474      3874.0856   2522.4114   2.3514      
1996.1644   0.0909      0.1967      0.247       3888.7515   2525.7218   2.3505      
1996.3168   0.0789      0.2214      0.2268      3964.2789   2491.5871   2.3081      
1996.4692   0.0673      0.2378      0.2004      4002.194    2457.688    2.2594      
1996.6216   0.048       0.2625      0.1401      4017.6964   2380.9847   2.1651      
1996.774    0.0496      0.2636      0.1123      3982.7289   2341.7413   2.1262      
1996.9264   0.0669      0.2618      0.1109      3937.4763   2291.8132   2.1245      
1997.0788   0.0876      0.2619      0.1189      3923.1137   2259.7904   2.1245      
1997.2312   0.1109      0.2601      0.1424      3902.9942   2239.3371   2.1294      
1997.3836   0.1105      0.2588      0.1601      3898.8144   2241.5648   2.1362      
1997.536    0.0953      0.2631      0.1671      3898.7997   2251.3943   2.1526      
1997.6884   0.0822      0.2673      0.1631      3898.8      2261.0348   2.1517      
1997.8408   0.0713      0.2721      0.1539      3898.8      2271.9664   2.1388      
1997.9932   0.0669      0.273       0.1519      3898.7196   2284.9082   2.1142      
1998.1456   0.0686      0.2715      0.1687      3899.1032   2284.5186   2.1098      
1998.298    0.0863      0.2622      0.2086      3916.0872   2284.0079   2.1169      
1998.4504   0.1075      0.2498      0.2413      3929.0366   2280.3529   2.1374      
1998.6028   0.1492      0.2239      0.2923      3959.9042   2279.5119   2.1802      
1998.7552   0.1848      0.1999      0.3312      3960.8173   2283.2717   2.235       
1998.9076   0.2247      0.1689      0.382       3934.5215   2284.3932   2.3217      
1999.06     0.2283      0.1671      0.3978      3919.0175   2287.9308   2.3733      
1999.2124   0.203       0.1865      0.3817      3934.4928   2298.9992   2.4033      
1999.3648   0.1798      0.2052      0.3499      3947.8988   2306.3789   2.387       
1999.5172   0.1293      0.2421      0.2802      3962.3032   2324.2947   2.3038      
1999.6696   0.1046      0.2526      0.2352      4029.0217   2339.2681   2.2399      
1999.822    0.0922      0.2466      0.1902      4349.9209   2367.236    2.1886      
1999.9744   0.0948      0.2226      0.1827      4644.0853   2394.1641   2.1958      
2000.1268   0.1229      0.1707      0.2078      5075.275    2447.8621   2.2709      
2000.2792   0.146       0.1408      0.2344      5259.578    2474.2431   2.3354      
2000.4316   0.1795      0.1035      0.3019      5426.0729   2552.2153   2.4383      
2000.584    0.1965      0.0856      0.3614      5490.7033   2622.6859   2.4915      
2000.7364   0.2212      0.065       0.5402      5487.1846   2780.2004   2.5475      
2000.8888   0.2405      0.0534      0.6983      5414.4049   2871.5222   2.5793      
2001.0412   0.2562      0.0468      0.8105      5324.0677   2885.4803   2.6046      
2001.1936   0.2603      0.0442      0.9803      5115.2823   2818.4296   2.6445      
2001.346    0.2487      0.05        0.9857      4993.1912   2728.6231   2.6518      
2001.4984   0.2234      0.0746      0.9564      4783.7984   2596.1767   2.6425      
2001.6508   0.2229      0.1006      0.907       4633.9877   2527.6821   2.6064      
2001.8032   0.236       0.135       0.817       4456.3047   2444.341    2.5241      
2001.9556   0.2478      0.1473      0.7813      4405.2743   2393.4025   2.4768      
2002.108    0.2586      0.1473      0.7777      4386.1439   2331.522    2.4354      
2002.2604   0.2545      0.1408      0.7899      4373.1032   2328.2912   2.4416      
2002.4128   0.2215      0.1368      0.8164      4314.0834   2365.0748   2.4717      
2002.5652   0.1853      0.1401      0.8231      4267.7533   2373.6246   2.4874      
2002.7176   0.127       0.151       0.821       4193.1712   2348.539    2.4849      
2002.87     0.0888      0.1589      0.8174      4152.0889   2322.6327   2.474       
2003.0224   0.0494      0.1672      0.8074      4110.6062   2301.2282   2.4553      
2003.1748   0.0469      0.172       0.7998      4072.5278   2284.9476   2.4479      
2003.3272   0.0566      0.1782      0.7943      3943.4527   2235.3138   2.4347      
2003.4796   0.0664      0.183       0.7903      3872.8855   2198.5764   2.4224      
2003.632    0.0737      0.1897      0.7819      3769.8367   2142.4012   2.4011      
2003.7844   0.0756      0.1923      0.7769      3723.73     2116.2848   2.3922      
2003.9368   0.0885      0.2012      0.7671      3641.015    2085.2538   2.3758      
2004.0892   0.0957      0.208       0.7601      3589.7254   2068.1314   2.3617      
2004.2416   0.0986      0.2172      0.751       3553.4075   2047.1846   2.3428      
2004.394    0.0917      0.2296      0.7369      3519.4152   2024.3305   2.3083      
2004.5464   0.0755      0.233       0.7307      3512.2238   2018.8877   2.2965      
2004.6988   0.0563      0.232       0.7271      3488.9313   2024.183    2.2946      
2004.8512   0.0528      0.2235      0.727       3476.0474   2029.0815   2.2972      
2005.0036   0.0592      0.1929      0.7311      3514.4805   2039.8584   2.3252      
2005.156    0.066       0.1682      0.7351      3572.6215   2051.1195   2.3692      
2005.3084   0.0746      0.1337      0.7417      3683.1004   2073.7342   2.4515      
2005.4608   0.0792      0.1296      0.7443      3740.7021   2078.5139   2.5013      
2005.6132   0.0892      0.1494      0.7389      3738.0742   2078.9858   2.504       
2005.7656   0.0956      0.1772      0.7296      3714.127    2075.8705   2.4672      
2005.918    0.1079      0.2202      0.703       3633.7783   2064.0877   2.3625      
2006.0704   0.1143      0.2381      0.6886      3592.5979   2053.1634   2.3071      
2006.2228   0.1192      0.2559      0.6782      3520.8854   2028.5721   2.2393      
2006.3752   0.118       0.26        0.6723      3487.4164   2007.4957   2.2169      
2006.5276   0.1113      0.2641      0.6597      3435.4314   1968.4833   2.2009      
2006.68     0.1076      0.2668      0.652       3410.776    1943.7214   2.1937      
2006.8324   0.1116      0.2671      0.6463      3419.4983   1944.2187   2.1828      
2006.9848   0.113       0.2673      0.6493      3426.2368   1956.2546   2.1792      
2007.1372   0.1154      0.2648      0.655       3433.3243   1978.3378   2.1845      
2007.2896   0.1076      0.2583      0.6629      3439.1565   1999.4308   2.2028      
2007.442    0.0962      0.257       0.6638      3449.5384   2004.9076   2.2155      
2007.5944   0.0692      0.2582      0.6569      3461.5622   2023.1101   2.2284      
2007.7468   0.0561      0.2595      0.6511      3482.8612   2041.0988   2.2295      
2007.8992   0.044       0.2598      0.6398      3521.4327   2063.5916   2.2209      
