#----------------------------------------------------------------------------
~VERSION INFORMATION
VERS.            2.0                  :CWLS LOG ASCII STANDARD -VERSION 2.0
WRAP.            NO                   :ONE LINE PER DEPTH STEP
#
#--------------------------------------------------------------------
~WELL INFORMATION
#MNEM .UNIT      DATA                 :DESCRIPTION OF MNEMONIC
#----------      ------------         -------------------------------
STRT  .m         0.0                  :START DEPTH
STEP  .m         0.1524               :STEP DEPTH
STOP  .m         4000.0               :STOP DEPTH
NULL  .          -999.25              :NULL VALUE
COMP  .                               :COMPANY
WELL  .          Well5                :WELL
LOC   .                               :LOCATION - AREA
FLD   .                               :FIELD
CTRY  .                               :COUNTRY
DATE  .                               :WELL DATE

XWELL .m          0                    :X POS
YWELL .m          0                    :Y POS
EDF   .          0.0                  :DERRICK FLOOR ELEVATION
#
#----------------------------------------------------------------------------
~CURVE INFORMATION
#MNEM.UNIT                                  : CURVE DESCRIPTION
#----------                                 -------------------------------
DEPT        .m                              : 1      DEPTH
GR          .API                            : 2      GR
PR          .unitless                       : 3      Poisson_Ratio
RHOB        .g/cm3                          : 4      Rho
CALI        .m                              : 5      Cal
VELC        .m/s                            : 6      Vp
VELS        .m/s                            : 7      Vs
Vcdry       .fract                          : 8      Volume
Vbw         .fract                          : 9      Volume
Vcal        .fract                          : 10     Volume
Vqz         .fract                          : 11     Volume
Vparphi     .fract                          : 12     Volume
Voil        .fract                          : 13     Volume
Vgas        .fract                          : 14     Volume
Vw          .fract                          : 15     Volume
Vp_elastic  .m/s                            : 16     Vp
Vs_elastic  .m/s                            : 17     Vs
Rho_elastic .g/cm3                          : 18     Rho
#
#----------------------------------------------------------------------------
~A          GR          PR          RHOB        CALI        VELC        VELS        Vcdry       Vbw         Vcal        Vqz         Vparphi     Voil        Vgas        Vw          Vp_elastic  Vs_elastic  Rho_elastic 
# ...
3676.4976   116.0413    0.2511      2.6247      0.3085      4110.5182   2369.9      0.7494      0.1535      0.0         0.0934      0.0038      0.0         0.0         0.0         4301.2493   2598.0748   2.5581      
3676.65     114.703     0.2476      2.6272      0.3082      4096.718    2372.5964   0.7431      0.1522      0.0         0.0999      0.0048      0.0         0.0         0.0         4301.4302   2598.4599   2.5578      
3676.8024   113.001     0.2442      2.6337      0.3069      4083.0135   2375.3949   0.7267      0.1488      0.0         0.1185      0.0058      0.0         0.0         0.0         4301.612    2598.847    2.5574      
3676.9548   111.3604    0.2405      2.6363      0.3057      4074.8107   2381.8915   0.7117      0.1458      0.0         0.1352      0.0072      0.0         0.0         0.0         4301.7947   2599.2359   2.5571      
3677.1072   109.948     0.2367      2.626       0.3061      4066.7      2388.3937   0.6818      0.1396      0.0         0.1677      0.0109      0.0         0.0         0.0         4301.9783   2599.6267   2.5568      
3677.2596   109.5251    0.2419      2.6084      0.3076      4099.5566   2392.195    0.6663      0.1364      0.0         0.1828      0.0144      0.0         0.0         0.0         4302.1628   2600.0194   2.5564      
3677.412    109.2768    0.2469      2.6006      0.3085      4132.7999   2395.9911   0.6558      0.1343      0.0         0.1937      0.0162      0.0         0.0         0.0         4302.3483   2600.414    2.5561      
3677.5644   109.0279    0.233       2.6082      0.3085      4116.0218   2428.4569   0.6381      0.1307      0.0         0.2147      0.0163      0.0         0.0         0.0         4302.5347   2600.8106   2.5558      
3677.7168   108.9781    0.2181      2.6187      0.3084      4099.6001   2461.683    0.6175      0.1264      0.0         0.2396      0.0164      0.0         0.0         0.0         4302.7222   2601.2092   2.5555      
3677.8692   109.812     0.2258      2.6235      0.3087      4149.7325   2469.689    0.6094      0.1248      0.0         0.2493      0.0165      0.0         0.0         0.0         4302.9106   2601.6098   2.5552      
3678.0216   112.6704    0.2333      2.6207      0.3088      4202.378    2478.4898   0.6175      0.1265      0.0         0.2399      0.0162      0.0         0.0         0.0         4303.1001   2602.0124   2.5548      
3678.174    115.261     0.2329      2.6094      0.3085      4212.3      2485.3988   0.6178      0.1265      0.0         0.2389      0.0168      0.0         0.0         0.0         4303.2905   2602.4171   2.5545      
3678.3264   115.3614    0.2316      2.5955      0.3087      4206.0139   2485.9      0.6113      0.1252      0.0         0.2451      0.0184      0.0         0.0         0.0         4303.4821   2602.8238   2.5542      
3678.4788   112.9621    0.2285      2.5886      0.3087      4173.1329   2475.5163   0.6161      0.1261      0.0         0.2384      0.0192      0.0         0.0         0.0         4303.6747   2603.2327   2.5539      
3678.6312   115.4305    0.2296      2.5959      0.3085      4152.9207   2460.2217   0.6539      0.134       0.0         0.1971      0.0151      0.0         0.0         0.0         4303.8684   2603.6437   2.5536      
3678.7836   121.8983    0.2331      2.6127      0.3086      4140.0121   2442.2206   0.6833      0.1399      0.0         0.1676      0.0092      0.0         0.0         0.0         4304.0632   2604.0568   2.5533      
3678.936    126.2773    0.2364      2.6283      0.3085      4132.8053   2428.3125   0.6865      0.1406      0.0         0.1676      0.0054      0.0         0.0         0.0         4304.2591   2604.4721   2.553       
3679.0884   126.4441    0.2382      2.634       0.3084      4130.0      2421.1      0.6782      0.1389      0.0         0.1782      0.0047      0.0         0.0         0.0         4304.4562   2604.8896   2.5526      
3679.2408   124.3526    0.2311      2.6376      0.3085      4152.4656   2455.5607   0.6853      0.1404      0.0         0.1698      0.0045      0.0         0.0         0.0         4304.6545   2605.3093   2.5523      
3679.3932   121.772     0.2285      2.6393      0.308       4183.8509   2481.9788   0.6664      0.1365      0.0         0.1912      0.0058      0.0         0.0         0.0         4304.8539   2605.7312   2.552       
3679.5456   118.9892    0.2338      2.6365      0.3061      4230.2517   2493.5834   0.6169      0.1264      0.0         0.2484      0.0085      0.0         0.0         0.0         4305.0545   2606.1554   2.5517      
3679.698    115.3274    0.235       2.6262      0.3055      4260.6679   2507.4808   0.5705      0.1169      0.0         0.3018      0.0109      0.0         0.0         0.0         4305.2563   2606.5819   2.5514      
3679.8504   109.7052    0.234       2.6152      0.3057      4281.084    2522.8778   0.5208      0.1067      0.0         0.3585      0.0141      0.0         0.0         0.0         4305.4593   2607.0107   2.5511      
3680.0028   103.2006    0.2295      2.6143      0.3052      4289.7907   2541.6765   0.4694      0.0961      0.0         0.417       0.0174      0.0         0.0         0.0         4305.6636   2607.4418   2.5508      
3680.1552   98.9827     0.2251      2.6251      0.3052      4295.7921   2558.7999   0.4462      0.0914      0.0         0.4439      0.0185      0.0         0.0         0.0         4305.8692   2607.8753   2.5505      
3680.3076   96.0616     0.2294      2.631       0.3068      4301.7921   2549.1127   0.4534      0.0928      0.0         0.4336      0.0202      0.0         0.0         0.0         4306.0761   2608.3112   2.5502      
3680.46     98.1866     0.2337      2.6234      0.3077      4307.9      2539.5152   0.4699      0.0963      0.0         0.4119      0.022       0.0         0.0         0.0         4306.2842   2608.7494   2.5499      
3680.6124   102.9368    0.2373      2.6155      0.3077      4301.808    2524.8192   0.4853      0.0994      0.0         0.3933      0.022       0.0         0.0         0.0         4306.4937   2609.1901   2.5496      
3680.7648   105.5096    0.2407      2.6152      0.3082      4295.7142   2510.3218   0.5039      0.1032      0.0         0.3723      0.0206      0.0         0.0         0.0         4306.7045   2609.6332   2.5493      
3680.9172   105.921     0.238       2.6174      0.3086      4247.9621   2490.8254   0.5146      0.1055      0.0         0.3601      0.0199      0.0         0.0         0.0         4306.9166   2610.0789   2.549       
3681.0696   105.9627    0.2353      2.6182      0.3084      4201.1406   2471.6001   0.5248      0.1075      0.0         0.3483      0.0195      0.0         0.0         0.0         4307.1302   2610.527    2.5487      
3681.222    105.9333    0.2308      2.6213      0.3083      4178.03     2471.6      0.5415      0.111       0.0         0.3293      0.0182      0.0         0.0         0.0         4307.3451   2610.9776   2.5484      
3681.3744   105.2355    0.2263      2.6286      0.3082      4155.4001   2471.6997   0.5539      0.1134      0.0         0.3161      0.0165      0.0         0.0         0.0         4307.5614   2611.4308   2.5482      
3681.5268   104.2787    0.2313      2.6364      0.308       4192.5509   2478.6908   0.5624      0.1152      0.0         0.3073      0.0151      0.0         0.0         0.0         4307.7792   2611.8865   2.5479      
3681.6792   104.4167    0.2363      2.6359      0.3079      4230.1999   2485.6923   0.5689      0.1165      0.0         0.3         0.0146      0.0         0.0         0.0         4307.9983   2612.3448   2.5476      
3681.8316   105.6906    0.2278      2.6247      0.3077      4195.3455   2490.7933   0.5666      0.1161      0.0         0.3017      0.0157      0.0         0.0         0.0         4308.219    2612.8057   2.5473      
3681.984    106.67      0.219       2.613       0.3076      4161.0001   2495.9      0.5512      0.1129      0.0         0.3182      0.0177      0.0         0.0         0.0         4308.4411   2613.2693   2.547       
