#----------------------------------------------------------------------------
~VERSION INFORMATION
VERS.            2.0                  :CWLS LOG ASCII STANDARD -VERSION 2.0
WRAP.            NO                   :ONE LINE PER DEPTH STEP
#
#--------------------------------------------------------------------
~WELL INFORMATION
#MNEM .UNIT      DATA                 :DESCRIPTION OF MNEMONIC
#----------      ------------         -------------------------------
STRT  .m         0.0                  :START DEPTH
STEP  .m         0.1524               :STEP DEPTH
STOP  .m         4000.0               :STOP DEPTH
NULL  .          -999.25              :NULL VALUE
COMP  .                               :COMPANY
WELL  .          Well5                :WELL
LOC   .                               :LOCATION - AREA
FLD   .                               :FIELD
CTRY  .                               :COUNTRY
DATE  .                               :WELL DATE

XWELL .m          0                    :X POS
YWELL .m          0                    :Y POS
EDF   .          0.0                  :DERRICK FLOOR ELEVATION
#
#----------------------------------------------------------------------------
~CURVE INFORMATION
#MNEM.UNIT                                  : CURVE DESCRIPTION
#----------                                 -------------------------------
DEPT        .m                              : 1      DEPTH
GR          .API                            : 2      GR
PR          .unitless                       : 3      Poisson_Ratio
RHOB        .g/cm3                          : 4      Rho
CALI        .m                              : 5      Cal
VELC        .m/s                            : 6      Vp
VELS        .m/s                            : 7      Vs
Vcdry       .fract                          : 8      Volume
Vbw         .fract                          : 9      Volume
Vcal        .fract                          : 10     Volume
Vqz         .fract                          : 11     Volume
Vparphi     .fract                          : 12     Volume
Voil        .fract                          : 13     Volume
Vgas        .fract                          : 14     Volume
Vw          .fract                          : 15     Volume
Vp_elastic  .m/s                            : 16     Vp
Vs_elastic  .m/s                            : 17     Vs
Rho_elastic .g/cm3                          : 18     Rho
#
#----------------------------------------------------------------------------
~A          GR          PR          RHOB        CALI        VELC        VELS        Vcdry       Vbw         Vcal        Vqz         Vparphi     Voil        Vgas        Vw          Vp_elastic  Vs_elastic  Rho_elastic 
# ...
3044.952    137.3674    -999.25     2.5884      0.3681      -999.25     -999.25     0.6807      0.2033      0.0         0.0834      0.0328      0.0         0.0         0.0         3089.5606   1606.5668   2.4982      
3045.1044   135.686     -999.25     2.5885      0.367       -999.25     -999.25     0.6796      0.203       0.0         0.0817      0.0357      0.0         0.0         0.0         3089.9558   1606.8719   2.4983      
3045.2568   135.6731    -999.25     2.5846      0.3674      -999.25     -999.25     0.6895      0.206       0.0         0.0689      0.0356      0.0         0.0         0.0         3090.3511   1607.1771   2.4984      
3045.4092   138.2637    -999.25     2.5777      0.3682      -999.25     -999.25     0.6993      0.2088      0.0         0.0623      0.0295      0.0         0.0         0.0         3090.7463   1607.4823   2.4986      
3045.5616   140.1914    -999.25     2.5675      0.3686      -999.25     -999.25     0.7044      0.2104      0.0         0.0593      0.0258      0.0         0.0         0.0         3091.1416   1607.7877   2.4987      
3045.714    140.091     -999.25     2.5648      0.3687      -999.25     -999.25     0.7015      0.2095      0.0         0.0634      0.0255      0.0         0.0         0.0         3091.5369   1608.0931   2.4988      
3045.8664   141.5441    -999.25     2.5718      0.3689      -999.25     -999.25     0.7122      0.2127      0.0         0.0537      0.0214      0.0         0.0         0.0         3091.9322   1608.3986   2.4989      
3046.0188   143.8468    -999.25     2.5745      0.3651      -999.25     -999.25     0.7371      0.2202      0.0         0.0232      0.0194      0.0         0.0         0.0         3092.3276   1608.7042   2.499       
3046.1712   141.8414    -999.25     2.5731      0.3544      -999.25     -999.25     0.7432      0.222       0.0         0.0068      0.0281      0.0         0.0         0.0         3092.7229   1609.0098   2.4992      
3046.3236   142.6751    -999.25     2.5902      0.3479      -999.25     -999.25     0.7491      0.2238      0.0         0.0063      0.0207      0.0         0.0         0.0         3093.1183   1609.3155   2.4993      
3046.476    139.4034    -999.25     2.6443      0.346       -999.25     -999.25     0.7172      0.2142      0.0         0.0622      0.0066      0.0         0.0         0.0         3093.5137   1609.6213   2.4994      
3046.6284   135.5384    -999.25     2.7098      0.3444      -999.25     -999.25     0.653       0.195       0.0         0.1519      0.0         0.0         0.0         0.0         3093.9091   1609.9272   2.4995      
3046.7808   132.6567    -999.25     2.7019      0.3428      -999.25     -999.25     0.6366      0.1901      0.0         0.1731      0.0         0.0         0.0         0.0         3094.3045   1610.2332   2.4996      
3046.9332   120.221     -999.25     2.6424      0.3423      -999.25     -999.25     0.5908      0.1764      0.0         0.2076      0.025       0.0         0.0         0.0         3094.6999   1610.5392   2.4998      
3047.0856   113.8249    -999.25     2.5984      0.3423      -999.25     -999.25     0.5589      0.1669      0.0         0.22        0.0541      0.0         0.0         0.0         3095.0954   1610.8453   2.4999      
3047.238    115.2903    -999.25     2.5792      0.3423      -999.25     -999.25     0.5518      0.1648      0.0         0.2213      0.062       0.0         0.0         0.0         3095.4909   1611.1515   2.5         
3047.3904   131.4381    -999.25     2.5701      0.3423      -999.25     -999.25     0.6279      0.1876      0.0         0.1405      0.0442      0.0         0.0         0.0         3095.8864   1611.4578   2.5001      
3047.5428   142.3456    -999.25     2.5656      0.343       -999.25     -999.25     0.7088      0.2117      0.0         0.0511      0.0284      0.0         0.0         0.0         3096.2819   1611.7641   2.5002      
3047.6952   145.6832    -999.25     2.5738      0.3426      -999.25     -999.25     0.7528      0.2249      0.0         0.0         0.0225      0.0         0.0         0.0         3096.6774   1612.0705   2.5003      
3047.8476   146.95      -999.25     2.5862      0.3423      -999.25     -999.25     0.7572      0.2262      0.0         0.0         0.0164      0.0         0.0         0.0         3097.0729   1612.377    2.5005      
3048.0      146.1423    -999.25     2.5938      0.3423      -999.25     -999.25     0.7405      0.2212      0.0         0.0288      0.0094      0.0         0.0         0.0         3097.4685   1612.6836   2.5006      
3048.1524   146.1553    -999.25     2.5989      0.3423      -999.25     -999.25     0.7262      0.2169      0.0         0.0538      0.0029      0.0         0.0         0.0         3097.8641   1612.9902   2.5007      
3048.3048   147.1572    -999.25     2.6021      0.3423      -999.25     -999.25     0.7307      0.2183      0.0         0.0511      0.0         0.0         0.0         0.0         3098.2596   1613.2969   2.5008      
3048.4572   145.5187    -999.25     2.6039      0.343       -999.25     -999.25     0.7221      0.2157      0.0         0.0622      0.0         0.0         0.0         0.0         3098.6553   1613.6037   2.5009      
3048.6096   143.7318    -999.25     2.5999      0.3426      -999.25     -999.25     0.717       0.2142      0.0         0.0679      8.0E-4      0.0         0.0         0.0         3099.0509   1613.9106   2.5011      
3048.762    145.8083    -999.25     2.5967      0.3423      -999.25     -999.25     0.7497      0.224       0.0         0.0264      0.0         0.0         0.0         0.0         3099.4465   1614.2175   2.5012      
3048.9144   149.6413    -999.25     2.5949      0.3423      -999.25     -999.25     0.7658      0.2287      0.0         0.0055      0.0         0.0         0.0         0.0         3099.8422   1614.5245   2.5013      
3049.0668   148.7076    -999.25     2.5932      0.3418      -999.25     -999.25     0.746       0.2229      0.0         0.0311      0.0         0.0         0.0         0.0         3100.2378   1614.8316   2.5014      
3049.2192   144.2165    -999.25     2.5951      0.3418      -999.25     -999.25     0.7243      0.2163      0.0         0.0591      0.0         0.0         0.0         0.0         3100.6335   1615.1388   2.5015      
3049.3716   141.676     -999.25     2.5993      0.3419      -999.25     -999.25     0.7168      0.2141      0.0         0.0625      0.0067      0.0         0.0         0.0         3101.0292   1615.4461   2.5016      
3049.524    140.3672    -999.25     2.6056      0.3419      -999.25     -999.25     0.7319      0.2186      0.0         0.0382      0.0112      0.0         0.0         0.0         3101.425    1615.7534   2.5018      
3049.6764   140.7928    -999.25     2.6059      0.3427      -999.25     -999.25     0.7541      0.2252      0.0         0.0088      0.0119      0.0         0.0         0.0         3101.8207   1616.0608   2.5019      
3049.8288   141.2118    -999.25     2.6121      0.3426      -999.25     -999.25     0.7427      0.2219      0.0         0.0288      0.0067      0.0         0.0         0.0         3102.2164   1616.3683   2.502       
3049.9812   138.2275    -999.25     2.6253      0.3421      -999.25     -999.25     0.7028      0.2099      0.0         0.0819      0.0053      0.0         0.0         0.0         3102.6122   1616.6758   2.5021      
3050.1336   138.3413    -999.25     2.6163      0.3422      -999.25     -999.25     0.668       0.1995      0.0         0.1308      0.0017      0.0         0.0         0.0         3103.008    1616.9834   2.5022      
3050.286    139.3369    -999.25     2.6122      0.3423      -999.25     -999.25     0.662       0.1977      0.0         0.1403      0.0         0.0         0.0         0.0         3103.4038   1617.2911   2.5023      
3050.4384   139.6344    -999.25     2.6179      0.3423      -999.25     -999.25     0.6619      0.1977      0.0         0.1404      0.0         0.0         0.0         0.0         3103.7996   1617.5989   2.5025      
