#----------------------------------------------------------------------------
~VERSION INFORMATION
VERS.            2.0                  :CWLS LOG ASCII STANDARD -VERSION 2.0
WRAP.            NO                   :ONE LINE PER DEPTH STEP
#
#--------------------------------------------------------------------
~WELL INFORMATION
#MNEM .UNIT      DATA                 :DESCRIPTION OF MNEMONIC
#----------      ------------         -------------------------------
STRT  .m         0.0                  :START DEPTH
STEP  .m         0.1524               :STEP DEPTH
STOP  .m         4000.0               :STOP DEPTH
NULL  .          -999.25              :NULL VALUE
COMP  .                               :COMPANY
WELL  .          Well4                :WELL
LOC   .                               :LOCATION - AREA
FLD   .                               :FIELD
CTRY  .                               :COUNTRY
DATE  .                               :WELL DATE

XWELL .m          0                    :X POS
YWELL .m          0                    :Y POS
EDF   .          0.0                  :DERRICK FLOOR ELEVATION
#
#----------------------------------------------------------------------------
~CURVE INFORMATION
#MNEM.UNIT                                  : CURVE DESCRIPTION
#----------                                 -------------------------------
DEPT        .m                              : 1      DEPTH
RHOB        .g/cm3                          : 2      Rho
Vs          .m/s                            : 3      Vs
Vp          .m/s                            : 4      Vp
Vclay       .fract                          : 5      Volume
Vcoal       .fract                          : 6      Volume
Vqz         .fract                          : 7      Volume
Vcal        .fract                          : 8      Volume
PHI_isolated.fract                          : 9      Por
PHI_bound   .fract                          : 10     Por
Vsh         .fract                          : 11     Volume
PHIE        .fract                          : 12     Por
PHIT        .fract                          : 13     Por
Sot         .fract                          : 14     Sat
Sgt         .fract                          : 15     Sat
Swt         .fract                          : 16     Sat
#
#----------------------------------------------------------------------------
~A          RHOB        Vs          Vp          Vclay       Vcoal       Vqz         Vcal        PHI_isolatedPHI_bound   Vsh         PHIE        PHIT        Sot         Sgt         Swt         
# ...
2829.1536   2.4761      2228.3      4036.3      0.3954      0.0         0.4022      0.0         0.041       0.1615      0.5569      0.0         0.2025      0.0         0.0         0.9995      
2829.306    2.4431      2165.9      3953.4      0.4138      0.0         0.3629      0.0         0.0546      0.169       0.5828      0.0         0.2236      0.0         0.0         0.9996      
2829.4584   2.4243      2120.5      3866.0      0.3983      0.0         0.3612      0.0         0.0778      0.1627      0.561       0.0         0.2405      0.0         0.0         0.9996      
2829.6108   2.4101      2075.9      3799.6      0.3896      0.0         0.3598      0.0         0.0908      0.1592      0.5488      5.0E-4      0.2505      0.0         0.0         0.9996      
2829.7632   2.4123      2048.5      3773.4      0.3884      0.0         0.3606      0.0         0.091       0.1586      0.547       0.0014      0.251       0.0         0.0         0.9996      
2829.9156   2.4251      2029.7      3774.5      0.3943      0.0         0.3575      0.0         0.0872      0.1611      0.5554      0.0         0.2483      0.0         0.0         0.9996      
2830.068    2.4302      2028.2      3776.3      0.4008      0.0         0.3522      2.0E-4      0.0828      0.1637      0.5645      0.0         0.2465      0.0         0.0         0.9996      
2830.2204   2.4189      1998.6      3756.6      0.3845      0.0         0.2945      0.0671      0.0929      0.1571      0.5416      0.0039      0.2539      0.0         0.0         0.9996      
2830.3728   2.4028      1985.1      3725.8      0.3604      0.0         0.2865      0.0883      0.093       0.1472      0.5076      0.0245      0.2647      0.0         0.0         0.9996      
2830.5252   2.3662      1959.2      3694.3      0.353       0.0         0.3242      0.0474      0.0974      0.1442      0.4972      0.0342      0.2758      0.0         0.0         0.9996      
2830.6776   2.3446      1952.4      3666.2      0.341       0.0         0.3304      0.0484      0.0926      0.1392      0.4802      0.0482      0.2801      0.0         0.0         0.9996      
2830.83     2.3414      1950.2      3647.7      0.3375      0.0         0.3346      0.0488      0.0894      0.1378      0.4753      0.0518      0.279       0.0         0.0         0.9996      
2830.9824   2.3429      1945.0      3635.9      0.3239      0.0         0.3146      0.0856      0.0776      0.1323      0.4562      0.0659      0.2758      0.0         0.0         0.9996      
2831.1348   2.345       1942.9      3629.2      0.3302      0.0         0.3338      0.063       0.0808      0.1349      0.4651      0.0572      0.2729      8.0E-4      0.0         0.9989      
2831.2872   2.3528      1950.1      3628.2      0.3505      0.0         0.3744      0.0055      0.0923      0.1432      0.4937      0.0343      0.2697      0.0067      0.0         0.993       
2831.4396   2.3598      1956.3      3627.8      0.3667      0.0         0.3656      0.0         0.0988      0.1498      0.5165      0.0192      0.2678      0.0052      0.0         0.9945      
2831.592    2.3732      1937.0      3632.2      0.3874      0.0         0.3453      0.0         0.1068      0.1582      0.5457      0.0024      0.2674      0.0         4.0E-4      0.9993      
2831.7444   2.3737      1918.3      3635.1      0.3899      0.0         0.3424      0.0         0.108       0.1592      0.5491      5.0E-4      0.2677      0.0         0.0         0.9996      
2831.8968   2.3572      1918.9      3635.0      0.3742      0.0         0.3564      0.0         0.103       0.1528      0.5271      0.0134      0.2692      0.0         0.0         0.9996      
2832.0492   2.3455      1923.9      3631.8      0.3578      0.0         0.3707      0.0         0.0969      0.1462      0.5039      0.0285      0.2715      0.0         0.0         0.9996      
2832.2016   2.3316      1910.8      3626.6      0.3459      0.0         0.3809      0.0         0.0909      0.1413      0.4872      0.041       0.2731      0.0         0.0         0.9996      
2832.354    2.3295      1897.4      3622.5      0.3435      0.0         0.3822      0.0         0.0902      0.1403      0.4838      0.0439      0.2743      0.0         0.0         0.9996      
2832.5064   2.3237      1919.0      3621.3      0.3363      0.0         0.3901      0.0         0.0848      0.1373      0.4736      0.0514      0.2736      0.0         0.0         0.9996      
2832.6588   2.3171      1922.3      3622.5      0.3238      0.0         0.4024      0.0         0.0759      0.1322      0.456       0.0656      0.2737      0.0         0.0         0.9996      
2832.8112   2.3007      1919.4      3626.5      0.2961      0.0         0.431       0.0         0.0525      0.121       0.4171      0.0994      0.2729      0.0         0.0         0.9996      
2832.9636   2.2941      1912.2      3631.3      0.2771      0.0         0.4484      0.0         0.0347      0.1132      0.3902      0.1267      0.2745      0.0         0.0         0.9996      
2833.116    2.288       1910.5      3640.2      0.2503      0.0         0.4735      0.0         0.0058      0.1023      0.3526      0.1682      0.2762      0.0         0.0         0.9996      
2833.2684   2.2886      1920.7      3650.7      0.2419      0.0         0.4811      0.0         0.0         0.0988      0.3407      0.1782      0.277       0.0         0.0         0.9996      
2833.4208   2.2941      1930.1      3663.2      0.242       0.0         0.4805      1.0E-4      0.0         0.0988      0.3408      0.1785      0.2773      0.0         0.0         0.9996      
2833.5732   2.2969      1921.6      3676.4      0.2467      0.0         0.4473      0.0278      0.0023      0.1008      0.3475      0.1749      0.278       0.0         0.0         0.9996      
2833.7256   2.2988      1925.0      3688.1      0.2636      0.0         0.4164      0.0413      0.0219      0.1076      0.3713      0.1495      0.279       0.0         0.0         0.9996      
2833.878    2.3009      1935.4      3692.2      0.2764      0.0         0.4189      0.0262      0.0358      0.1129      0.3892      0.1298      0.2785      0.0         0.0         0.9996      
2834.0304   2.3041      1949.2      3694.6      0.2814      0.0         0.4205      0.0205      0.0404      0.115       0.3964      0.1222      0.2776      0.0         0.0         0.9996      
2834.1828   2.3131      1963.2      3694.7      0.289       0.0         0.4322      0.0054      0.0462      0.118       0.407       0.1092      0.2734      0.0         0.0         0.9996      
2834.3352   2.3225      1982.0      3696.2      0.2912      0.0         0.4386      0.0         0.0475      0.1189      0.4101      0.104       0.2703      0.0         0.0         0.9996      
2834.4876   2.3312      2006.9      3708.1      0.2896      0.0         0.4447      1.0E-4      0.0444      0.1183      0.4079      0.1027      0.2654      0.0         0.0         0.9996      
2834.64     2.3424      2040.2      3773.6      0.2773      0.0         0.4246      0.0403      0.0318      0.1133      0.3906      0.1129      0.2579      0.0         0.0         0.9996      
2834.7924   2.3529      2081.9      3879.5      0.2628      0.0         0.3443      0.1434      0.017       0.1073      0.3701      0.1251      0.2494      0.0         0.0         0.9996      
2834.9448   2.3803      2123.3      3990.7      0.2434      0.0         0.2881      0.2339      0.0         0.0994      0.3427      0.1356      0.235       0.0         0.0         0.9996      
2835.0972   2.4025      2147.2      4061.2      0.2423      0.0         0.2738      0.263       0.0         0.099       0.3413      0.1216      0.2205      0.0         0.0         0.9995      
2835.2496   2.4458      2167.6      4085.2      0.2128      0.0         0.4555      0.1389      0.0         0.0869      0.2997      0.106       0.1929      0.0         0.0         0.9995      
2835.402    2.4568      2180.1      4089.0      0.2042      0.0         0.5905      0.0272      0.0         0.0835      0.2877      0.0952      0.1787      0.0         0.0         0.9994      
