#----------------------------------------------------------------------------
~VERSION INFORMATION
VERS.            2.0                  :CWLS LOG ASCII STANDARD -VERSION 2.0
WRAP.            NO                   :ONE LINE PER DEPTH STEP
#
#--------------------------------------------------------------------
~WELL INFORMATION
#MNEM .UNIT      DATA                 :DESCRIPTION OF MNEMONIC
#----------      ------------         -------------------------------
STRT  .m         0.0                  :START DEPTH
STEP  .m         0.1524               :STEP DEPTH
STOP  .m         2279.904             :STOP DEPTH
NULL  .          -999.25              :NULL VALUE
COMP  .                               :COMPANY
WELL  .                               :WELL
LOC   .          311975.906,      3195343.67  :LOCATION - AREA
FLD   .                               :FIELD
CTRY  .                               :COUNTRY
DATE  .                               :WELL DATE

XWELL .m          311975               :X POS
YWELL .m          3195343              :Y POS
EDF   .          25.9                 :DERRICK FLOOR ELEVATION
#
#----------------------------------------------------------------------------
~CURVE INFORMATION
#MNEM.UNIT                                  : CURVE DESCRIPTION
#----------                                 -------------------------------
DEPT        .m                              : 1      DEPTH
VSH         .fract                          : 2      Volume
VCL         .fract                          : 3      Volume
SW          .fract                          : 4      Sat
PHIT        .fract                          : 5      Por
PHIE        .fract                          : 6      Por
RHOB        .g/cm3                          : 7      Rho
VP          .m/s                            : 8      Vp
VS          .m/s                            : 9      Vs
Vp_xw       .m/s                            : 10     Vp
Vs_xw       .m/s                            : 11     Vs
Rho_xw      .g/cm3                          : 12     Rho
#
#----------------------------------------------------------------------------
~A          VSH         VCL         SW          PHIT        PHIE        RHOB_raw    VP          VS          Vp_xw       Vs_xw       Rho_xw      
# ...
2058.6192   0.997       0.6928      1.0         0.1954      0.0253      2.292       2465.6205   967.6475    2499.9372   967.1889    2.3025      
2058.7716   0.997       0.6916      1.0         0.1912      0.0214      2.297       2476.9196   975.7597    2518.7429   977.4902    2.3089      
2058.924    0.997       0.6853      1.0         0.1881      0.0198      2.301       2485.8082   981.738     2536.7869   989.7933    2.3139      
2059.0764   0.997       0.6879      1.0         0.1849      0.016       2.302       2487.5745   983.1952    2548.9158   994.6737    2.3185      
2059.2288   0.997       0.7055      1.0         0.1826      0.0094      2.3         2484.7554   981.9439    2546.1538   984.6173    2.3208      
2059.3812   0.997       0.7382      1.0         0.1832      0.002       2.296       2480.2257   979.2369    2520.7588   956.403     2.3178      
2059.5336   0.997       0.7533      1.0         0.1869      0.002       2.291       2474.5077   975.5162    2495.0975   936.8235    2.3113      
2059.686    0.997       0.7195      1.0         0.1892      0.0127      2.286       2469.1348   970.2479    2507.7558   958.6863    2.3101      
2059.8384   0.997       0.6651      1.0         0.198       0.0348      2.285       2461.2801   963.4773    2508.9061   985.0769    2.3004      
2059.9908   0.997       0.6438      1.0         0.2009      0.0429      2.288       2450.4755   956.7821    2512.5592   997.3517    2.2974      
2060.1432   0.997       0.6556      1.0         0.1978      0.0369      2.293       2447.1511   955.37      2516.8983   993.9303    2.3013      
2060.2956   0.997       0.671       1.0         0.1928      0.0282      2.3         2456.9953   961.5056    2526.9394   991.7097    2.3078      
2060.448    0.997       0.6734      1.0         0.1877      0.0224      2.304       2474.6465   974.2765    2547.4514   1001.1355   2.3153      
2060.6004   0.997       0.67        1.0         0.1851      0.0207      2.301       2489.7881   983.3126    2561.5912   1010.0737   2.3194      
2060.7528   0.997       0.6641      1.0         0.1879      0.0249      2.293       2488.9763   982.6627    2553.6992   1009.0095   2.3156      
2060.9052   0.997       0.6539      1.0         0.1946      0.0342      2.287       2472.4627   973.105     2532.0941   1002.8298   2.3062      
2061.0576   0.997       0.6512      1.0         0.1992      0.0395      2.284       2461.459    966.4602    2514.2107   994.6355    2.2995      
2061.21     0.997       0.6712      1.0         0.1995      0.0349      2.281       2466.2392   968.1395    2498.0247   976.3789    2.2978      
2061.3624   0.997       0.6923      1.0         0.1998      0.03        2.276       2474.649    973.105     2481.7564   957.8888    2.296       
2061.5148   0.997       0.6947      1.0         0.2031      0.0327      2.273       2475.7334   973.7628    2466.3988   948.6498    2.2909      
2061.6672   0.997       0.6861      1.0         0.206       0.0377      2.272       2468.4945   969.0509    2460.3361   949.2933    2.2871      
2061.8196   0.997       0.6827      1.0         0.2067      0.0393      2.27        2455.6093   959.6865    2459.798    950.5402    2.2863      
2061.972    0.997       0.6731      1.0         0.2086      0.0436      2.265       2440.7806   948.7122    2458.6516   954.2695    2.2841      
2062.1244   0.997       0.6571      1.0         0.2134      0.0523      2.258       2425.7488   937.4471    2450.2402   956.887     2.2779      
2062.2768   0.997       0.6659      1.0         0.2174      0.0542      2.252       2411.4681   927.0088    2427.8877   940.4482    2.2713      
2062.4292   0.997       0.6816      1.0         0.2202      0.0531      2.25        2401.8723   920.8658    2406.2611   921.4848    2.2662      
2062.5816   0.997       0.6662      1.0         0.2229      0.0596      2.249       2401.7588   920.9447    2405.8152   927.825     2.2631      
2062.734    0.997       0.6398      0.9936      0.2263      0.0694      2.249       2409.3706   926.6246    2406.955    941.9875    2.2593      
2062.8864   0.997       0.6354      0.9886      0.2268      0.071       2.251       2416.3619   933.1909    2405.3729   944.6099    2.2586      
2063.0388   0.9897      0.6263      0.9894      0.2265      0.073       2.252       2420.68     939.1114    2413.5209   953.1084    2.2596      
2063.1912   0.961       0.6083      0.9792      0.2278      0.0787      2.25        2423.6057   946.9111    2416.1738   965.9765    2.2583      
2063.3436   0.9503      0.6016      0.9647      0.2302      0.0827      2.244       2422.5273   950.5108    2403.9744   966.3842    2.2544      
2063.496    0.9703      0.6142      0.9512      0.233       0.0825      2.235       2416.7648   948.3088    2376.3573   948.7025    2.2487      
2063.6484   0.9959      0.6302      0.9301      0.2369      0.0824      2.228       2409.7712   945.2314    2338.821    926.1764    2.2407      
2063.8008   0.9937      0.6289      0.903       0.2414      0.0872      2.224       2405.0565   948.6398    2308.8704   917.1239    2.2325      
2063.9532   0.9507      0.6019      0.8712      0.2468      0.0993      2.22        2409.6395   961.8548    2292.0043   927.4452    2.2242      
2064.1056   0.9552      0.6047      0.8546      0.2507      0.1025      2.215       2427.6773   974.2117    2267.22     916.0216    2.2171      
2064.258    0.997       0.6512      0.8579      0.2515      0.092       2.213       2449.3933   979.5908    2234.2905   876.917     2.2133      
2064.4104   0.997       0.6937      0.8775      0.2496      0.0797      2.218       2460.0088   979.8962    2224.6828   849.581     2.2147      
2064.5628   0.997       0.692       0.9011      0.2463      0.0767      2.227       2452.4675   972.6127    2249.213    857.6393    2.2212      
2064.7152   0.997       0.675       0.9305      0.2414      0.0761      2.235       2429.4059   954.3902    2292.3417   880.5106    2.2312      
2064.8676   0.997       0.6607      0.9587      0.2371      0.0752      2.244       2402.1381   929.4605    2332.2257   900.7653    2.24        
2065.02     0.997       0.656       1.0         0.2312      0.0705      2.254       2385.2377   911.2976    2380.2223   917.3611    2.2513      
2065.1724   0.997       0.6706      1.0         0.2223      0.0581      2.262       2385.1277   908.8873    2405.2482   925.6144    2.2637      
2065.3248   0.997       0.6777      1.0         0.2158      0.0498      2.266       2398.5296   917.5976    2426.2981   934.3817    2.273       
2065.4772   0.997       0.6602      1.0         0.2144      0.0527      2.267       2418.8563   931.9323    2443.9673   951.9887    2.2762      
2065.6296   0.997       0.6563      1.0         0.2141      0.0534      2.27        2435.4009   943.6909    2447.9446   955.9683    2.2769      
2065.782    0.997       0.6729      1.0         0.2104      0.0456      2.272       2442.0532   948.7832    2451.4118   950.3949    2.2814      
2065.9344   0.997       0.6761      1.0         0.2086      0.0431      2.27        2441.7206   949.0022    2456.562    951.7686    2.2839      
2066.0868   0.997       0.6675      1.0         0.2108      0.0473      2.267       2438.0297   946.6293    2453.5441   954.0064    2.2811      
2066.2392   0.997       0.6711      1.0         0.2124      0.0482      2.265       2434.4467   944.6161    2444.5062   947.3991    2.2785      
2066.3916   0.997       0.6662      1.0         0.2141      0.051       2.263       2435.4966   945.5044    2440.9972   947.6438    2.2763      
2066.544    0.997       0.6342      1.0         0.2182      0.0629      2.259       2443.9913   952.3232    2447.1237   965.5447    2.2721      
2066.6964   0.9723      0.6156      1.0         0.2219      0.0712      2.254       2459.2119   964.5845    2445.8034   973.3007    2.2677      
2066.8488   0.9883      0.6256      1.0         0.2239      0.0707      2.252       2477.5076   980.358     2430.2187   959.7147    2.2641      
2067.0012   0.9847      0.6234      0.9805      0.2255      0.0729      2.253       2505.7767   1001.4437   2414.9489   958.0764    2.2609      
