#----------------------------------------------------------------------------
~VERSION INFORMATION
VERS.            2.0                  :CWLS LOG ASCII STANDARD -VERSION 2.0
WRAP.            NO                   :ONE LINE PER DEPTH STEP
#
#--------------------------------------------------------------------
~WELL INFORMATION
#MNEM .UNIT      DATA                 :DESCRIPTION OF MNEMONIC
#----------      ------------         -------------------------------
STRT  .m         1900.0               :START DEPTH
STEP  .m         0.1524               :STEP DEPTH
STOP  .m         2100.0               :STOP DEPTH
NULL  .          -999.25              :NULL VALUE
COMP  .                               :COMPANY
WELL  .          Grana2018            :WELL
LOC   .                               :LOCATION - AREA
FLD   .                               :FIELD
CTRY  .                               :COUNTRY
DATE  .                               :WELL DATE

XWELL .m          0                    :X POS
YWELL .m          0                    :Y POS
EDF   .          0.0                  :DERRICK FLOOR ELEVATION
#
#----------------------------------------------------------------------------
~CURVE INFORMATION
#MNEM.UNIT                                  : CURVE DESCRIPTION
#----------                                 -------------------------------
DEPT        .m                              : 1      DEPTH
VCL         .fract                          : 2      Volume
PHIT        .fract                          : 3      Por
SW          .fract                          : 4      Sat
VP          .m/s                            : 5      Vp
VS          .m/s                            : 6      Vs
RHOB        .g/cm3                          : 7      Rho
#
#----------------------------------------------------------------------------
~A          VOL_CLAY    PHI         SW          VP          VS          RHOB        
# ...
2037.0076   0.4418      0.1197      0.9949      4047.1068   2095.8922   2.576       
2037.16     0.4659      0.1188      0.9949      4054.2345   2107.1376   2.5757      
2037.3124   0.4788      0.121       0.9949      4074.8768   2113.4806   2.5747      
2037.4648   0.4711      0.1222      0.9949      4081.6715   2114.7336   2.57        
2037.6172   0.4209      0.1236      0.9949      4081.7946   2114.6274   2.559       
2037.7696   0.3883      0.1229      0.9949      4081.3463   2121.7194   2.5525      
2037.922    0.353       0.1217      0.9949      4049.0677   2102.6701   2.547       
2038.0744   0.3412      0.1217      0.9949      4016.6108   2074.1393   2.5424      
2038.2268   0.3485      0.1217      0.9949      3944.8749   2027.2222   2.5353      
2038.3792   0.3589      0.1217      0.9949      3904.1694   1997.9035   2.5326      
2038.5316   0.375       0.1217      0.9949      3863.1114   1969.1847   2.5431      
2038.684    0.3783      0.1217      0.9949      3855.6139   1961.3795   2.5502      
2038.8364   0.3937      0.1239      0.9949      3851.8382   1955.2705   2.5593      
2038.9888   0.4197      0.1247      0.9949      3864.7269   1951.6289   2.5575      
2039.1412   0.4519      0.1256      0.9949      3759.6787   1927.2822   2.5527      
2039.2936   0.5059      0.1292      0.9949      3650.6767   1884.5994   2.548       
2039.446    0.5098      0.1315      0.9949      3641.2143   1882.8751   2.5479      
2039.5984   0.4792      0.1346      0.9949      3763.7379   1920.7517   2.5498      
2039.7508   0.4328      0.1313      0.9936      3856.07     1954.8483   2.5591      
2039.9032   0.3746      0.1206      0.9949      4043.2447   2025.4454   2.582       
2040.0556   0.3621      0.1126      0.9949      4054.0789   2029.6105   2.5974      
2040.208    0.3801      0.1079      0.9949      4055.6872   2022.7752   2.6017      
2040.3604   0.4094      0.1115      0.9949      4055.7      2018.6773   2.5905      
2040.5128   0.4381      0.1246      0.9949      4055.722    2015.1827   2.5652      
2040.6652   0.4336      0.1276      0.9949      4055.8752   2015.8499   2.5635      
2040.8176   0.4016      0.1235      0.9949      4045.6289   2030.9182   2.5769      
2040.97     0.378       0.1173      0.9949      4052.6035   2044.9733   2.5925      
2041.1224   0.3742      0.1099      0.9949      4055.7537   2065.325    2.6085      
2041.2748   0.3796      0.1104      0.9949      4055.7077   2072.2445   2.6071      
2041.4272   0.3948      0.1157      0.9949      4055.7354   2081.8785   2.5842      
2041.5796   0.407       0.1184      0.9949      4055.8897   2093.0364   2.5711      
2041.732    0.4386      0.123       0.9949      3991.2869   2068.0535   2.5603      
2041.8844   0.4651      0.1248      0.9949      3808.4434   2004.384    2.5602      
2042.0368   0.4967      0.1234      0.9949      3717.897    1960.6807   2.5667      
2042.1892   0.512       0.1218      0.9949      3555.1066   1900.6465   2.5691      
2042.3416   0.5124      0.1218      0.9949      3549.9473   1898.7036   2.5756      
2042.494    0.5124      0.1197      0.9949      3573.7561   1911.454    2.5846      
2042.6464   0.5194      0.1182      0.9949      3586.7038   1924.5936   2.5848      
2042.7988   0.5258      0.1167      0.9949      3662.4775   1969.8552   2.5848      
2042.9512   0.517       0.1196      0.9949      3826.4545   2036.2408   2.5767      
2043.1036   0.4727      0.1284      0.9949      4050.6861   2122.8556   2.5495      
2043.256    0.4406      0.1335      0.9949      4172.4894   2165.8339   2.5312      
2043.4084   0.4253      0.1354      0.9949      4228.0723   2185.8878   2.5058      
2043.5608   0.44        0.1337      0.9949      4244.9782   2192.6958   2.5044      
2043.7132   0.4787      0.128       0.9949      4230.5589   2187.6187   2.5232      
2043.8656   0.4883      0.1242      0.9949      4193.9406   2172.4261   2.545       
2044.018    0.4833      0.1146      0.9949      4128.9489   2126.1842   2.5634      
2044.1704   0.4716      0.1087      0.9949      4085.1012   2102.0729   2.5676      
2044.3228   0.4463      0.099       0.9949      4047.2406   2070.8518   2.577       
2044.4752   0.4318      0.0965      0.9949      4056.7733   2065.5797   2.5826      
2044.6276   0.4229      0.1005      0.9949      4099.6718   2077.6442   2.5995      
2044.78     0.4267      0.1051      0.9949      4133.3631   2097.5912   2.6048      
2044.9324   0.4225      0.1138      0.9949      4201.7161   2156.3368   2.6152      
2045.0848   0.4113      0.1172      0.9949      4249.9986   2197.9569   2.6184      
2045.2372   0.3694      0.121       0.9949      4312.4372   2260.6917   2.6048      
2045.3896   0.3438      0.1228      0.9949      4335.092    2288.8301   2.5974      
2045.542    0.3154      0.1228      0.9949      4335.0387   2289.0348   2.5858      
2045.6944   0.302       0.1137      0.9949      4317.9192   2274.5047   2.5788      
2045.8468   0.3018      0.1087      0.9949      4310.6736   2263.4032   2.5785      
