#----------------------------------------------------------------------------
~VERSION INFORMATION
VERS.            2.0                  :CWLS LOG ASCII STANDARD -VERSION 2.0
WRAP.            NO                   :ONE LINE PER DEPTH STEP
#
#--------------------------------------------------------------------
~WELL INFORMATION
#MNEM .UNIT      DATA                 :DESCRIPTION OF MNEMONIC
#----------      ------------         -------------------------------
STRT  .m         0.0                  :START DEPTH
STEP  .m         0.1524               :STEP DEPTH
STOP  .m         4000.0               :STOP DEPTH
NULL  .          -999.25              :NULL VALUE
COMP  .                               :COMPANY
WELL  .          Well5                :WELL
LOC   .                               :LOCATION - AREA
FLD   .                               :FIELD
CTRY  .                               :COUNTRY
DATE  .                               :WELL DATE

XWELL .m          0                    :X POS
YWELL .m          0                    :Y POS
EDF   .          0.0                  :DERRICK FLOOR ELEVATION
#
#----------------------------------------------------------------------------
~CURVE INFORMATION
#MNEM.UNIT                                  : CURVE DESCRIPTION
#----------                                 -------------------------------
DEPT        .m                              : 1      DEPTH
GR          .API                            : 2      GR
PR          .unitless                       : 3      Poisson_Ratio
RHOB        .g/cm3                          : 4      Rho
CALI        .m                              : 5      Cal
VELC        .m/s                            : 6      Vp
VELS        .m/s                            : 7      Vs
Vcdry       .fract                          : 8      Volume
Vbw         .fract                          : 9      Volume
Vcal        .fract                          : 10     Volume
Vqz         .fract                          : 11     Volume
Vparphi     .fract                          : 12     Volume
Voil        .fract                          : 13     Volume
Vgas        .fract                          : 14     Volume
Vw          .fract                          : 15     Volume
Vp_elastic  .m/s                            : 16     Vp
Vs_elastic  .m/s                            : 17     Vs
Rho_elastic .g/cm3                          : 18     Rho
#
#----------------------------------------------------------------------------
~A          GR          PR          RHOB        CALI        VELC        VELS        Vcdry       Vbw         Vcal        Vqz         Vparphi     Voil        Vgas        Vw          Vp_elastic  Vs_elastic  Rho_elastic 
# ...
2763.012    205.5115    -999.25     2.3312      0.3424      -999.25     -999.25     0.6686      0.26        0.0         0.0         0.0714      0.0         0.0         0.0         2501.044    1207.8332   2.2399      
2763.1644   210.2169    -999.25     2.3342      0.3425      -999.25     -999.25     0.6742      0.2623      0.0         0.0         0.0635      0.0         0.0         0.0         2501.2253   1207.9407   2.24        
2763.3168   210.9285    -999.25     2.3415      0.3428      -999.25     -999.25     0.6799      0.2643      0.0         0.0         0.0558      0.0         0.0         0.0         2501.4068   1208.0483   2.2402      
2763.4692   211.2994    -999.25     2.3493      0.3425      -999.25     -999.25     0.6821      0.2652      0.0         0.0         0.0527      0.0         0.0         0.0         2501.5885   1208.1561   2.2403      
2763.6216   213.3029    -999.25     2.3412      0.3421      -999.25     -999.25     0.6769      0.2633      0.0         0.0         0.0599      0.0         0.0         0.0         2501.7705   1208.2641   2.2404      
2763.774    216.1513    -999.25     2.3323      0.3421      -999.25     -999.25     0.6725      0.2616      0.0         0.0         0.066       0.0         0.0         0.0         2501.9526   1208.3721   2.2405      
2763.9264   219.3953    -999.25     2.332       0.3421      -999.25     -999.25     0.6703      0.2607      0.0         0.0         0.069       0.0         0.0         0.0         2502.135    1208.4803   2.2406      
2764.0788   222.4467    -999.25     2.335       0.3426      -999.25     -999.25     0.668       0.2598      0.0         0.0         0.0722      0.0         0.0         0.0         2502.3176   1208.5887   2.2407      
2764.2312   221.7838    -999.25     2.328       0.3423      -999.25     -999.25     0.6681      0.2598      0.0         0.0         0.072       0.0         0.0         0.0         2502.5004   1208.6972   2.2408      
2764.3836   221.2149    -999.25     2.3123      0.3422      -999.25     -999.25     0.6721      0.2613      0.0         0.0         0.0666      0.0         0.0         0.0         2502.6834   1208.8058   2.2409      
2764.536    221.4383    -999.25     2.3004      0.3421      -999.25     -999.25     0.6761      0.2629      0.0         0.0         0.061       0.0         0.0         0.0         2502.8666   1208.9145   2.241       
2764.6884   221.2822    -999.25     2.3007      0.3423      -999.25     -999.25     0.6722      0.2614      0.0         0.0         0.0664      0.0         0.0         0.0         2503.05     1209.0234   2.2411      
2764.8408   221.1188    -999.25     2.3072      0.3426      -999.25     -999.25     0.6715      0.2611      0.0         0.0         0.0674      0.0         0.0         0.0         2503.2336   1209.1325   2.2412      
2764.9932   220.9874    -999.25     2.3105      0.3423      -999.25     -999.25     0.6708      0.2608      0.0         0.0         0.0684      0.0         0.0         0.0         2503.4175   1209.2416   2.2413      
2765.1456   221.102     -999.25     2.3138      0.342       -999.25     -999.25     0.6723      0.2615      0.0         0.0         0.0662      0.0         0.0         0.0         2503.6015   1209.3509   2.2414      
2765.298    221.5772    -999.25     2.321       0.3419      -999.25     -999.25     0.672       0.2613      0.0         0.0         0.0667      0.0         0.0         0.0         2503.7858   1209.4604   2.2415      
2765.4504   222.2317    -999.25     2.3262      0.3421      -999.25     -999.25     0.679       0.264       0.0         0.0         0.0569      0.0         0.0         0.0         2503.9703   1209.5699   2.2416      
2765.6028   222.1012    -999.25     2.3248      0.3423      -999.25     -999.25     0.6829      0.2656      0.0         0.0         0.0515      0.0         0.0         0.0         2504.155    1209.6796   2.2417      
2765.7552   221.6972    -999.25     2.3183      0.3423      -999.25     -999.25     0.6792      0.2642      0.0         0.0         0.0566      0.0         0.0         0.0         2504.3399   1209.7895   2.2418      
2765.9076   221.8784    -999.25     2.3134      0.3424      -999.25     -999.25     0.6759      0.2629      0.0         0.0         0.0612      0.0         0.0         0.0         2504.525    1209.8995   2.2419      
2766.06     222.457     -999.25     2.316       0.3425      -999.25     -999.25     0.6797      0.2643      0.0         0.0         0.056       0.0         0.0         0.0         2504.7103   1210.0096   2.242       
2766.2124   220.9942    -999.25     2.3253      0.3424      -999.25     -999.25     0.6833      0.2657      0.0         0.0         0.0509      0.0         0.0         0.0         2504.8958   1210.1198   2.2421      
2766.3648   218.0013    -999.25     2.3355      0.3423      -999.25     -999.25     0.682       0.2652      0.0         0.0         0.0527      0.0         0.0         0.0         2505.0816   1210.2302   2.2422      
2766.5172   216.5266    -999.25     2.3418      0.3423      -999.25     -999.25     0.6835      0.2658      0.0         0.0         0.0507      0.0         0.0         0.0         2505.2675   1210.3407   2.2423      
2766.6696   216.696     -999.25     2.3442      0.3423      -999.25     -999.25     0.6844      0.2662      0.0         0.0         0.0494      0.0         0.0         0.0         2505.4537   1210.4514   2.2424      
2766.822    216.2167    -999.25     2.3438      0.3428      -999.25     -999.25     0.6762      0.2629      0.0         0.0         0.0609      0.0         0.0         0.0         2505.6401   1210.5622   2.2425      
2766.9744   215.1342    -999.25     2.34        0.3437      -999.25     -999.25     0.669       0.2602      0.0         0.0         0.0709      0.0         0.0         0.0         2505.8266   1210.6731   2.2426      
2767.1268   216.6535    -999.25     2.3333      0.3429      -999.25     -999.25     0.6697      0.2604      0.0         0.0         0.0699      0.0         0.0         0.0         2506.0134   1210.7842   2.2427      
2767.2792   222.5686    -999.25     2.3257      0.3423      -999.25     -999.25     0.6709      0.2609      0.0         0.0         0.0682      0.0         0.0         0.0         2506.2004   1210.8954   2.2428      
2767.4316   228.1147    -999.25     2.3205      0.3423      -999.25     -999.25     0.659       0.2563      0.0         0.0         0.0848      0.0         0.0         0.0         2506.3877   1211.0068   2.2429      
2767.584    227.3453    -999.25     2.3195      0.3425      -999.25     -999.25     0.6587      0.2562      0.0         0.0         0.0851      0.0         0.0         0.0         2506.5751   1211.1182   2.243       
2767.7364   221.5574    -999.25     2.3241      0.343       -999.25     -999.25     0.6707      0.2608      0.0         0.0         0.0685      0.0         0.0         0.0         2506.7627   1211.2299   2.2431      
2767.8888   217.105     -999.25     2.3333      0.3426      -999.25     -999.25     0.6835      0.2658      0.0         0.0         0.0507      0.0         0.0         0.0         2506.9506   1211.3416   2.2433      
2768.0412   215.9228    -999.25     2.3418      0.3423      -999.25     -999.25     0.6837      0.2659      0.0         0.0         0.0504      0.0         0.0         0.0         2507.1386   1211.4535   2.2434      
2768.1936   216.6923    -999.25     2.3428      0.3426      -999.25     -999.25     0.6787      0.2639      0.0         0.0         0.0574      0.0         0.0         0.0         2507.3269   1211.5655   2.2435      
2768.346    218.5209    -999.25     2.3352      0.3428      -999.25     -999.25     0.6807      0.2647      0.0         0.0         0.0547      0.0         0.0         0.0         2507.5153   1211.6777   2.2436      
2768.4984   220.1692    -999.25     2.3262      0.3425      -999.25     -999.25     0.6884      0.2678      0.0         0.0         0.0438      0.0         0.0         0.0         2507.704    1211.79     2.2437      
